time roll pitch yaw roll_d pitch_d yaw_d longitude latitude height roll_t pitch_t yaw_t longitude_t latitude_t height_t roll_signal pitch_signal yaw_signal throttle Kp_r_d Ki_r_d Kd_r_d Kp_p_d Ki_p_d Kd_p_d Kp_y_d Ki_y_d Kd_y_d Kp_r Ki_r Kd_r Kp_p Ki_p Kd_p Kp_y Ki_y Kd_y Kp_lon Ki_lon Kd_lon Kp_lat Ki_lat Kd_lat Kp_h Ki_h Kd_h
0 0 0 0 0 0 0 0 0 0 0 0 0 0 0 25 0 0 0 1250 0.5 0.1 0.3 0.5 0.1 0.3 1.5 0.5 0.3 1.7 0 0 1.7 0 0 0 0 0 0 0 0 0 0 0 1.5 0 0.11
0 0 0 0 0 0 0 0 0 0 0 0 0 0 0 25 0 0 0 1250 0.5 0.1 0.3 0.5 0.1 0.3 1.5 0.5 0.3 1.7 0 0 1.7 0 0 0 0 0 0 0 0 0 0 0 1.5 0 0.11
0 0 0 0 0 0 0 0 0 0 0 0 0 0 0 25 0 0 0 1250 0.5 0.1 0.3 0.5 0.1 0.3 1.5 0.5 0.3 1.7 0 0 1.7 0 0 0 0 0 0 0 0 0 0 0 1.5 0 0.11
0 0 0 0 0 0 0 0 0 0 0 0 0 0 0 25 0 0 0 1250 0.5 0.1 0.3 0.5 0.1 0.3 1.5 0.5 0.3 1.7 0 0 1.7 0 0 0 0 0 0 0 0 0 0 0 1.5 0 0.11
0 0 0 0 0 0 0 0 0 0 0 0 0 0 0 25 0 0 0 1250 0.5 0.1 0.3 0.5 0.1 0.3 1.5 0.5 0.3 1.7 0 0 1.7 0 0 0 0 0 0 0 0 0 0 0 1.5 0 0.11
0 0 0 0 0 0 0 0 0 0 0 0 0 0 0 25 0 0 0 1250 0.5 0.1 0.3 0.5 0.1 0.3 1.5 0.5 0.3 1.7 0 0 1.7 0 0 0 0 0 0 0 0 0 0 0 1.5 0 0.11
0 0 0 0 0 0 0 0 0 0 0 0 0 0 0 25 0 0 0 1250 0.5 0.1 0.3 0.5 0.1 0.3 1.5 0.5 0.3 1.7 0 0 1.7 0 0 0 0 0 0 0 0 0 0 0 1.5 0 0.11
0 0 0 0 0 0 0 0 0 0 0 0 0 0 0 25 0 0 0 1250 0.5 0.1 0.3 0.5 0.1 0.3 1.5 0.5 0.3 1.7 0 0 1.7 0 0 0 0 0 0 0 0 0 0 0 1.5 0 0.11
0 0 0 0 0 0 0 0 0 0 0 0 0 0 0 25 0 0 0 1250 0.5 0.1 0.3 0.5 0.1 0.3 1.5 0.5 0.3 1.7 0 0 1.7 0 0 0 0 0 0 0 0 0 0 0 1.5 0 0.11
0 0 0 0 0 0 0 0 0 0 0 0 0 0 0 25 0 0 0 1250 0.5 0.1 0.3 0.5 0.1 0.3 1.5 0.5 0.3 1.7 0 0 1.7 0 0 0 0 0 0 0 0 0 0 0 1.5 0 0.11
0 0 0 0 0 0 0 0 0 0 0 0 0 0 0 25 0 0 0 1250 0.5 0.1 0.3 0.5 0.1 0.3 1.5 0.5 0.3 1.7 0 0 1.7 0 0 0 0 0 0 0 0 0 0 0 1.5 0 0.11
0 0 0 0 0 0 0 0 0 0 0 0 0 0 0 25 0 0 0 1250 0.5 0.1 0.3 0.5 0.1 0.3 1.5 0.5 0.3 1.7 0 0 1.7 0 0 0 0 0 0 0 0 0 0 0 1.5 0 0.11
0 0 0 0 0 0 0 0 0 0 0 0 0 0 0 25 0 0 0 1250 0.5 0.1 0.3 0.5 0.1 0.3 1.5 0.5 0.3 1.7 0 0 1.7 0 0 0 0 0 0 0 0 0 0 0 1.5 0 0.11
0 0 0 0 0 0 0 0 0 0 0 0 0 0 0 25 0 0 0 1250 0.5 0.1 0.3 0.5 0.1 0.3 1.5 0.5 0.3 1.7 0 0 1.7 0 0 0 0 0 0 0 0 0 0 0 1.5 0 0.11
0 0 0 0 0 0 0 0 0 0 0 0 0 0 0 25 0 0 0 1250 0.5 0.1 0.3 0.5 0.1 0.3 1.5 0.5 0.3 1.7 0 0 1.7 0 0 0 0 0 0 0 0 0 0 0 1.5 0 0.11
0 0 0 0 0 0 0 0 0 0 0 0 0 0 0 25 0 0 0 1250 0.5 0.1 0.3 0.5 0.1 0.3 1.5 0.5 0.3 1.7 0 0 1.7 0 0 0 0 0 0 0 0 0 0 0 1.5 0 0.11
0 0 0 0 0 0 0 0 0 0 0 0 0 0 0 25 0 0 0 1250 0.5 0.1 0.3 0.5 0.1 0.3 1.5 0.5 0.3 1.7 0 0 1.7 0 0 0 0 0 0 0 0 0 0 0 1.5 0 0.11
0 0 0 0 0 0 0 0 0 0 0 0 0 0 0 25 0 0 0 1250 0.5 0.1 0.3 0.5 0.1 0.3 1.5 0.5 0.3 1.7 0 0 1.7 0 0 0 0 0 0 0 0 0 0 0 1.5 0 0.11
0 0 0 0 0 0 0 0 0 0 0 0 0 0 0 25 0 0 0 1250 0.5 0.1 0.3 0.5 0.1 0.3 1.5 0.5 0.3 1.7 0 0 1.7 0 0 0 0 0 0 0 0 0 0 0 1.5 0 0.11
0 0 0 0 0 0 0 0 0 0 0 0 0 0 0 25 0 0 0 1250 0.5 0.1 0.3 0.5 0.1 0.3 1.5 0.5 0.3 1.7 0 0 1.7 0 0 0 0 0 0 0 0 0 0 0 1.5 0 0.11
0 0 0 0 0 0 0 0 0 0 0 0 0 0 0 25 0 0 0 1250 0.5 0.1 0.3 0.5 0.1 0.3 1.5 0.5 0.3 1.7 0 0 1.7 0 0 0 0 0 0 0 0 0 0 0 1.5 0 0.11
0 0 0 0 0 0 0 0 0 0 0 0 0 0 0 25 0 0 0 1250 0.5 0.1 0.3 0.5 0.1 0.3 1.5 0.5 0.3 1.7 0 0 1.7 0 0 0 0 0 0 0 0 0 0 0 1.5 0 0.11
0 0 0 0 0 0 0 0 0 0 0 0 0 0 0 25 0 0 0 1250 0.5 0.1 0.3 0.5 0.1 0.3 1.5 0.5 0.3 1.7 0 0 1.7 0 0 0 0 0 0 0 0 0 0 0 1.5 0 0.11
0 0 0 0 0 0 0 0 0 0 0 0 0 0 0 25 0 0 0 1250 0.5 0.1 0.3 0.5 0.1 0.3 1.5 0.5 0.3 1.7 0 0 1.7 0 0 0 0 0 0 0 0 0 0 0 1.5 0 0.11
0 0 0 0 0 0 0 0 0 0 0 0 0 0 0 25 0 0 0 1250 0.5 0.1 0.3 0.5 0.1 0.3 1.5 0.5 0.3 1.7 0 0 1.7 0 0 0 0 0 0 0 0 0 0 0 1.5 0 0.11
0 0 0 0 0 0 0 0 0 0 0 0 0 0 0 25 0 0 0 1250 0.5 0.1 0.3 0.5 0.1 0.3 1.5 0.5 0.3 1.7 0 0 1.7 0 0 0 0 0 0 0 0 0 0 0 1.5 0 0.11
0 0 0 0 0 0 0 0 0 0 0 0 0 0 0 25 0 0 0 1250 0.5 0.1 0.3 0.5 0.1 0.3 1.5 0.5 0.3 1.7 0 0 1.7 0 0 0 0 0 0 0 0 0 0 0 1.5 0 0.11
0 0 0 0 0 0 0 0 0 0 0 0 0 0 0 25 0 0 0 1250 0.5 0.1 0.3 0.5 0.1 0.3 1.5 0.5 0.3 1.7 0 0 1.7 0 0 0 0 0 0 0 0 0 0 0 1.5 0 0.11
0 0 0 0 0 0 0 0 0 0 0 0 0 0 0 25 0 0 0 1250 0.5 0.1 0.3 0.5 0.1 0.3 1.5 0.5 0.3 1.7 0 0 1.7 0 0 0 0 0 0 0 0 0 0 0 1.5 0 0.11
0 0 0 0 0 0 0 0 0 0 0 0 0 0 0 25 0 0 0 1250 0.5 0.1 0.3 0.5 0.1 0.3 1.5 0.5 0.3 1.7 0 0 1.7 0 0 0 0 0 0 0 0 0 0 0 1.5 0 0.11
0 0 0 0 0 0 0 0 0 0 0 0 0 0 0 25 0 0 0 1250 0.5 0.1 0.3 0.5 0.1 0.3 1.5 0.5 0.3 1.7 0 0 1.7 0 0 0 0 0 0 0 0 0 0 0 1.5 0 0.11
0 0 0 0 0 0 0 0 0 0 0 0 0 0 0 25 0 0 0 1250 0.5 0.1 0.3 0.5 0.1 0.3 1.5 0.5 0.3 1.7 0 0 1.7 0 0 0 0 0 0 0 0 0 0 0 1.5 0 0.11
0 0 0 0 0 0 0 0 0 0 0 0 0 0 0 25 0 0 0 1250 0.5 0.1 0.3 0.5 0.1 0.3 1.5 0.5 0.3 1.7 0 0 1.7 0 0 0 0 0 0 0 0 0 0 0 1.5 0 0.11
0 0 0 0 0 0 0 0 0 0 0 0 0 0 0 25 0 0 0 1250 0.5 0.1 0.3 0.5 0.1 0.3 1.5 0.5 0.3 1.7 0 0 1.7 0 0 0 0 0 0 0 0 0 0 0 1.5 0 0.11
0 0 0 0 0 0 0 0 0 0 0 0 0 0 0 25 0 0 0 1250 0.5 0.1 0.3 0.5 0.1 0.3 1.5 0.5 0.3 1.7 0 0 1.7 0 0 0 0 0 0 0 0 0 0 0 1.5 0 0.11
0 0 0 0 0 0 0 0 0 0 0 0 0 0 0 25 0 0 0 1250 0.5 0.1 0.3 0.5 0.1 0.3 1.5 0.5 0.3 1.7 0 0 1.7 0 0 0 0 0 0 0 0 0 0 0 1.5 0 0.11
0 0 0 0 0 0 0 0 0 0 0 0 0 0 0 25 0 0 0 1250 0.5 0.1 0.3 0.5 0.1 0.3 1.5 0.5 0.3 1.7 0 0 1.7 0 0 0 0 0 0 0 0 0 0 0 1.5 0 0.11
0 0 0 0 0 0 0 0 0 0 0 0 0 0 0 25 0 0 0 1250 0.5 0.1 0.3 0.5 0.1 0.3 1.5 0.5 0.3 1.7 0 0 1.7 0 0 0 0 0 0 0 0 0 0 0 1.5 0 0.11
0 0 0 0 0 0 0 0 0 0 0 0 0 0 0 25 0 0 0 1250 0.5 0.1 0.3 0.5 0.1 0.3 1.5 0.5 0.3 1.7 0 0 1.7 0 0 0 0 0 0 0 0 0 0 0 1.5 0 0.11
0 0 0 0 0 0 0 0 0 0 0 0 0 0 0 25 0 0 0 1250 0.5 0.1 0.3 0.5 0.1 0.3 1.5 0.5 0.3 1.7 0 0 1.7 0 0 0 0 0 0 0 0 0 0 0 1.5 0 0.11
0 0 0 0 0 0 0 0 0 0 0 0 0 0 0 25 0 0 0 1250 0.5 0.1 0.3 0.5 0.1 0.3 1.5 0.5 0.3 1.7 0 0 1.7 0 0 0 0 0 0 0 0 0 0 0 1.5 0 0.11
0 0 0 0 0 0 0 0 0 0 0 0 0 0 0 25 0 0 0 1250 0.5 0.1 0.3 0.5 0.1 0.3 1.5 0.5 0.3 1.7 0 0 1.7 0 0 0 0 0 0 0 0 0 0 0 1.5 0 0.11
0 0 0 0 0 0 0 0 0 0 0 0 0 0 0 25 0 0 0 1250 0.5 0.1 0.3 0.5 0.1 0.3 1.5 0.5 0.3 1.7 0 0 1.7 0 0 0 0 0 0 0 0 0 0 0 1.5 0 0.11
0 0 0 0 0 0 0 0 0 0 0 0 0 0 0 25 0 0 0 1250 0.5 0.1 0.3 0.5 0.1 0.3 1.5 0.5 0.3 1.7 0 0 1.7 0 0 0 0 0 0 0 0 0 0 0 1.5 0 0.11
0 0 0 0 0 0 0 0 0 0 0 0 0 0 0 25 0 0 0 1250 0.5 0.1 0.3 0.5 0.1 0.3 1.5 0.5 0.3 1.7 0 0 1.7 0 0 0 0 0 0 0 0 0 0 0 1.5 0 0.11
0 0 0 0 0 0 0 0 0 0 0 0 0 0 0 25 0 0 0 1250 0.5 0.1 0.3 0.5 0.1 0.3 1.5 0.5 0.3 1.7 0 0 1.7 0 0 0 0 0 0 0 0 0 0 0 1.5 0 0.11
0 0 0 0 0 0 0 0 0 0 0 0 0 0 0 25 0 0 0 1250 0.5 0.1 0.3 0.5 0.1 0.3 1.5 0.5 0.3 1.7 0 0 1.7 0 0 0 0 0 0 0 0 0 0 0 1.5 0 0.11
0 0 0 0 0 0 0 0 0 0 0 0 0 0 0 25 0 0 0 1250 0.5 0.1 0.3 0.5 0.1 0.3 1.5 0.5 0.3 1.7 0 0 1.7 0 0 0 0 0 0 0 0 0 0 0 1.5 0 0.11
0 0 0 0 0 0 0 0 0 0 0 0 0 0 0 25 0 0 0 1250 0.5 0.1 0.3 0.5 0.1 0.3 1.5 0.5 0.3 1.7 0 0 1.7 0 0 0 0 0 0 0 0 0 0 0 1.5 0 0.11
0 0 0 0 0 0 0 0 0 0 0 0 0 0 0 25 0 0 0 1250 0.5 0.1 0.3 0.5 0.1 0.3 1.5 0.5 0.3 1.7 0 0 1.7 0 0 0 0 0 0 0 0 0 0 0 1.5 0 0.11
0 0 0 0 0 0 0 0 0 0 0 0 0 0 0 25 0 0 0 1250 0.5 0.1 0.3 0.5 0.1 0.3 1.5 0.5 0.3 1.7 0 0 1.7 0 0 0 0 0 0 0 0 0 0 0 1.5 0 0.11
0 0 0 0 0 0 0 0 0 0 0 0 0 0 0 25 0 0 0 1250 0.5 0.1 0.3 0.5 0.1 0.3 1.5 0.5 0.3 1.7 0 0 1.7 0 0 0 0 0 0 0 0 0 0 0 1.5 0 0.11
0 0 0 0 0 0 0 0 0 0 0 0 0 0 0 25 0 0 0 1250 0.5 0.1 0.3 0.5 0.1 0.3 1.5 0.5 0.3 1.7 0 0 1.7 0 0 0 0 0 0 0 0 0 0 0 1.5 0 0.11
0 0 0 0 0 0 0 0 0 0 0 0 0 0 0 25 0 0 0 1250 0.5 0.1 0.3 0.5 0.1 0.3 1.5 0.5 0.3 1.7 0 0 1.7 0 0 0 0 0 0 0 0 0 0 0 1.5 0 0.11
0 0 0 0 0 0 0 0 0 0 0 0 0 0 0 25 0 0 0 1250 0.5 0.1 0.3 0.5 0.1 0.3 1.5 0.5 0.3 1.7 0 0 1.7 0 0 0 0 0 0 0 0 0 0 0 1.5 0 0.11
0 0 0 0 0 0 0 0 0 0 0 0 0 0 0 25 0 0 0 1250 0.5 0.1 0.3 0.5 0.1 0.3 1.5 0.5 0.3 1.7 0 0 1.7 0 0 0 0 0 0 0 0 0 0 0 1.5 0 0.11
0 0 0 0 0 0 0 0 0 0 0 0 0 0 0 25 0 0 0 1250 0.5 0.1 0.3 0.5 0.1 0.3 1.5 0.5 0.3 1.7 0 0 1.7 0 0 0 0 0 0 0 0 0 0 0 1.5 0 0.11
0 0 0 0 0 0 0 0 0 0 0 0 0 0 0 25 0 0 0 1250 0.5 0.1 0.3 0.5 0.1 0.3 1.5 0.5 0.3 1.7 0 0 1.7 0 0 0 0 0 0 0 0 0 0 0 1.5 0 0.11
0 0 0 0 0 0 0 0 0 0 0 0 0 0 0 25 0 0 0 1250 0.5 0.1 0.3 0.5 0.1 0.3 1.5 0.5 0.3 1.7 0 0 1.7 0 0 0 0 0 0 0 0 0 0 0 1.5 0 0.11
0 0 0 0 0 0 0 0 0 0 0 0 0 0 0 25 0 0 0 1250 0.5 0.1 0.3 0.5 0.1 0.3 1.5 0.5 0.3 1.7 0 0 1.7 0 0 0 0 0 0 0 0 0 0 0 1.5 0 0.11
0 0 0 0 0 0 0 0 0 0 0 0 0 0 0 25 0 0 0 1250 0.5 0.1 0.3 0.5 0.1 0.3 1.5 0.5 0.3 1.7 0 0 1.7 0 0 0 0 0 0 0 0 0 0 0 1.5 0 0.11
0 0 0 0 0 0 0 0 0 0 0 0 0 0 0 25 0 0 0 1250 0.5 0.1 0.3 0.5 0.1 0.3 1.5 0.5 0.3 1.7 0 0 1.7 0 0 0 0 0 0 0 0 0 0 0 1.5 0 0.11
0 0 0 0 0 0 0 0 0 0 0 0 0 0 0 25 0 0 0 1250 0.5 0.1 0.3 0.5 0.1 0.3 1.5 0.5 0.3 1.7 0 0 1.7 0 0 0 0 0 0 0 0 0 0 0 1.5 0 0.11
0 0 0 0 0 0 0 0 0 0 0 0 0 0 0 25 0 0 0 1250 0.5 0.1 0.3 0.5 0.1 0.3 1.5 0.5 0.3 1.7 0 0 1.7 0 0 0 0 0 0 0 0 0 0 0 1.5 0 0.11
0 0 0 0 0 0 0 0 0 0 0 0 0 0 0 25 0 0 0 1250 0.5 0.1 0.3 0.5 0.1 0.3 1.5 0.5 0.3 1.7 0 0 1.7 0 0 0 0 0 0 0 0 0 0 0 1.5 0 0.11
0 0 0 0 0 0 0 0 0 0 0 0 0 0 0 25 0 0 0 1250 0.5 0.1 0.3 0.5 0.1 0.3 1.5 0.5 0.3 1.7 0 0 1.7 0 0 0 0 0 0 0 0 0 0 0 1.5 0 0.11
0 0 0 0 0 0 0 0 0 0 0 0 0 0 0 25 0 0 0 1250 0.5 0.1 0.3 0.5 0.1 0.3 1.5 0.5 0.3 1.7 0 0 1.7 0 0 0 0 0 0 0 0 0 0 0 1.5 0 0.11
0 0 0 0 0 0 0 0 0 0 0 0 0 0 0 25 0 0 0 1250 0.5 0.1 0.3 0.5 0.1 0.3 1.5 0.5 0.3 1.7 0 0 1.7 0 0 0 0 0 0 0 0 0 0 0 1.5 0 0.11
0 0 0 0 0 0 0 0 0 0 0 0 0 0 0 25 0 0 0 1250 0.5 0.1 0.3 0.5 0.1 0.3 1.5 0.5 0.3 1.7 0 0 1.7 0 0 0 0 0 0 0 0 0 0 0 1.5 0 0.11
0 0 0 0 0 0 0 0 0 0 0 0 0 0 0 25 0 0 0 1250 0.5 0.1 0.3 0.5 0.1 0.3 1.5 0.5 0.3 1.7 0 0 1.7 0 0 0 0 0 0 0 0 0 0 0 1.5 0 0.11
0 0 0 0 0 0 0 0 0 0 0 0 0 0 0 25 0 0 0 1250 0.5 0.1 0.3 0.5 0.1 0.3 1.5 0.5 0.3 1.7 0 0 1.7 0 0 0 0 0 0 0 0 0 0 0 1.5 0 0.11
0 0 0 0 0 0 0 0 0 0 0 0 0 0 0 25 0 0 0 1250 0.5 0.1 0.3 0.5 0.1 0.3 1.5 0.5 0.3 1.7 0 0 1.7 0 0 0 0 0 0 0 0 0 0 0 1.5 0 0.11
0 0 0 0 0 0 0 0 0 0 0 0 0 0 0 25 0 0 0 1250 0.5 0.1 0.3 0.5 0.1 0.3 1.5 0.5 0.3 1.7 0 0 1.7 0 0 0 0 0 0 0 0 0 0 0 1.5 0 0.11
0 0 0 0 0 0 0 0 0 0 0 0 0 0 0 25 0 0 0 1250 0.5 0.1 0.3 0.5 0.1 0.3 1.5 0.5 0.3 1.7 0 0 1.7 0 0 0 0 0 0 0 0 0 0 0 1.5 0 0.11
0 0 0 0 0 0 0 0 0 0 0 0 0 0 0 25 0 0 0 1250 0.5 0.1 0.3 0.5 0.1 0.3 1.5 0.5 0.3 1.7 0 0 1.7 0 0 0 0 0 0 0 0 0 0 0 1.5 0 0.11
0 0 0 0 0 0 0 0 0 0 0 0 0 0 0 25 0 0 0 1250 0.5 0.1 0.3 0.5 0.1 0.3 1.5 0.5 0.3 1.7 0 0 1.7 0 0 0 0 0 0 0 0 0 0 0 1.5 0 0.11
0 0 0 0 0 0 0 0 0 0 0 0 0 0 0 25 0 0 0 1250 0.5 0.1 0.3 0.5 0.1 0.3 1.5 0.5 0.3 1.7 0 0 1.7 0 0 0 0 0 0 0 0 0 0 0 1.5 0 0.11
0 0 0 0 0 0 0 0 0 0 0 0 0 0 0 25 0 0 0 1250 0.5 0.1 0.3 0.5 0.1 0.3 1.5 0.5 0.3 1.7 0 0 1.7 0 0 0 0 0 0 0 0 0 0 0 1.5 0 0.11
0 0 0 0 0 0 0 0 0 0 0 0 0 0 0 25 0 0 0 1250 0.5 0.1 0.3 0.5 0.1 0.3 1.5 0.5 0.3 1.7 0 0 1.7 0 0 0 0 0 0 0 0 0 0 0 1.5 0 0.11
0 0 0 0 0 0 0 0 0 0 0 0 0 0 0 25 0 0 0 1250 0.5 0.1 0.3 0.5 0.1 0.3 1.5 0.5 0.3 1.7 0 0 1.7 0 0 0 0 0 0 0 0 0 0 0 1.5 0 0.11
0 0 0 0 0 0 0 0 0 0 0 0 0 0 0 25 0 0 0 1250 0.5 0.1 0.3 0.5 0.1 0.3 1.5 0.5 0.3 1.7 0 0 1.7 0 0 0 0 0 0 0 0 0 0 0 1.5 0 0.11
0 0 0 0 0 0 0 0 0 0 0 0 0 0 0 25 0 0 0 1250 0.5 0.1 0.3 0.5 0.1 0.3 1.5 0.5 0.3 1.7 0 0 1.7 0 0 0 0 0 0 0 0 0 0 0 1.5 0 0.11
0 0 0 0 0 0 0 0 0 0 0 0 0 0 0 25 0 0 0 1250 0.5 0.1 0.3 0.5 0.1 0.3 1.5 0.5 0.3 1.7 0 0 1.7 0 0 0 0 0 0 0 0 0 0 0 1.5 0 0.11
0 0 0 0 0 0 0 0 0 0 0 0 0 0 0 25 0 0 0 1250 0.5 0.1 0.3 0.5 0.1 0.3 1.5 0.5 0.3 1.7 0 0 1.7 0 0 0 0 0 0 0 0 0 0 0 1.5 0 0.11
0 0 0 0 0 0 0 0 0 0 0 0 0 0 0 25 0 0 0 1250 0.5 0.1 0.3 0.5 0.1 0.3 1.5 0.5 0.3 1.7 0 0 1.7 0 0 0 0 0 0 0 0 0 0 0 1.5 0 0.11
0 0 0 0 0 0 0 0 0 0 0 0 0 0 0 25 0 0 0 1250 0.5 0.1 0.3 0.5 0.1 0.3 1.5 0.5 0.3 1.7 0 0 1.7 0 0 0 0 0 0 0 0 0 0 0 1.5 0 0.11
0 0 0 0 0 0 0 0 0 0 0 0 0 0 0 25 0 0 0 1250 0.5 0.1 0.3 0.5 0.1 0.3 1.5 0.5 0.3 1.7 0 0 1.7 0 0 0 0 0 0 0 0 0 0 0 1.5 0 0.11
0 0 0 0 0 0 0 0 0 0 0 0 0 0 0 25 0 0 0 1250 0.5 0.1 0.3 0.5 0.1 0.3 1.5 0.5 0.3 1.7 0 0 1.7 0 0 0 0 0 0 0 0 0 0 0 1.5 0 0.11
0 0 0 0 0 0 0 0 0 0 0 0 0 0 0 25 0 0 0 1250 0.5 0.1 0.3 0.5 0.1 0.3 1.5 0.5 0.3 1.7 0 0 1.7 0 0 0 0 0 0 0 0 0 0 0 1.5 0 0.11
0 0 0 0 0 0 0 0 0 0 0 0 0 0 0 25 0 0 0 1250 0.5 0.1 0.3 0.5 0.1 0.3 1.5 0.5 0.3 1.7 0 0 1.7 0 0 0 0 0 0 0 0 0 0 0 1.5 0 0.11
0 0 0 0 0 0 0 0 0 0 0 0 0 0 0 25 0 0 0 1250 0.5 0.1 0.3 0.5 0.1 0.3 1.5 0.5 0.3 1.7 0 0 1.7 0 0 0 0 0 0 0 0 0 0 0 1.5 0 0.11
0 0 0 0 0 0 0 0 0 0 0 0 0 0 0 25 0 0 0 1250 0.5 0.1 0.3 0.5 0.1 0.3 1.5 0.5 0.3 1.7 0 0 1.7 0 0 0 0 0 0 0 0 0 0 0 1.5 0 0.11
0 0 0 0 0 0 0 0 0 0 0 0 0 0 0 25 0 0 0 1250 0.5 0.1 0.3 0.5 0.1 0.3 1.5 0.5 0.3 1.7 0 0 1.7 0 0 0 0 0 0 0 0 0 0 0 1.5 0 0.11
0 0 0 0 0 0 0 0 0 0 0 0 0 0 0 25 0 0 0 1250 0.5 0.1 0.3 0.5 0.1 0.3 1.5 0.5 0.3 1.7 0 0 1.7 0 0 0 0 0 0 0 0 0 0 0 1.5 0 0.11
0 0 0 0 0 0 0 0 0 0 0 0 0 0 0 25 0 0 0 1250 0.5 0.1 0.3 0.5 0.1 0.3 1.5 0.5 0.3 1.7 0 0 1.7 0 0 0 0 0 0 0 0 0 0 0 1.5 0 0.11
0 0 0 0 0 0 0 0 0 0 0 0 0 0 0 25 0 0 0 1250 0.5 0.1 0.3 0.5 0.1 0.3 1.5 0.5 0.3 1.7 0 0 1.7 0 0 0 0 0 0 0 0 0 0 0 1.5 0 0.11
0 0 0 0 0 0 0 0 0 0 0 0 0 0 0 25 0 0 0 1250 0.5 0.1 0.3 0.5 0.1 0.3 1.5 0.5 0.3 1.7 0 0 1.7 0 0 0 0 0 0 0 0 0 0 0 1.5 0 0.11
0 0 0 0 0 0 0 0 0 0 0 0 0 0 0 25 0 0 0 1250 0.5 0.1 0.3 0.5 0.1 0.3 1.5 0.5 0.3 1.7 0 0 1.7 0 0 0 0 0 0 0 0 0 0 0 1.5 0 0.11
0 0 0 0 0 0 0 0 0 0 0 0 0 0 0 25 0 0 0 1250 0.5 0.1 0.3 0.5 0.1 0.3 1.5 0.5 0.3 1.7 0 0 1.7 0 0 0 0 0 0 0 0 0 0 0 1.5 0 0.11
0 0 0 0 0 0 0 0 0 0 0 0 0 0 0 25 0 0 0 1250 0.5 0.1 0.3 0.5 0.1 0.3 1.5 0.5 0.3 1.7 0 0 1.7 0 0 0 0 0 0 0 0 0 0 0 1.5 0 0.11
0 0 0 0 0 0 0 0 0 0 0 0 0 0 0 25 0 0 0 1250 0.5 0.1 0.3 0.5 0.1 0.3 1.5 0.5 0.3 1.7 0 0 1.7 0 0 0 0 0 0 0 0 0 0 0 1.5 0 0.11
0 0 0 0 0 0 0 0 0 0 0 0 0 0 0 25 0 0 0 1250 0.5 0.1 0.3 0.5 0.1 0.3 1.5 0.5 0.3 1.7 0 0 1.7 0 0 0 0 0 0 0 0 0 0 0 1.5 0 0.11
0 0 0 0 0 0 0 0 0 0 0 0 0 0 0 25 0 0 0 1250 0.5 0.1 0.3 0.5 0.1 0.3 1.5 0.5 0.3 1.7 0 0 1.7 0 0 0 0 0 0 0 0 0 0 0 1.5 0 0.11
0 0 0 0 0 0 0 0 0 0 0 0 0 0 0 25 0 0 0 1250 0.5 0.1 0.3 0.5 0.1 0.3 1.5 0.5 0.3 1.7 0 0 1.7 0 0 0 0 0 0 0 0 0 0 0 1.5 0 0.11
0 0 0 0 0 0 0 0 0 0 0 0 0 0 0 25 0 0 0 1250 0.5 0.1 0.3 0.5 0.1 0.3 1.5 0.5 0.3 1.7 0 0 1.7 0 0 0 0 0 0 0 0 0 0 0 1.5 0 0.11
0 0 0 0 0 0 0 0 0 0 0 0 0 0 0 25 0 0 0 1250 0.5 0.1 0.3 0.5 0.1 0.3 1.5 0.5 0.3 1.7 0 0 1.7 0 0 0 0 0 0 0 0 0 0 0 1.5 0 0.11
0 0 0 0 0 0 0 0 0 0 0 0 0 0 0 25 0 0 0 1250 0.5 0.1 0.3 0.5 0.1 0.3 1.5 0.5 0.3 1.7 0 0 1.7 0 0 0 0 0 0 0 0 0 0 0 1.5 0 0.11
0 0 0 0 0 0 0 0 0 0 0 0 0 0 0 25 0 0 0 1250 0.5 0.1 0.3 0.5 0.1 0.3 1.5 0.5 0.3 1.7 0 0 1.7 0 0 0 0 0 0 0 0 0 0 0 1.5 0 0.11
0 0 0 0 0 0 0 0 0 0 0 0 0 0 0 25 0 0 0 1250 0.5 0.1 0.3 0.5 0.1 0.3 1.5 0.5 0.3 1.7 0 0 1.7 0 0 0 0 0 0 0 0 0 0 0 1.5 0 0.11
0 0 0 0 0 0 0 0 0 0 0 0 0 0 0 25 0 0 0 1250 0.5 0.1 0.3 0.5 0.1 0.3 1.5 0.5 0.3 1.7 0 0 1.7 0 0 0 0 0 0 0 0 0 0 0 1.5 0 0.11
0 0 0 0 0 0 0 0 0 0 0 0 0 0 0 25 0 0 0 1250 0.5 0.1 0.3 0.5 0.1 0.3 1.5 0.5 0.3 1.7 0 0 1.7 0 0 0 0 0 0 0 0 0 0 0 1.5 0 0.11
0 0 0 0 0 0 0 0 0 0 0 0 0 0 0 25 0 0 0 1250 0.5 0.1 0.3 0.5 0.1 0.3 1.5 0.5 0.3 1.7 0 0 1.7 0 0 0 0 0 0 0 0 0 0 0 1.5 0 0.11
0 0 0 0 0 0 0 0 0 0 0 0 0 0 0 25 0 0 0 1250 0.5 0.1 0.3 0.5 0.1 0.3 1.5 0.5 0.3 1.7 0 0 1.7 0 0 0 0 0 0 0 0 0 0 0 1.5 0 0.11
0 0 0 0 0 0 0 0 0 0 0 0 0 0 0 25 0 0 0 1250 0.5 0.1 0.3 0.5 0.1 0.3 1.5 0.5 0.3 1.7 0 0 1.7 0 0 0 0 0 0 0 0 0 0 0 1.5 0 0.11
0 0 0 0 0 0 0 0 0 0 0 0 0 0 0 25 0 0 0 1250 0.5 0.1 0.3 0.5 0.1 0.3 1.5 0.5 0.3 1.7 0 0 1.7 0 0 0 0 0 0 0 0 0 0 0 1.5 0 0.11
0 0 0 0 0 0 0 0 0 0 0 0 0 0 0 25 0 0 0 1250 0.5 0.1 0.3 0.5 0.1 0.3 1.5 0.5 0.3 1.7 0 0 1.7 0 0 0 0 0 0 0 0 0 0 0 1.5 0 0.11
0 0 0 0 0 0 0 0 0 0 0 0 0 0 0 25 0 0 0 1250 0.5 0.1 0.3 0.5 0.1 0.3 1.5 0.5 0.3 1.7 0 0 1.7 0 0 0 0 0 0 0 0 0 0 0 1.5 0 0.11
0 0 0 0 0 0 0 0 0 0 0 0 0 0 0 25 0 0 0 1250 0.5 0.1 0.3 0.5 0.1 0.3 1.5 0.5 0.3 1.7 0 0 1.7 0 0 0 0 0 0 0 0 0 0 0 1.5 0 0.11
0 0 0 0 0 0 0 0 0 0 0 0 0 0 0 25 0 0 0 1250 0.5 0.1 0.3 0.5 0.1 0.3 1.5 0.5 0.3 1.7 0 0 1.7 0 0 0 0 0 0 0 0 0 0 0 1.5 0 0.11
0 0 0 0 0 0 0 0 0 0 0 0 0 0 0 25 0 0 0 1250 0.5 0.1 0.3 0.5 0.1 0.3 1.5 0.5 0.3 1.7 0 0 1.7 0 0 0 0 0 0 0 0 0 0 0 1.5 0 0.11
0 0 0 0 0 0 0 0 0 0 0 0 0 0 0 25 0 0 0 1250 0.5 0.1 0.3 0.5 0.1 0.3 1.5 0.5 0.3 1.7 0 0 1.7 0 0 0 0 0 0 0 0 0 0 0 1.5 0 0.11
0 0 0 0 0 0 0 0 0 0 0 0 0 0 0 25 0 0 0 1250 0.5 0.1 0.3 0.5 0.1 0.3 1.5 0.5 0.3 1.7 0 0 1.7 0 0 0 0 0 0 0 0 0 0 0 1.5 0 0.11
0 0 0 0 0 0 0 0 0 0 0 0 0 0 0 25 0 0 0 1250 0.5 0.1 0.3 0.5 0.1 0.3 1.5 0.5 0.3 1.7 0 0 1.7 0 0 0 0 0 0 0 0 0 0 0 1.5 0 0.11
0 0 0 0 0 0 0 0 0 0 0 0 0 0 0 25 0 0 0 1250 0.5 0.1 0.3 0.5 0.1 0.3 1.5 0.5 0.3 1.7 0 0 1.7 0 0 0 0 0 0 0 0 0 0 0 1.5 0 0.11
0 0 0 0 0 0 0 0 0 0 0 0 0 0 0 25 0 0 0 1250 0.5 0.1 0.3 0.5 0.1 0.3 1.5 0.5 0.3 1.7 0 0 1.7 0 0 0 0 0 0 0 0 0 0 0 1.5 0 0.11
0 0 0 0 0 0 0 0 0 0 0 0 0 0 0 25 0 0 0 1250 0.5 0.1 0.3 0.5 0.1 0.3 1.5 0.5 0.3 1.7 0 0 1.7 0 0 0 0 0 0 0 0 0 0 0 1.5 0 0.11
0 0 0 0 0 0 0 0 0 0 0 0 0 0 0 25 0 0 0 1250 0.5 0.1 0.3 0.5 0.1 0.3 1.5 0.5 0.3 1.7 0 0 1.7 0 0 0 0 0 0 0 0 0 0 0 1.5 0 0.11
0 0 0 0 0 0 0 0 0 0 0 0 0 0 0 25 0 0 0 1250 0.5 0.1 0.3 0.5 0.1 0.3 1.5 0.5 0.3 1.7 0 0 1.7 0 0 0 0 0 0 0 0 0 0 0 1.5 0 0.11
0 0 0 0 0 0 0 0 0 0 0 0 0 0 0 25 0 0 0 1250 0.5 0.1 0.3 0.5 0.1 0.3 1.5 0.5 0.3 1.7 0 0 1.7 0 0 0 0 0 0 0 0 0 0 0 1.5 0 0.11
0 0 0 0 0 0 0 0 0 0 0 0 0 0 0 25 0 0 0 1250 0.5 0.1 0.3 0.5 0.1 0.3 1.5 0.5 0.3 1.7 0 0 1.7 0 0 0 0 0 0 0 0 0 0 0 1.5 0 0.11
0 0 0 0 0 0 0 0 0 0 0 0 0 0 0 25 0 0 0 1250 0.5 0.1 0.3 0.5 0.1 0.3 1.5 0.5 0.3 1.7 0 0 1.7 0 0 0 0 0 0 0 0 0 0 0 1.5 0 0.11
0 0 0 0 0 0 0 0 0 0 0 0 0 0 0 25 0 0 0 1250 0.5 0.1 0.3 0.5 0.1 0.3 1.5 0.5 0.3 1.7 0 0 1.7 0 0 0 0 0 0 0 0 0 0 0 1.5 0 0.11
0 0 0 0 0 0 0 0 0 0 0 0 0 0 0 25 0 0 0 1250 0.5 0.1 0.3 0.5 0.1 0.3 1.5 0.5 0.3 1.7 0 0 1.7 0 0 0 0 0 0 0 0 0 0 0 1.5 0 0.11
0 0 0 0 0 0 0 0 0 0 0 0 0 0 0 25 0 0 0 1250 0.5 0.1 0.3 0.5 0.1 0.3 1.5 0.5 0.3 1.7 0 0 1.7 0 0 0 0 0 0 0 0 0 0 0 1.5 0 0.11
0 0 0 0 0 0 0 0 0 0 0 0 0 0 0 25 0 0 0 1250 0.5 0.1 0.3 0.5 0.1 0.3 1.5 0.5 0.3 1.7 0 0 1.7 0 0 0 0 0 0 0 0 0 0 0 1.5 0 0.11
0 0 0 0 0 0 0 0 0 0 0 0 0 0 0 25 0 0 0 1250 0.5 0.1 0.3 0.5 0.1 0.3 1.5 0.5 0.3 1.7 0 0 1.7 0 0 0 0 0 0 0 0 0 0 0 1.5 0 0.11
0 0 0 0 0 0 0 0 0 0 0 0 0 0 0 25 0 0 0 1250 0.5 0.1 0.3 0.5 0.1 0.3 1.5 0.5 0.3 1.7 0 0 1.7 0 0 0 0 0 0 0 0 0 0 0 1.5 0 0.11
0 0 0 0 0 0 0 0 0 0 0 0 0 0 0 25 0 0 0 1250 0.5 0.1 0.3 0.5 0.1 0.3 1.5 0.5 0.3 1.7 0 0 1.7 0 0 0 0 0 0 0 0 0 0 0 1.5 0 0.11
0 0 0 0 0 0 0 0 0 0 0 0 0 0 0 25 0 0 0 1250 0.5 0.1 0.3 0.5 0.1 0.3 1.5 0.5 0.3 1.7 0 0 1.7 0 0 0 0 0 0 0 0 0 0 0 1.5 0 0.11
0 0 0 0 0 0 0 0 0 0 0 0 0 0 0 25 0 0 0 1250 0.5 0.1 0.3 0.5 0.1 0.3 1.5 0.5 0.3 1.7 0 0 1.7 0 0 0 0 0 0 0 0 0 0 0 1.5 0 0.11
0 0 0 0 0 0 0 0 0 0 0 0 0 0 0 25 0 0 0 1250 0.5 0.1 0.3 0.5 0.1 0.3 1.5 0.5 0.3 1.7 0 0 1.7 0 0 0 0 0 0 0 0 0 0 0 1.5 0 0.11
0 0 0 0 0 0 0 0 0 0 0 0 0 0 0 25 0 0 0 1250 0.5 0.1 0.3 0.5 0.1 0.3 1.5 0.5 0.3 1.7 0 0 1.7 0 0 0 0 0 0 0 0 0 0 0 1.5 0 0.11
0 0 0 0 0 0 0 0 0 0 0 0 0 0 0 25 0 0 0 1250 0.5 0.1 0.3 0.5 0.1 0.3 1.5 0.5 0.3 1.7 0 0 1.7 0 0 0 0 0 0 0 0 0 0 0 1.5 0 0.11
0 0 0 0 0 0 0 0 0 0 0 0 0 0 0 25 0 0 0 1250 0.5 0.1 0.3 0.5 0.1 0.3 1.5 0.5 0.3 1.7 0 0 1.7 0 0 0 0 0 0 0 0 0 0 0 1.5 0 0.11
0 0 0 0 0 0 0 0 0 0 0 0 0 0 0 25 0 0 0 1250 0.5 0.1 0.3 0.5 0.1 0.3 1.5 0.5 0.3 1.7 0 0 1.7 0 0 0 0 0 0 0 0 0 0 0 1.5 0 0.11
0 0 0 0 0 0 0 0 0 0 0 0 0 0 0 25 0 0 0 1250 0.5 0.1 0.3 0.5 0.1 0.3 1.5 0.5 0.3 1.7 0 0 1.7 0 0 0 0 0 0 0 0 0 0 0 1.5 0 0.11
0 0 0 0 0 0 0 0 0 0 0 0 0 0 0 25 0 0 0 1250 0.5 0.1 0.3 0.5 0.1 0.3 1.5 0.5 0.3 1.7 0 0 1.7 0 0 0 0 0 0 0 0 0 0 0 1.5 0 0.11
0 0 0 0 0 0 0 0 0 0 0 0 0 0 0 25 0 0 0 1250 0.5 0.1 0.3 0.5 0.1 0.3 1.5 0.5 0.3 1.7 0 0 1.7 0 0 0 0 0 0 0 0 0 0 0 1.5 0 0.11
0 0 0 0 0 0 0 0 0 0 0 0 0 0 0 25 0 0 0 1250 0.5 0.1 0.3 0.5 0.1 0.3 1.5 0.5 0.3 1.7 0 0 1.7 0 0 0 0 0 0 0 0 0 0 0 1.5 0 0.11
0 0 0 0 0 0 0 0 0 0 0 0 0 0 0 25 0 0 0 1250 0.5 0.1 0.3 0.5 0.1 0.3 1.5 0.5 0.3 1.7 0 0 1.7 0 0 0 0 0 0 0 0 0 0 0 1.5 0 0.11
0 0 0 0 0 0 0 0 0 0 0 0 0 0 0 25 0 0 0 1250 0.5 0.1 0.3 0.5 0.1 0.3 1.5 0.5 0.3 1.7 0 0 1.7 0 0 0 0 0 0 0 0 0 0 0 1.5 0 0.11
0 0 0 0 0 0 0 0 0 0 0 0 0 0 0 25 0 0 0 1250 0.5 0.1 0.3 0.5 0.1 0.3 1.5 0.5 0.3 1.7 0 0 1.7 0 0 0 0 0 0 0 0 0 0 0 1.5 0 0.11
0 0 0 0 0 0 0 0 0 0 0 0 0 0 0 25 0 0 0 1250 0.5 0.1 0.3 0.5 0.1 0.3 1.5 0.5 0.3 1.7 0 0 1.7 0 0 0 0 0 0 0 0 0 0 0 1.5 0 0.11
0 0 0 0 0 0 0 0 0 0 0 0 0 0 0 25 0 0 0 1250 0.5 0.1 0.3 0.5 0.1 0.3 1.5 0.5 0.3 1.7 0 0 1.7 0 0 0 0 0 0 0 0 0 0 0 1.5 0 0.11
0 0 0 0 0 0 0 0 0 0 0 0 0 0 0 25 0 0 0 1250 0.5 0.1 0.3 0.5 0.1 0.3 1.5 0.5 0.3 1.7 0 0 1.7 0 0 0 0 0 0 0 0 0 0 0 1.5 0 0.11
0 0 0 0 0 0 0 0 0 0 0 0 0 0 0 25 0 0 0 1250 0.5 0.1 0.3 0.5 0.1 0.3 1.5 0.5 0.3 1.7 0 0 1.7 0 0 0 0 0 0 0 0 0 0 0 1.5 0 0.11
0 0 0 0 0 0 0 0 0 0 0 0 0 0 0 25 0 0 0 1250 0.5 0.1 0.3 0.5 0.1 0.3 1.5 0.5 0.3 1.7 0 0 1.7 0 0 0 0 0 0 0 0 0 0 0 1.5 0 0.11
0 0 0 0 0 0 0 0 0 0 0 0 0 0 0 25 0 0 0 1250 0.5 0.1 0.3 0.5 0.1 0.3 1.5 0.5 0.3 1.7 0 0 1.7 0 0 0 0 0 0 0 0 0 0 0 1.5 0 0.11
0 0 0 0 0 0 0 0 0 0 0 0 0 0 0 25 0 0 0 1250 0.5 0.1 0.3 0.5 0.1 0.3 1.5 0.5 0.3 1.7 0 0 1.7 0 0 0 0 0 0 0 0 0 0 0 1.5 0 0.11
0 0 0 0 0 0 0 0 0 0 0 0 0 0 0 25 0 0 0 1250 0.5 0.1 0.3 0.5 0.1 0.3 1.5 0.5 0.3 1.7 0 0 1.7 0 0 0 0 0 0 0 0 0 0 0 1.5 0 0.11
0 0 0 0 0 0 0 0 0 0 0 0 0 0 0 25 0 0 0 1250 0.5 0.1 0.3 0.5 0.1 0.3 1.5 0.5 0.3 1.7 0 0 1.7 0 0 0 0 0 0 0 0 0 0 0 1.5 0 0.11
0 0 0 0 0 0 0 0 0 0 0 0 0 0 0 25 0 0 0 1250 0.5 0.1 0.3 0.5 0.1 0.3 1.5 0.5 0.3 1.7 0 0 1.7 0 0 0 0 0 0 0 0 0 0 0 1.5 0 0.11
0 0 0 0 0 0 0 0 0 0 0 0 0 0 0 25 0 0 0 1250 0.5 0.1 0.3 0.5 0.1 0.3 1.5 0.5 0.3 1.7 0 0 1.7 0 0 0 0 0 0 0 0 0 0 0 1.5 0 0.11
0 0 0 0 0 0 0 0 0 0 0 0 0 0 0 25 0 0 0 1250 0.5 0.1 0.3 0.5 0.1 0.3 1.5 0.5 0.3 1.7 0 0 1.7 0 0 0 0 0 0 0 0 0 0 0 1.5 0 0.11
0 0 0 0 0 0 0 0 0 0 0 0 0 0 0 25 0 0 0 1250 0.5 0.1 0.3 0.5 0.1 0.3 1.5 0.5 0.3 1.7 0 0 1.7 0 0 0 0 0 0 0 0 0 0 0 1.5 0 0.11
0 0 0 0 0 0 0 0 0 0 0 0 0 0 0 25 0 0 0 1250 0.5 0.1 0.3 0.5 0.1 0.3 1.5 0.5 0.3 1.7 0 0 1.7 0 0 0 0 0 0 0 0 0 0 0 1.5 0 0.11
0 0 0 0 0 0 0 0 0 0 0 0 0 0 0 25 0 0 0 1250 0.5 0.1 0.3 0.5 0.1 0.3 1.5 0.5 0.3 1.7 0 0 1.7 0 0 0 0 0 0 0 0 0 0 0 1.5 0 0.11
0 0 0 0 0 0 0 0 0 0 0 0 0 0 0 25 0 0 0 1250 0.5 0.1 0.3 0.5 0.1 0.3 1.5 0.5 0.3 1.7 0 0 1.7 0 0 0 0 0 0 0 0 0 0 0 1.5 0 0.11
0 0 0 0 0 0 0 0 0 0 0 0 0 0 0 25 0 0 0 1250 0.5 0.1 0.3 0.5 0.1 0.3 1.5 0.5 0.3 1.7 0 0 1.7 0 0 0 0 0 0 0 0 0 0 0 1.5 0 0.11
0 0 0 0 0 0 0 0 0 0 0 0 0 0 0 25 0 0 0 1250 0.5 0.1 0.3 0.5 0.1 0.3 1.5 0.5 0.3 1.7 0 0 1.7 0 0 0 0 0 0 0 0 0 0 0 1.5 0 0.11
0 0 0 0 0 0 0 0 0 0 0 0 0 0 0 25 0 0 0 1250 0.5 0.1 0.3 0.5 0.1 0.3 1.5 0.5 0.3 1.7 0 0 1.7 0 0 0 0 0 0 0 0 0 0 0 1.5 0 0.11
0 0 0 0 0 0 0 0 0 0 0 0 0 0 0 25 0 0 0 1250 0.5 0.1 0.3 0.5 0.1 0.3 1.5 0.5 0.3 1.7 0 0 1.7 0 0 0 0 0 0 0 0 0 0 0 1.5 0 0.11
0 0 0 0 0 0 0 0 0 0 0 0 0 0 0 25 0 0 0 1250 0.5 0.1 0.3 0.5 0.1 0.3 1.5 0.5 0.3 1.7 0 0 1.7 0 0 0 0 0 0 0 0 0 0 0 1.5 0 0.11
6.075 1.1 2.2 3.3 4.4 5.5 6.6 0 0 2 0 0 0 0 0 25 0 0 0 1250 0.5 0.1 0.3 0.5 0.1 0.3 1.5 0.5 0.3 1.7 0 0 1.7 0 0 0 0 0 0 0 0 0 0 0 1.5 0 0.11
6.434 1.25 0.34 -5.61 -0.13 0.94 0.56 0 0 22 2 1 0 0 0 20 0 0 0 1209 0.5 0.1 0.3 0.5 0.1 0.3 1.5 0.5 0.3 1.7 0 0 1.7 0 0 0 0 0 0 0 0 0 0 0 1.5 0 0.11
6.534 1.25 0.34 -5.61 1 0.62 -0.25 0 0 21 2 1 0 0 0 20 0 0 0 1209 0.5 0.1 0.3 0.5 0.1 0.3 1.5 0.5 0.3 1.7 0 0 1.7 0 0 0 0 0 0 0 0 0 0 0 1.5 0 0.11
6.634 1.25 0.34 -5.62 1.25 0.31 0.19 0 0 21 2 1 0 0 0 20 0 0 0 1209 0.5 0.1 0.3 0.5 0.1 0.3 1.5 0.5 0.3 1.7 0 0 1.7 0 0 0 0 0 0 0 0 0 0 0 1.5 0 0.11
6.734 1.26 0.34 -5.61 -0.37 -0.56 1.75 0 0 22 2 1 0 0 0 20 0 0 0 1209 0.5 0.1 0.3 0.5 0.1 0.3 1.5 0.5 0.3 1.7 0 0 1.7 0 0 0 0 0 0 0 0 0 0 0 1.5 0 0.11
6.834 1.26 0.34 -5.7 -0.31 1.06 0.81 0 0 21 2 1 0 0 0 20 0 0 0 1209 0.5 0.1 0.3 0.5 0.1 0.3 1.5 0.5 0.3 1.7 0 0 1.7 0 0 0 0 0 0 0 0 0 0 0 1.5 0 0.11
6.934 1.26 0.34 -5.69 -0.06 0.56 1.37 0 0 21 2 1 0 0 0 20 0 0 0 1209 0.5 0.1 0.3 0.5 0.1 0.3 1.5 0.5 0.3 1.7 0 0 1.7 0 0 0 0 0 0 0 0 0 0 0 1.5 0 0.11
7.034 1.27 0.34 -5.69 0.5 0.81 1.31 0 0 22 2 1 0 0 0 20 0 0 0 1209 0.5 0.1 0.3 0.5 0.1 0.3 1.5 0.5 0.3 1.7 0 0 1.7 0 0 0 0 0 0 0 0 0 0 0 1.5 0 0.11
7.134 1.29 0.34 -5.66 -0.06 0.37 0.69 0 0 22 2 1 0 0 0 20 0 0 0 1209 0.5 0.1 0.3 0.5 0.1 0.3 1.5 0.5 0.3 1.7 0 0 1.7 0 0 0 0 0 0 0 0 0 0 0 1.5 0 0.11
7.234 1.29 0.34 -5.66 -0.69 -0.56 1.56 0 0 21 2 1 0 0 0 20 0 0 0 1209 0.5 0.1 0.3 0.5 0.1 0.3 1.5 0.5 0.3 1.7 0 0 1.7 0 0 0 0 0 0 0 0 0 0 0 1.5 0 0.11
7.334 1.29 0.34 -5.7 -0.31 -0.44 0.25 0 0 22 2 1 0 0 0 20 0 0 0 1209 0.5 0.1 0.3 0.5 0.1 0.3 1.5 0.5 0.3 1.7 0 0 1.7 0 0 0 0 0 0 0 0 0 0 0 1.5 0 0.11
7.434 1.3 0.34 -5.7 0.37 1.19 0.44 0 0 20 2 1 0 0 0 20 0 0 0 1209 0.5 0.1 0.3 0.5 0.1 0.3 1.5 0.5 0.3 1.7 0 0 1.7 0 0 0 0 0 0 0 0 0 0 0 1.5 0 0.11
7.534 1.3 0.33 -5.73 0 0.37 1 0 0 20 2 1 0 0 0 20 0 0 0 1209 0.5 0.1 0.3 0.5 0.1 0.3 1.5 0.5 0.3 1.7 0 0 1.7 0 0 0 0 0 0 0 0 0 0 0 1.5 0 0.11
7.634 1.3 0.33 -5.76 -0.19 0.44 0.94 0 0 20 2 1 0 0 0 20 0 0 0 1209 0.5 0.1 0.3 0.5 0.1 0.3 1.5 0.5 0.3 1.7 0 0 1.7 0 0 0 0 0 0 0 0 0 0 0 1.5 0 0.11
7.734 1.3 0.33 -5.78 0.13 0.13 1 0 0 20 2 1 0 0 0 20 0 0 0 1209 0.5 0.1 0.3 0.5 0.1 0.3 1.5 0.5 0.3 1.7 0 0 1.7 0 0 0 0 0 0 0 0 0 0 0 1.5 0 0.11
7.834 1.3 0.33 -5.8 -0.06 0.37 0.88 0 0 19 2 1 0 0 0 20 0 0 0 1209 0.5 0.1 0.3 0.5 0.1 0.3 1.5 0.5 0.3 1.7 0 0 1.7 0 0 0 0 0 0 0 0 0 0 0 1.5 0 0.11
7.934 1.3 0.32 -5.86 0 0.25 0.94 0 0 21 2 1 0 0 0 20 0 0 0 1209 0.5 0.1 0.3 0.5 0.1 0.3 1.5 0.5 0.3 1.7 0 0 1.7 0 0 0 0 0 0 0 0 0 0 0 1.5 0 0.11
8.034 1.3 0.32 -5.86 -0.13 0.13 0.88 0 0 20 2 1 0 0 0 20 0 0 0 1209 0.5 0.1 0.3 0.5 0.1 0.3 1.5 0.5 0.3 1.7 0 0 1.7 0 0 0 0 0 0 0 0 0 0 0 1.5 0 0.11
8.134 1.3 0.32 -5.92 0 -0.06 1 0 0 21 2 1 0 0 0 20 0 0 0 1209 0.5 0.1 0.3 0.5 0.1 0.3 1.5 0.5 0.3 1.7 0 0 1.7 0 0 0 0 0 0 0 0 0 0 0 1.5 0 0.11
8.134 1.3 0.32 -5.92 0 -0.06 1 0 0 21 2 1 0 0 0 20 0 0 0 1209 0.5 0.1 0.3 0.5 0.1 0.3 1.5 0.5 0.3 1.7 0 0 1.7 0 0 0 0 0 0 0 0 0 0 0 1.5 0 0.11
8.134 1.3 0.32 -5.92 0 -0.06 1 0 0 21 2 1 0 0 0 20 0 0 0 1209 0.5 0.1 0.3 0.5 0.1 0.3 1.5 0.5 0.3 1.7 0 0 1.7 0 0 0 0 0 0 0 0 0 0 0 1.5 0 0.11
8.234 1.31 0.33 -5.91 0 0.06 1.06 0 0 21 2 1 0 0 0 20 0 0 0 1209 0.5 0.1 0.3 0.5 0.1 0.3 1.5 0.5 0.3 1.7 0 0 1.7 0 0 0 0 0 0 0 0 0 0 0 1.5 0 0.11
8.885 1.32 0.33 -5.94 0.06 0.19 1.12 0 0 21 2 1 0 0 0 20 0 0 0 1209 0.5 0.1 0.3 0.5 0.1 0.3 1.5 0.5 0.3 1.7 0 0 1.7 0 0 0 0 0 0 0 0 0 0 0 1.5 0 0.11
8.985 1.32 0.33 -5.97 0 0.19 0.94 0 0 22 2 1 0 0 0 20 0 0 0 1209 0.5 0.1 0.3 0.5 0.1 0.3 1.5 0.5 0.3 1.7 0 0 1.7 0 0 0 0 0 0 0 0 0 0 0 1.5 0 0.11
9.085 1.32 0.33 -5.93 0 0.19 1 0 0 20 2 1 0 0 0 20 0 0 0 1209 0.5 0.1 0.3 0.5 0.1 0.3 1.5 0.5 0.3 1.7 0 0 1.7 0 0 0 0 0 0 0 0 0 0 0 1.5 0 0.11
9.185 1.32 0.33 -5.97 0 0.25 0.94 0 0 21 2 1 0 0 0 20 0 0 0 1209 0.5 0.1 0.3 0.5 0.1 0.3 1.5 0.5 0.3 1.7 0 0 1.7 0 0 0 0 0 0 0 0 0 0 0 1.5 0 0.11
9.285 1.32 0.33 -5.98 -0.06 0.13 1.06 0 0 21 2 1 0 0 0 20 0 0 0 1209 0.5 0.1 0.3 0.5 0.1 0.3 1.5 0.5 0.3 1.7 0 0 1.7 0 0 0 0 0 0 0 0 0 0 0 1.5 0 0.11
9.385 1.32 0.33 -6.01 -0.06 0.13 0.88 0 0 19 2 1 0 0 0 20 0 0 0 1209 0.5 0.1 0.3 0.5 0.1 0.3 1.5 0.5 0.3 1.7 0 0 1.7 0 0 0 0 0 0 0 0 0 0 0 1.5 0 0.11
9.485 1.32 0.33 -5.99 -0.06 0.25 1 0 0 21 2 1 0 0 0 20 0 0 0 1209 0.5 0.1 0.3 0.5 0.1 0.3 1.5 0.5 0.3 1.7 0 0 1.7 0 0 0 0 0 0 0 0 0 0 0 1.5 0 0.11
9.585 1.32 0.33 -5.99 0 0.06 0.88 0 0 20 2 1 0 0 0 20 0 0 0 1209 0.5 0.1 0.3 0.5 0.1 0.3 1.5 0.5 0.3 1.7 0 0 1.7 0 0 0 0 0 0 0 0 0 0 0 1.5 0 0.11
9.685 1.32 0.33 -6.02 0 0.19 0.88 0 0 20 2 1 0 0 0 20 0 0 0 1209 0.5 0.1 0.3 0.5 0.1 0.3 1.5 0.5 0.3 1.7 0 0 1.7 0 0 0 0 0 0 0 0 0 0 0 1.5 0 0.11
9.785 1.32 0.33 -6.01 0 0.25 0.94 0 0 20 2 1 0 0 0 20 0 0 0 1209 0.5 0.1 0.3 0.5 0.1 0.3 1.5 0.5 0.3 1.7 0 0 1.7 0 0 0 0 0 0 0 0 0 0 0 1.5 0 0.11
9.885 1.32 0.33 -6.03 0 0.13 1 0 0 22 2 1 0 0 0 20 0 0 0 1209 0.5 0.1 0.3 0.5 0.1 0.3 1.5 0.5 0.3 1.7 0 0 1.7 0 0 0 0 0 0 0 0 0 0 0 1.5 0 0.11
9.985 1.32 0.34 -6 -0.06 0.19 1.06 0 0 21 2 1 0 0 0 20 0 0 0 1209 0.5 0.1 0.3 0.5 0.1 0.3 1.5 0.5 0.3 1.7 0 0 1.7 0 0 0 0 0 0 0 0 0 0 0 1.5 0 0.11
10.085 1.32 0.34 -6.02 0 0.19 1 0 0 21 2 1 0 0 0 20 0 0 0 1209 0.5 0.1 0.3 0.5 0.1 0.3 1.5 0.5 0.3 1.7 0 0 1.7 0 0 0 0 0 0 0 0 0 0 0 1.5 0 0.11
10.085 1.32 0.34 -6.02 0 0.19 1 0 0 21 2 1 0 0 0 20 0 0 0 1209 0.4 0 0.5 0.4 0 0.5 1.5 0.5 0.3 1.7 0 0 1.7 0 0 0 0 0 0 0 0 0 0 0 1.5 0 0.11
10.285 1.32 0.34 -6.08 0 0.19 1.06 0 0 22 2 1 0 0 0 20 0 0 0 1209 0.4 0 0.5 0.4 0 0.5 1.5 0.5 0.3 1.7 0 0 1.7 0 0 0 0 0 0 0 0 0 0 0 1.5 0 0.11
10.385 1.32 0.34 -6.05 -0.06 0.25 1 0 0 21 2 2 0 0 0 20 0 0 0 1209 0.4 0 0.5 0.4 0 0.5 1.5 0.5 0.3 1.7 0 0 1.7 0 0 0 0 0 0 0 0 0 0 0 1.5 0 0.11
10.485 1.32 0.34 -6.08 0 0.19 0.94 0 0 21 2 1 0 0 0 20 0 0 0 1209 0.4 0 0.5 0.4 0 0.5 1.5 0.5 0.3 1.7 0 0 1.7 0 0 0 0 0 0 0 0 0 0 0 1.5 0 0.11
10.585 1.32 0.34 -6.09 -0.06 0.19 1 0 0 22 2 1 0 0 0 20 0 0 0 1209 0.4 0 0.5 0.4 0 0.5 1.5 0.5 0.3 1.7 0 0 1.7 0 0 0 0 0 0 0 0 0 0 0 1.5 0 0.11
10.685 1.32 0.34 -6.15 0 0.13 0.94 0 0 22 2 1 0 0 0 20 0 0 0 1209 0.4 0 0.5 0.4 0 0.5 1.5 0.5 0.3 1.7 0 0 1.7 0 0 0 0 0 0 0 0 0 0 0 1.5 0 0.11
10.785 1.32 0.34 -6.12 0 0.19 1 0 0 22 2 1 0 0 0 20 0 0 0 1209 0.4 0 0.5 0.4 0 0.5 1.5 0.5 0.3 1.7 0 0 1.7 0 0 0 0 0 0 0 0 0 0 0 1.5 0 0.11
10.885 1.32 0.34 -6.15 -0.06 0.25 0.88 0 0 22 2 1 0 0 0 20 0 0 0 1209 0.4 0 0.5 0.4 0 0.5 1.5 0.5 0.3 1.7 0 0 1.7 0 0 0 0 0 0 0 0 0 0 0 1.5 0 0.11
10.985 1.32 0.33 -6.14 0 0.13 1 0 0 21 2 1 0 0 0 20 0 0 0 1209 0.4 0 0.5 0.4 0 0.5 1.5 0.5 0.3 1.7 0 0 1.7 0 0 0 0 0 0 0 0 0 0 0 1.5 0 0.11
11.085 1.32 0.34 -6.13 -0.06 0.13 1 0 0 20 2 1 0 0 0 20 0 0 0 1209 0.4 0 0.5 0.4 0 0.5 1.5 0.5 0.3 1.7 0 0 1.7 0 0 0 0 0 0 0 0 0 0 0 1.5 0 0.11
11.185 1.32 0.34 -6.16 -0.06 0.31 0.94 0 0 22 2 1 0 0 0 21 0 0 0 1210 0.4 0 0.5 0.4 0 0.5 1.5 0.5 0.3 1.7 0 0 1.7 0 0 0 0 0 0 0 0 0 0 0 1.5 0 0.11
11.285 1.32 0.34 -6.15 0 0.19 0.94 0 0 21 2 1 0 0 0 20 0 0 0 1209 0.4 0 0.5 0.4 0 0.5 1.5 0.5 0.3 1.7 0 0 1.7 0 0 0 0 0 0 0 0 0 0 0 1.5 0 0.11
11.385 1.32 0.34 -6.19 0 0.13 0.88 0 0 22 2 1 0 0 0 20 0 0 0 1209 0.4 0 0.5 0.4 0 0.5 1.5 0.5 0.3 1.7 0 0 1.7 0 0 0 0 0 0 0 0 0 0 0 1.5 0 0.11
11.485 1.32 0.35 -6.19 -0.06 0.06 0.94 0 0 22 2 1 0 0 0 20 0 0 0 1209 0.4 0 0.5 0.4 0 0.5 1.5 0.5 0.3 1.7 0 0 1.7 0 0 0 0 0 0 0 0 0 0 0 1.5 0 0.11
11.585 1.32 0.35 -6.23 -0.06 0.31 1 0 0 22 2 1 0 0 0 20 0 0 0 1209 0.4 0 0.5 0.4 0 0.5 1.5 0.5 0.3 1.7 0 0 1.7 0 0 0 0 0 0 0 0 0 0 0 1.5 0 0.11
11.685 1.32 0.34 -6.24 0 0.19 0.94 0 0 22 2 1 0 0 0 20 0 0 0 1209 0.4 0 0.5 0.4 0 0.5 1.5 0.5 0.3 1.7 0 0 1.7 0 0 0 0 0 0 0 0 0 0 0 1.5 0 0.11
11.785 1.32 0.34 -6.3 -0.06 0.13 1 0 0 22 2 1 0 0 0 20 0 0 0 1209 0.4 0 0.5 0.4 0 0.5 1.5 0.5 0.3 1.7 0 0 1.7 0 0 0 0 0 0 0 0 0 0 0 1.5 0 0.11
11.885 1.32 0.34 -6.27 -0.06 0.19 0.94 0 0 21 2 1 0 0 0 20 0 0 0 1209 0.4 0 0.5 0.4 0 0.5 1.5 0.5 0.3 1.7 0 0 1.7 0 0 0 0 0 0 0 0 0 0 0 1.5 0 0.11
11.985 1.31 0.34 -6.27 0 0.19 1.06 0 0 21 2 1 0 0 0 21 0 0 0 1210 0.4 0 0.5 0.4 0 0.5 1.5 0.5 0.3 1.7 0 0 1.7 0 0 0 0 0 0 0 0 0 0 0 1.5 0 0.11
12.085 1.31 0.34 -6.27 0 0.13 1 0 0 21 2 1 0 0 0 20 0 0 0 1209 0.4 0 0.5 0.4 0 0.5 1.5 0.5 0.3 1.7 0 0 1.7 0 0 0 0 0 0 0 0 0 0 0 1.5 0 0.11
12.185 1.31 0.34 -6.32 0 0.25 0.94 0 0 21 2 1 0 0 0 20 0 0 0 1209 0.4 0 0.5 0.4 0 0.5 1.5 0.5 0.3 1.7 0 0 1.7 0 0 0 0 0 0 0 0 0 0 0 1.5 0 0.11
12.285 1.32 0.34 -6.34 0 0.25 1 0 0 23 2 1 0 0 0 20 -0.03 -0.13 -30.75 1209 0.4 0 0.5 0.4 0 0.5 1.5 0.5 0.3 1.7 0 0 1.7 0 0 0 0 0 0 0 0 0 0 0 1.5 0 0.11
12.385 1.32 0.34 -6.39 -0.06 0.25 0.94 0 0 21 2 1 0 0 0 20 0.03 -0.1 -31.01 1209 0.4 0 0.5 0.4 0 0.5 1.5 0.5 0.3 1.7 0 0 1.7 0 0 0 0 0 0 0 0 0 0 0 1.5 0 0.11
12.485 1.32 0.34 -6.36 -0.06 0.25 0.94 0 0 22 2 1 0 0 0 20 0.06 -0.16 -31.55 1209 0.4 0 0.5 0.4 0 0.5 1.5 0.5 0.3 1.7 0 0 1.7 0 0 0 0 0 0 0 0 0 0 0 1.5 0 0.11
12.585 1.32 0.34 -6.39 0 0.31 0.94 0 0 21 2 1 0 0 0 20 0 -0.19 -31.8 1209 0.4 0 0.5 0.4 0 0.5 1.5 0.5 0.3 1.7 0 0 1.7 0 0 0 0 0 0 0 0 0 0 0 1.5 0 0.11
12.685 1.32 0.34 -6.38 0 0.25 1 0 0 21 2 1 0 0 0 20 0 -0.13 -32.33 1209 0.4 0 0.5 0.4 0 0.5 1.5 0.5 0.3 1.7 0 0 1.7 0 0 0 0 0 0 0 0 0 0 0 1.5 0 0.11
12.785 1.32 0.34 -6.36 0 0.13 1 0 0 20 2 1 0 0 0 20 0 0.01 -32.73 1209 0.4 0 0.5 0.4 0 0.5 1.5 0.5 0.3 1.7 0 0 1.7 0 0 0 0 0 0 0 0 0 0 0 1.5 0 0.11
12.885 1.32 0.34 -6.34 0 0.19 1 0 0 21 2 1 0 0 0 20 0 0.01 -32.73 1209 0.4 0 0.5 0.4 0 0.5 1.5 0.5 0.3 1.7 0 0 1.7 0 0 0 0 0 0 0 0 0 0 0 1.5 0 0.11
12.985 1.32 0.34 -6.32 0 0.25 1.06 0 0 21 2 1 0 0 0 20 -0.03 -0.1 -33.57 1209 0.4 0 0.5 0.4 0 0.5 1.5 0.5 0.3 1.7 0 0 1.7 0 0 0 0 0 0 0 0 0 0 0 1.5 0 0.11
13.086 1.32 0.34 -6.35 0 0.31 0.94 0 0 21 2 1 0 0 0 20 -0.03 -0.16 -33.79 1209 0.4 0 0.5 0.4 0 0.5 1.5 0.5 0.3 1.7 0 0 1.7 0 0 0 0 0 0 0 0 0 0 0 1.5 0 0.11
13.185 1.32 0.34 -6.33 0 0.13 1.06 0 0 21 2 1 0 0 0 20 0 -0.05 -34.28 1209 0.4 0 0.5 0.4 0 0.5 1.5 0.5 0.3 1.7 0 0 1.7 0 0 0 0 0 0 0 0 0 0 0 1.5 0 0.11
13.285 1.32 0.34 -6.33 0 0.19 1.06 0 0 21 2 1 0 0 0 20 0 -0.04 -34.69 1209 0.4 0 0.5 0.4 0 0.5 1.5 0.5 0.3 1.7 0 0 1.7 0 0 0 0 0 0 0 0 0 0 0 1.5 0 0.11
13.385 1.32 0.34 -6.3 -0.06 0.31 1.06 0 0 21 2 1 0 0 0 20 0.03 -0.16 -35.03 1209 0.4 0 0.5 0.4 0 0.5 1.5 0.5 0.3 1.7 0 0 1.7 0 0 0 0 0 0 0 0 0 0 0 1.5 0 0.11
13.486 1.32 0.34 -6.32 -0.13 0.19 1 0 0 21 2 1 0 0 0 20 0.08 -0.08 -35.46 1209 0.4 0 0.5 0.4 0 0.5 1.5 0.5 0.3 1.7 0 0 1.7 0 0 0 0 0 0 0 0 0 0 0 1.5 0 0.11
13.585 1.32 0.35 -6.32 -0.06 0.25 1 0 0 22 2 1 0 0 0 20 0.06 -0.13 -35.83 1209 0.4 0 0.5 0.4 0 0.5 1.5 0.5 0.3 1.7 0 0 1.7 0 0 0 0 0 0 0 0 0 0 0 1.5 0 0.11
13.685 1.32 0.35 -6.35 0 0.31 0.94 0 0 21 2 1 0 0 0 20 0 -0.13 -36.16 1209 0.4 0 0.5 0.4 0 0.5 1.5 0.5 0.3 1.7 0 0 1.7 0 0 0 0 0 0 0 0 0 0 0 1.5 0 0.11
13.785 1.32 0.35 -6.33 0 0.25 0.94 0 0 22 2 1 0 0 0 20 0 -0.16 -35.02 1209 0.4 0 0.5 0.4 0 0.5 1.5 0.5 0.3 1.2 0.01 0 1.2 0.03 0 0 0 0 0 0 0 0 0 0 1.5 0 0.11
13.885 1.33 0.35 -6.36 0 0.19 1.06 0 0 22 2 1 0 0 0 20 0 -0.08 -37.3 1209 0.4 0 0.5 0.4 0 0.5 1.5 0.5 0.3 1.2 0.01 0 1.2 0.03 0 0 0 0 0 0 0 0 0 0 1.5 0 0.11
13.985 1.33 0.35 -6.37 -0.13 0.25 1 0 0 21 2 1 0 0 0 20 0.11 -0.13 -37.36 1209 0.4 0 0.5 0.4 0 0.5 1.5 0.5 0.3 1.2 0.01 0 1.2 0.03 0 0 0 0 0 0 0 0 0 0 1.5 0 0.11
14.085 1.33 0.35 -6.37 0 0.25 0.94 0 0 22 2 1 0 0 0 20 -0.06 -0.1 -37.66 1209 0.4 0 0.5 0.4 0 0.5 1.5 0.5 0.3 1.2 0.01 0 1.2 0.03 0 0 0 0 0 0 0 0 0 0 1.5 0 0.11
14.185 1.33 0.35 -6.39 -0.06 0.31 0.94 0 0 21 2 1 0 0 0 20 0.03 -0.19 -38.05 1209 0.4 0 0.5 0.4 0 0.5 1.5 0.5 0.3 1.2 0.01 0 1.2 0.03 0 0 0 0 0 0 0 0 0 0 1.5 0 0.11
14.285 1.32 0.35 -6.38 0 0.19 1.06 0 0 22 2 1 0 0 0 20 0 -0.08 -38.53 1209 0.4 0 0.5 0.4 0 0.5 1.5 0.5 0.3 1.2 0.01 0 1.2 0.03 0 0 0 0 0 0 0 0 0 0 1.5 0 0.11
14.385 1.32 0.35 -6.44 -0.06 0.19 1.06 0 0 22 2 1 0 0 0 20 0.03 -0.04 -38.92 1209 0.4 0 0.5 0.4 0 0.5 1.5 0.5 0.3 1.2 0.01 0 1.2 0.03 0 0 0 0 0 0 0 0 0 0 1.5 0 0.11
14.485 1.32 0.35 -6.44 -0.06 0.25 0.94 0 0 22 2 1 0 0 0 20 0.06 -0.07 -39.16 1209 0.4 0 0.5 0.4 0 0.5 1.5 0.5 0.3 1.2 0.01 0 1.2 0.03 0 0 0 0 0 0 0 0 0 0 1.5 0 0.11
14.585 1.32 0.35 -6.48 0 0.19 1 0 0 21 2 1 0 0 0 20 0 -0.11 -39.7 1209 0.4 0 0.5 0.4 0 0.5 1.5 0.5 0.3 1.2 0.01 0 1.2 0.03 0 0 0 0 0 0 0 0 0 0 1.5 0 0.11
14.685 1.32 0.35 -6.46 -0.06 0.25 0.88 0 0 20 2 1 0 0 0 20 0.03 -0.1 -39.94 1209 0.4 0 0.5 0.4 0 0.5 1.5 0.5 0.3 1.2 0.01 0 1.2 0.03 0 0 0 0 0 0 0 0 0 0 1.5 0 0.11
14.785 1.32 0.35 -6.48 0 0.31 0.94 0 0 21 2 1 0 0 0 20 0 -0.16 -38.82 1209 0.4 0 0.5 0.4 0 0.5 1.5 0.5 0.3 1.2 0.01 0 1.2 0.03 0 0 0 0 0 0 0 0 0 0 1.5 0 0.11
14.886 1.32 0.35 -6.46 -0.06 0.19 1.06 0 0 21 2 1 0 0 0 20 0.06 -0.04 -40.77 1209 0.4 0 0.5 0.4 0 0.5 1.5 0.5 0.3 1.2 0.01 0 1.2 0.03 0 0 0 0 0 0 0 0 0 0 1.5 0 0.11
14.985 1.32 0.35 -6.46 0 0.19 0.94 0 0 21 2 1 0 0 0 20 0 -0.04 -41.15 1209 0.4 0 0.5 0.4 0 0.5 1.5 0.5 0.3 1.2 0.01 0 1.2 0.03 0 0 0 0 0 0 0 0 0 0 1.5 0 0.11
15.086 1.32 0.35 -6.44 -0.06 0.19 1.06 0 0 20 2 1 0 0 0 20 0.06 -0.08 -41.51 1209 0.4 0 0.5 0.4 0 0.5 1.5 0.5 0.3 1.2 0.01 0 1.2 0.03 0 0 0 0 0 0 0 0 0 0 1.5 0 0.11
15.185 1.31 0.35 -6.46 0 0.19 1 0 0 21 2 1 0 0 0 20 0 -0.01 -41.89 1209 0.4 0 0.5 0.4 0 0.5 1.5 0.5 0.3 1.2 0.01 0 1.2 0.03 0 0 0 0 0 0 0 0 0 0 1.5 0 0.11
15.286 1.31 0.35 -6.42 0 0.19 1 0 0 22 2 1 0 0 0 20 0 -0.04 -42.26 1209 0.4 0 0.5 0.4 0 0.5 1.5 0.5 0.3 1.2 0.01 0 1.2 0.03 0 0 0 0 0 0 0 0 0 0 1.5 0 0.11
15.386 1.31 0.35 -6.43 0 0.19 1 0 0 21 2 1 0 0 0 20 0.87 0.89 -42.56 1209 0.4 0 0.5 0.4 0 0.5 1.5 0.5 0.3 1.2 0.01 0 1.2 0.03 0 0 0 0 0 0 0 0 0 0 1.5 0 0.11
15.486 1.31 0.36 -6.42 0 0.25 0.94 0 0 21 2 1 0 0 0 20 0.37 0.33 -42.93 1209 0.4 0 0.5 0.4 0 0.5 1.5 0.5 0.3 1.2 0.01 0 1.2 0.03 0 0 0 0 0 0 0 0 0 0 1.5 0 0.11
15.585 1.31 0.35 -6.41 -0.06 0.19 1 0 0 22 2 1 0 0 0 20 0.4 0.39 -43.3 1209 0.4 0 0.5 0.4 0 0.5 1.5 0.5 0.3 1.2 0.01 0 1.2 0.03 0 0 0 0 0 0 0 0 0 0 1.5 0 0.11
15.686 1.31 0.35 -6.45 -0.06 0.25 1 0 0 22 2 1 0 0 0 20 0.43 0.3 -43.7 1209 0.4 0 0.5 0.4 0 0.5 1.5 0.5 0.3 1.2 0.01 0 1.2 0.03 0 0 0 0 0 0 0 0 0 0 1.5 0 0.11
15.786 1.31 0.35 -6.43 -0.06 0.25 1 0 0 21 2 1 0 0 0 20 0.4 0.34 -44.12 1209 0.4 0 0.5 0.4 0 0.5 1.5 0.5 0.3 1.2 0.01 0 1.2 0.03 0 0 0 0 0 0 0 0 0 0 1.5 0 0.11
15.886 1.3 0.35 -6.44 0 0.31 0.88 0 0 20 2 1 0 0 0 20 0.38 0.28 -44.44 1209 0.4 0 0.5 0.4 0 0.5 1.5 0.5 0.3 1.2 0.01 0 1.2 0.03 0 0 0 0 0 0 0 0 0 0 1.5 0 0.11
15.986 1.3 0.35 -6.42 -0.06 0.25 1 0 0 20 2 1 0 0 0 20 0.41 0.34 -44.89 1209 0.4 0 0.5 0.4 0 0.5 1.5 0.5 0.3 1.2 0.01 0 1.2 0.03 0 0 0 0 0 0 0 0 0 0 1.5 0 0.11
16.085 1.31 0.35 -6.41 -0.06 0.06 0.94 0 0 20 2 1 0 0 0 20 0.43 0.48 -43.42 1209 0.4 0 0.5 0.4 0 0.5 1.5 0.5 0.3 1.2 0.01 0 1.2 0.03 0 0 0 0 0 0 0 0 0 0 1.5 0 0.11
16.186 1.3 0.35 -6.37 -0.06 0.25 1 0 0 21 2 1 0 0 0 20 0.41 0.37 -45.65 1209 0.4 0 0.5 0.4 0 0.5 1.5 0.5 0.3 1.2 0.01 0 1.2 0.03 0 0 0 0 0 0 0 0 0 0 1.5 0 0.11
16.286 1.3 0.35 -6.41 -0.06 0.25 1.06 0 0 22 2 1 0 0 0 20 0.44 0.37 -46.05 1209 0.4 0 0.5 0.4 0 0.5 1.5 0.5 0.3 1.2 0.01 0 1.2 0.03 0 0 0 0 0 0 0 0 0 0 1.5 0 0.11
16.386 1.3 0.35 -6.39 0 0.19 1 0 0 21 2 1 0 0 0 20 0.38 0.4 -46.44 1209 0.4 0 0.5 0.4 0 0.5 1.5 0.5 0.3 1.2 0.01 0 1.2 0.03 0 0 0 0 0 0 0 0 0 0 1.5 0 0.11
16.486 1.31 0.35 -6.42 0 0.19 1.06 0 0 21 2 1 0 0 0 20 0.37 0.34 -46.89 1209 0.4 0 0.5 0.4 0 0.5 1.5 0.5 0.3 1.2 0.01 0 1.2 0.03 0 0 0 0 0 0 0 0 0 0 1.5 0 0.11
16.586 1.31 0.35 -6.42 0 0.25 0.88 0 0 21 2 1 0 0 0 20 0.38 0.34 -47.43 1209 0.4 0 0.5 0.4 0 0.5 1.5 0.5 0.3 1.2 0.01 0 1.2 0.03 0 0 0 0 0 0 0 0 0 0 1.5 0 0.11
16.686 1.31 0.35 -6.47 -0.06 0.19 0.94 0 0 21 2 1 0 0 0 20 0.34 0.4 -47.56 1209 0.4 0 0.5 0.4 0 0.5 1.5 0.5 0.3 1.2 0.01 0 1.2 0.03 0 0 0 0 0 0 0 0 0 0 1.5 0 0.11
16.786 1.31 0.35 -6.44 0 0.19 1 0 0 22 2 1 0 0 0 20 0.38 0.37 -48.01 1209 0.4 0 0.5 0.4 0 0.5 1.5 0.5 0.3 1.2 0.01 0 1.2 0.03 0 0 0 0 0 0 0 0 0 0 1.5 0 0.11
16.886 1.31 0.35 -6.5 0 0.25 0.94 0 0 22 2 1 0 0 0 20 0.38 0.35 -48.27 1209 0.4 0 0.5 0.4 0 0.5 1.5 0.5 0.3 1.2 0.01 0 1.2 0.03 0 0 0 0 0 0 0 0 0 0 1.5 0 0.11
16.986 1.31 0.35 -6.49 -0.13 0.25 0.88 0 0 20 2 1 0 0 0 20 0.46 0.32 -48.73 1209 0.4 0 0.5 0.4 0 0.5 1.5 0.5 0.3 1.2 0.01 0 1.2 0.03 0 0 0 0 0 0 0 0 0 0 1.2 0 0.05
17.086 1.31 0.35 -6.47 0 0.19 1.06 0 0 21 2 1 0 0 0 20 0.38 0.38 -49.31 1209 0.4 0 0.5 0.4 0 0.5 1.5 0.5 0.3 1.2 0.01 0 1.2 0.03 0 0 0 0 0 0 0 0 0 0 1.2 0 0.05
17.186 1.32 0.35 -6.44 0 0.25 1 0 0 21 2 1 0 0 0 20 0.38 0.32 -49.51 1209 0.4 0 0.5 0.4 0 0.5 1.5 0.5 0.3 1.2 0.01 0 1.2 0.03 0 0 0 0 0 0 0 0 0 0 1.2 0 0.05
17.286 1.32 0.35 -6.44 0 0.31 1 0 0 22 2 1 0 0 0 20 0.38 0.3 -49.88 1209 0.4 0 0.5 0.4 0 0.5 1.5 0.5 0.3 1.2 0.01 0 1.2 0.03 0 0 0 0 0 0 0 0 0 0 1.2 0 0.05
17.386 1.32 0.35 -6.51 0 0.25 1 0 0 21 2 1 0 0 0 20 0.38 0.35 -50.35 1209 0.4 0 0.5 0.4 0 0.5 1.5 0.5 0.3 1.2 0.01 0 1.2 0.03 0 0 0 0 0 0 0 0 0 0 1.2 0 0.05
17.486 1.31 0.35 -6.48 0.06 0.19 0.94 0 0 22 2 1 0 0 0 20 0.29 0.44 -50.7 1209 0.4 0 0.5 0.4 0 0.5 1.5 0.5 0.3 1.2 0.01 0 1.2 0.03 0 0 0 0 0 0 0 0 0 0 1.2 0 0.05
17.586 1.31 0.35 -6.51 0 0.19 0.94 0 0 21 2 1 0 0 0 20 0.38 0.38 -51.1 1209 0.4 0 0.5 0.4 0 0.5 1.5 0.5 0.3 1.2 0.01 0 1.2 0.03 0 0 0 0 0 0 0 0 0 0 1.2 0 0.05
17.686 1.32 0.35 -6.51 -0.06 0.25 1 0 0 20 2 1 0 0 0 20 0.43 0.36 -51.45 1209 0.4 0 0.5 0.4 0 0.5 1.5 0.5 0.3 1.2 0.01 0 1.2 0.03 0 0 0 0 0 0 0 0 0 0 1.2 0 0.05
17.786 1.32 0.35 -6.53 0 0.25 1.06 0 0 21 2 1 0 0 0 20 0.35 0.36 -52.01 1209 0.4 0 0.5 0.4 0 0.5 1.5 0.5 0.3 1.2 0.01 0 1.2 0.03 0 0 0 0 0 0 0 0 0 0 1.2 0 0.05
17.886 1.32 0.35 -6.51 -0.06 0.13 0.94 0 0 21 2 1 0 0 0 20 0.44 0.44 -52.27 1209 0.4 0 0.5 0.4 0 0.5 1.5 0.5 0.3 1.2 0.01 0 1.2 0.03 0 0 0 0 0 0 0 0 0 0 1.2 0 0.05
17.986 1.32 0.35 -6.55 0 0.19 0.94 0 0 20 2 1 0 0 0 20 0.38 0.39 -52.65 1209 0.4 0 0.5 0.4 0 0.5 1.5 0.5 0.3 1.2 0.01 0 1.2 0.03 0 0 0 0 0 0 0 0 0 0 1.2 0 0.05
18.086 1.32 0.34 -6.54 0 0.19 0.94 0 0 22 2 1 0 0 0 20 0.38 0.4 -51.25 1209 0.4 0 0.5 0.4 0 0.5 1.5 0.5 0.3 1.2 0.01 0 1.2 0.03 0 0 0 0 0 0 0 0 0 0 1.2 0 0.05
18.186 1.32 0.35 -6.57 -0.06 0.25 1 0 0 21 2 1 0 0 0 20 0.41 0.36 -53.56 1209 0.4 0 0.5 0.4 0 0.5 1.5 0.5 0.3 1.2 0.01 0 1.2 0.03 0 0 0 0 0 0 0 0 0 0 1.2 0 0.05
18.286 1.32 0.35 -6.58 0 0.19 0.94 0 0 20 2 1 0 0 0 20 0.35 0.42 -53.78 1209 0.4 0 0.5 0.4 0 0.5 1.5 0.5 0.3 1.2 0.01 0 1.2 0.03 0 0 0 0 0 0 0 0 0 0 1.2 0 0.05
18.386 1.32 0.35 -6.65 -0.06 0.25 0.94 0 0 21 2 1 0 0 0 20 0.37 0.4 -54.23 1209 0.4 0 0.5 0.4 0 0.5 1.5 0.5 0.3 1.2 0.01 0 1.2 0.03 0 0 0 0 0 0 0 0 0 0 1.2 0 0.05
18.486 1.32 0.35 -6.65 -0.06 0.25 0.94 0 0 20 2 1 0 0 0 20 0.41 0.34 -54.66 1209 0.4 0 0.5 0.4 0 0.5 1.5 0.5 0.3 1.2 0.01 0 1.2 0.03 0 0 0 0 0 0 0 0 0 0 1.2 0 0.05
18.589 1.32 0.35 -6.64 -0.06 0.06 1.06 0 0 20 2 1 0 0 0 20 0.44 0.54 -55.15 1209 0.4 0 0.5 0.4 0 0.5 1.5 0.5 0.3 1.2 0.01 0 1.2 0.03 0 0 0 0 0 0 0 0 0 0 1.2 0 0.05
18.686 1.32 0.35 -6.62 0 0.25 0.94 0 0 20 2 1 0 0 0 20 0.38 0.37 -55.45 1209 0.4 0 0.5 0.4 0 0.5 1.5 0.5 0.3 1.2 0.01 0 1.2 0.03 0 0 0 0 0 0 0 0 0 0 1.2 0 0.05
18.786 1.32 0.34 -6.6 0 0.19 0.94 0 0 19 2 1 0 0 0 21 0.38 0.46 -55.79 1210 0.4 0 0.5 0.4 0 0.5 1.5 0.5 0.3 1.2 0.01 0 1.2 0.03 0 0 0 0 0 0 0 0 0 0 1.2 0 0.05
18.886 1.32 0.34 -6.64 -0.06 0.19 1.06 0 0 20 2 1 0 0 0 20 0.41 0.4 -56.19 1209 0.4 0 0.5 0.4 0 0.5 1.5 0.5 0.3 1.2 0.01 0 1.2 0.03 0 0 0 0 0 0 0 0 0 0 1.2 0 0.05
18.986 1.32 0.34 -6.64 0 0.19 0.94 0 0 21 2 1 0 0 0 20 0.38 0.4 -56.55 1209 0.4 0 0.5 0.4 0 0.5 1.5 0.5 0.3 1.2 0.01 0 1.2 0.03 0 0 0 0 0 0 0 0 0 0 1.2 0 0.05
19.086 1.32 0.34 -6.69 0 0.25 1.06 0 0 19 2 1 0 0 0 20 0.38 0.38 -57.05 1209 0.4 0 0.5 0.4 0 0.5 1.5 0.5 0.3 1.2 0.01 0 1.2 0.03 0 0 0 0 0 0 0 0 0 0 1.2 0 0.05
19.186 1.32 0.34 -6.68 0 0.25 1 0 0 20 2 1 0 0 0 20 0.35 0.35 -57.4 1209 0.4 0 0.5 0.4 0 0.5 1.5 0.5 0.3 1.2 0.01 0 1.2 0.03 0 0 0 0 0 0 0 0 0 0 1.2 0 0.05
19.286 1.32 0.34 -6.69 -0.06 0.13 0.94 0 0 20 2 1 0 0 0 20 0.44 0.47 -57.4 1209 0.4 0 0.5 0.4 0 0.5 1.5 0.5 0.3 1.2 0.01 0 1.2 0.03 0 0 0 0 0 0 0 0 0 0 1.2 0 0.05
19.386 1.32 0.34 -6.66 0 0.25 0.94 0 0 20 2 1 0 0 0 20 0.35 0.39 -57.47 1209 0.4 0 0.5 0.4 0 0.5 1.5 0.5 0.3 1.2 0.01 0 1.2 0.03 0 0 0 0 0 0 0 0 0 0 1.2 0 0.05
19.486 1.32 0.34 -6.65 0 0.25 1 0 0 20 2 1 0 0 0 20 0.35 0.39 -57.5 1209 0.4 0 0.5 0.4 0 0.5 1.5 0.5 0.3 1.2 0.01 0 1.2 0.03 0 0 0 0 0 0 0 0 0 0 1.2 0 0.05
19.586 1.32 0.34 -6.65 -0.06 0.25 1 0 0 20 2 1 0 0 0 20 0.41 0.36 -57.48 1209 0.4 0 0.5 0.4 0 0.5 1.5 0.5 0.3 1.2 0.01 0 1.2 0.03 0 0 0 0 0 0 0 0 0 0 1.2 0 0.05
19.686 1.32 0.34 -6.67 -0.13 0.25 1 0 0 20 2 1 0 0 0 20 0.5 0.36 -57.53 1209 0.4 0 0.5 0.4 0 0.5 1.5 0.5 0.3 1.2 0.01 0 1.2 0.03 0 0 0 0 0 0 0 0 0 0 1.2 0 0.05
19.786 1.32 0.34 -6.62 0 0.25 1 0 0 21 2 1 0 0 0 20 0.39 0.39 -57.41 1209 0.4 0 0.5 0.4 0 0.5 1.5 0.5 0.3 1.2 0.01 0 1.2 0.03 0 0 0 0 0 0 0 0 0 0 1.2 0 0.05
19.886 1.32 0.34 -6.64 -0.06 0.25 0.94 0 0 20 2 1 0 0 0 20 0.44 0.39 -57.42 1209 0.4 0 0.5 0.4 0 0.5 1.5 0.5 0.3 1.2 0.01 0 1.2 0.03 0 0 0 0 0 0 0 0 0 0 1.2 0 0.05
19.986 1.32 0.34 -6.62 0 0.19 1.06 0 0 20 2 1 0 0 0 20 0.42 0.42 -57.58 1209 0.4 0 0.5 0.4 0 0.5 1.5 0.5 0.3 1.2 0.01 0 1.2 0.03 0 0 0 0 0 0 0 0 0 0 1.2 0 0.05
20.086 1.32 0.34 -6.67 0 0.31 0.94 0 0 20 2 1 0 0 0 20 0.36 0.34 -57.4 1209 0.4 0 0.5 0.4 0 0.5 1.5 0.5 0.3 1.2 0.01 0 1.2 0.03 0 0 0 0 0 0 0 0 0 0 1.2 0 0.05
20.186 1.32 0.34 -6.67 -0.06 0.31 0.94 0 0 20 2 1 0 0 0 20 0.45 0.34 -57.46 1209 0.4 0 0.5 0.4 0 0.5 1.5 0.5 0.3 1.2 0.01 0 1.2 0.03 0 0 0 0 0 0 0 0 0 0 1.2 0 0.05
20.286 1.32 0.34 -6.64 -0.06 0.25 1 0 0 20 2 1 0 0 0 20 0.41 0.37 -57.5 1209 0.4 0 0.5 0.4 0 0.5 1.5 0.5 0.3 1.2 0.01 0 1.2 0.03 0 0 0 0 0 0 0 0 0 0 1.2 0 0.05
20.386 1.32 0.34 -6.61 -0.06 0.13 0.94 0 0 20 2 1 0 0 0 20 0.45 0.45 -57.38 1209 0.4 0 0.5 0.4 0 0.5 1.5 0.5 0.3 1.2 0.01 0 1.2 0.03 0 0 0 0 0 0 0 0 0 0 1.2 0 0.05
20.486 1.32 0.34 -6.6 0 0.25 0.94 0 0 20 2 1 0 0 0 20 0.36 0.4 -57.46 1209 0.4 0 0.5 0.4 0 0.5 1.5 0.5 0.3 1.2 0.01 0 1.2 0.03 0 0 0 0 0 0 0 0 0 0 1.2 0 0.05
20.586 1.32 0.34 -6.61 -0.06 0.25 1 0 0 20 2 1 0 0 0 20 0.45 0.43 -57.46 1209 0.4 0 0.5 0.4 0 0.5 1.5 0.5 0.3 1.2 0.01 0 1.2 0.03 0 0 0 0 0 0 0 0 0 0 1.2 0 0.05
20.686 1.32 0.34 -6.59 -0.06 0.25 0.94 0 0 21 2 1 0 0 0 20 0.42 0.37 -57.47 1209 0.4 0 0.5 0.4 0 0.5 1.5 0.5 0.3 1.2 0.01 0 1.2 0.03 0 0 0 0 0 0 0 0 0 0 1.2 0 0.05
20.786 1.32 0.34 -6.61 0 0.25 1 0 0 22 2 1 0 0 0 20 0.39 0.4 -57.41 1209 0.4 0 0.5 0.4 0 0.5 1.5 0.5 0.3 1.2 0.01 0 1.2 0.03 0 0 0 0 0 0 0 0 0 0 1.2 0 0.05
20.886 1.32 0.34 -6.58 -0.06 0.25 1 0 0 21 2 1 0 0 0 20 0.45 0.37 -57.49 1209 0.4 0 0.5 0.4 0 0.5 1.5 0.5 0.3 1.2 0.01 0 1.2 0.03 0 0 0 0 0 0 0 0 0 0 1.2 0 0.05
20.986 1.32 0.34 -6.62 0 0.13 1 0 0 21 2 1 0 0 0 20 0.39 0.46 -57.44 1209 0.4 0 0.5 0.4 0 0.5 1.5 0.5 0.3 1.2 0.01 0 1.2 0.03 0 0 0 0 0 0 0 0 0 0 1.2 0 0.05
21.086 1.32 0.35 -6.64 0 0.25 1 0 0 21 2 1 0 0 0 20 0.39 0.37 -57.48 1209 0.4 0 0.5 0.4 0 0.5 1.5 0.5 0.3 1.2 0.01 0 1.2 0.03 0 0 0 0 0 0 0 0 0 0 1.2 0 0.05
21.186 1.32 0.35 -6.67 0 0.19 1 0 0 22 2 1 0 0 0 20 0.32 0.49 -57.5 1209 0.4 0 0.5 0.4 0 0.5 1.5 0.5 0.3 1.2 0.01 0 1.2 0.03 0 0 0 0 0 0 0 0 0 0 1.2 0 0.05
21.286 1.32 0.35 -6.67 -0.06 0.25 0.94 0 0 20 2 1 0 0 0 20 0.42 0.43 -57.4 1209 0.4 0 0.5 0.4 0 0.5 1.5 0.5 0.3 1.2 0.01 0 1.2 0.03 0 0 0 0 0 0 0 0 0 0 1.2 0 0.05
21.386 1.32 0.35 -6.69 -0.06 0.31 0.94 0 0 20 2 1 0 0 0 20 0.45 0.32 -57.41 1209 0.4 0 0.5 0.4 0 0.5 1.5 0.5 0.3 1.2 0.01 0 1.2 0.03 0 0 0 0 0 0 0 0 0 0 1.2 0 0.05
21.486 1.32 0.35 -6.68 -0.06 0.19 1 0 0 20 2 1 0 0 0 20 0.42 0.4 -57.54 1209 0.4 0 0.5 0.4 0 0.5 1.5 0.5 0.3 1.2 0.01 0 1.2 0.03 0 0 0 0 0 0 0 0 0 0 1.2 0 0.05
21.586 1.32 0.35 -6.72 0 0.31 1 0 0 20 2 1 0 0 0 20 0.39 0.32 -57.5 1209 0.4 0 0.5 0.4 0 0.5 1.5 0.5 0.3 1.2 0.01 0 1.2 0.03 0 0 0 0 0 0 0 0 0 0 1.2 0 0.05
21.686 1.32 0.35 -6.72 0 0.19 0.94 0 0 20 2 1 0 0 0 20 0.36 0.47 -57.44 1209 0.4 0 0.5 0.4 0 0.5 1.5 0.5 0.3 1.2 0.01 0 1.2 0.03 0 0 0 0 0 0 0 0 0 0 1.2 0 0.05
21.786 1.32 0.35 -6.72 0 0.19 0.94 0 0 21 2 1 0 0 0 20 0.4 0.44 -57.37 1209 0.4 0 0.5 0.4 0 0.5 1.5 0.5 0.3 1.2 0.01 0 1.2 0.03 0 0 0 0 0 0 0 0 0 0 1.2 0 0.05
21.886 1.32 0.35 -6.78 -0.06 0.25 1 0 0 22 2 1 0 0 0 20 0.45 0.38 -57.47 1209 0.4 0 0.5 0.4 0 0.5 1.5 0.5 0.3 1.2 0.01 0 1.2 0.03 0 0 0 0 0 0 0 0 0 0 1.2 0 0.05
21.986 1.33 0.35 -6.79 1.19 1.69 1.31 0 0 22 2 1 0 0 0 20 -1.15 -0.5 -58.06 1209 0.4 0 0.5 0.4 0 0.5 1.5 0.5 0.3 1.2 0.01 0 1.2 0.03 0 0 0 0 0 0 0 0 0 0 1.2 0 0.05
22.086 1.33 0.35 -6.9 0 -3.06 1.75 0 0 22 2 1 0 0 0 20 0.2 3.21 -56.86 1209 0.4 0 0.5 0.4 0 0.5 1.5 0.5 0.3 1.2 0.01 0 1.2 0.03 0 0 0 0 0 0 0 0 0 0 1.2 0 0.05
22.186 1.34 0.36 -6.94 -0.81 1.56 0.75 0 0 21 2 1 0 0 0 20 1.27 -0.5 -57.5 1209 0.4 0 0.5 0.4 0 0.5 1.5 0.5 0.3 1.2 0.01 0 1.2 0.03 0 0 0 0 0 0 0 0 0 0 1.2 0 0.05
22.286 1.35 0.36 -7.12 0.5 1.69 1.56 0 0 22 2 1 0 0 0 20 0.52 -1.14 -59.12 1209 0.4 0 0.5 0.4 0 0.5 1.5 0.5 0.3 1.2 0.01 0 1.2 0.03 0 0 0 0 0 0 0 0 0 0 1.2 0 0.05
22.386 1.33 0.36 -7.14 -2.62 -2.12 -0.19 0 0 21 2 1 0 0 0 20 2.07 2.18 -57.64 1209 0.4 0 0.5 0.4 0 0.5 1.5 0.5 0.3 1.2 0.01 0 1.2 0.03 0 0 0 0 0 0 0 0 0 0 1.2 0 0.05
22.486 1.33 0.36 -7.25 0 0.75 0.25 0 0 22 2 1 0 0 0 20 0.55 0.37 -57.26 1209 0.4 0 0.5 0.4 0 0.5 1.5 0.5 0.3 1.2 0.01 0 1.2 0.03 0 0 0 0 0 0 0 0 0 0 1.2 0 0.05
22.586 1.33 0.36 -7.24 0.13 0.44 1.94 0 0 21 2 1 0 0 0 20 1.06 -1.22 -60.71 1209 0.4 0 0.5 0.4 0 0.5 1.5 0.5 0.3 1.2 0.01 0 1.2 0.03 0 0 0 0 0 0 0 0 0 0 1.2 0 0.05
22.686 1.33 0.34 -7.27 -2.75 -0.88 1.19 0 0 22 2 1 0 0 0 20 2.03 1.51 -58.31 1209 0.4 0 0.5 0.4 0 0.5 1.5 0.5 0.3 1.2 0.01 0 1.2 0.03 0 0 0 0 0 0 0 0 0 0 1.2 0 0.05
22.786 1.31 0.35 -7.2 -3 -1.25 3.75 0 0 21 2 1 0 0 0 21 3.46 2.06 -61.28 1215 0.4 0 0.5 0.4 0 0.5 1.5 0.5 0.3 1.2 0.01 0 1.2 0.03 0 0 0 0 0 0 0 0 0 0 1.2 0 0.05
22.886 1.29 0.32 -7.28 2.44 0.69 5.19 0 0 20 2 1 0 0 0 21 -1.88 -1.17 -64.4 1214 0.4 0 0.5 0.4 0 0.5 1.5 0.5 0.3 1.2 0.01 0 1.2 0.03 0 0 0 0 0 0 0 0 0 0 1.2 0 0.05
22.986 1.26 0.31 -7.24 1.75 1.62 3.37 0 0 21 2 1 0 0 0 21 0.06 -1.82 -59.21 1214 0.4 0 0.5 0.4 0 0.5 1.5 0.5 0.3 1.2 0.01 0 1.2 0.03 0 0 0 0 0 0 0 0 0 0 1.2 0 0.05
23.086 1.24 0.31 -7.28 0.75 0 6.19 0 0 20 2 1 0 0 0 21 -0.02 0.14 -61.57 1213 0.4 0 0.5 0.4 0 0.5 1.5 0.5 0.3 1.2 0.01 0 1.2 0.03 0 0 0 0 0 0 0 0 0 0 1.2 0 0.05
23.186 1.21 0.3 -7.28 4.06 0.69 1.5 0 0 21 2 1 0 0 0 21 -2.18 -2.06 -57.99 1213 0.4 0 0.5 0.4 0 0.5 1.5 0.5 0.3 1.2 0.01 0 1.2 0.03 0 0 0 0 0 0 0 0 0 0 1.2 0 0.05
23.286 1.2 0.27 -7.27 -1.12 0 3.37 0 0 20 2 1 0 0 0 21 -0.43 -0.49 -61.63 1213 0.4 0 0.5 0.4 0 0.5 1.5 0.5 0.3 1.2 0.01 0 1.2 0.03 0 0 0 0 0 0 0 0 0 0 1.2 0 0.05
23.386 1.2 0.26 -7.38 -4.81 -1 4.87 0 0 21 2 1 0 0 0 21 5.5 1.41 -60.81 1213 0.4 0 0.5 0.4 0 0.5 1.5 0.5 0.3 1.2 0.01 0 1.2 0.03 0 0 0 0 0 0 0 0 0 0 1.2 0 0.05
23.486 1.21 0.27 -7.38 0.75 2.37 3.06 0 0 21 2 1 0 0 0 21 -0.66 -2.2 -60.86 1213 0.4 0 0.5 0.4 0 0.5 1.5 0.5 0.3 1.2 0.01 0 1.2 0.03 0 0 0 0 0 0 0 0 0 0 1.2 0 0.05
23.586 1.2 0.29 -7.45 -4.25 -2.06 2.87 0 0 21 2 1 0 0 0 21 2.38 1.9 -62.97 1214 0.4 0 0.5 0.4 0 0.5 1.5 0.5 0.3 1.2 0.01 0 1.2 0.03 0 0 0 0 0 0 0 0 0 0 1.2 0 0.05
23.686 1.21 0.31 -7.48 -3.19 0.88 1.31 0 0 21 2 1 0 0 0 21 5.89 0.82 -60.45 1213 0.4 0 0.5 0.4 0 0.5 1.5 0.5 0.3 1.2 0.01 0 1.2 0.03 0 0 0 0 0 0 0 0 0 0 1.2 0 0.05
23.786 1.21 0.27 -7.54 -0.25 1.44 -2.62 0 0 22 2 1 0 0 0 21 -0.06 -1.84 -59.06 1213 0.4 0 0.5 0.4 0 0.5 1.5 0.5 0.3 1.2 0.01 0 1.2 0.03 0 0 0 0 0 0 0 0 0 0 1.2 0 0.05
23.886 1.24 0.27 -7.55 -3.56 -1.94 -1.62 0 0 20 2 1 0 0 0 21 2.97 2.33 -58.66 1214 0.4 0 0.5 0.4 0 0.5 1.5 0.5 0.3 1.2 0.01 0 1.2 0.03 0 0 0 0 0 0 0 0 0 0 1.2 0 0.05
23.986 1.27 0.27 -7.66 3 5.31 -0.56 0 0 21 2 1 0 0 0 21 -2.79 -3.34 -57.99 1213 0.4 0 0.5 0.4 0 0.5 1.5 0.5 0.3 1.2 0.01 0 1.2 0.03 0 0 0 0 0 0 0 0 0 0 1.2 0 0.05
24.086 1.26 0.27 -7.67 -1.87 0.31 -3.44 0 0 21 2 1 0 0 0 21 -0.53 0.55 -57.91 1213 0.4 0 0.5 0.4 0 0.5 1.5 0.5 0.3 1.2 0.01 0 1.2 0.03 0 0 0 0 0 0 0 0 0 0 1.2 0 0.05
24.186 1.27 0.3 -7.73 -5.62 -0.19 0.81 0 0 22 2 1 0 0 0 21 5.16 2.21 -57.89 1213 0.4 0 0.5 0.4 0 0.5 1.5 0.5 0.3 1.2 0.01 0 1.2 0.03 0 0 0 0 0 0 0 0 0 0 1.2 0 0.05
24.286 1.29 0.29 -7.7 2.5 1.75 -2.69 0 0 21 2 1 0 0 0 21 -2.42 0.31 -53.91 1214 0.4 0 0.5 0.4 0 0.5 1.5 0.5 0.3 1.2 0.01 0 1.2 0.03 0 0 0 0 0 0 0 0 0 0 1.2 0 0.05
24.386 1.31 0.29 -7.72 -1 0.13 -1.87 0 0 21 2 1 0 0 0 21 -0.21 -0.28 -54.78 1216 0.4 0 0.5 0.4 0 0.5 1.5 0.5 0.3 1.2 0.01 0 1.2 0.03 0 0 0 0 0 0 0 0 0 0 1.2 0 0.05
24.486 1.31 0.27 -7.72 -3.37 -3.44 0.75 0 0 21 2 1 0 0 0 27 5.15 4.43 -50.91 1274 0.4 0 0.5 0.4 0 0.5 1.5 0.5 0.3 1.2 0.01 0 1.2 0.03 0 0 0 0 0 0 0 0 0 0 1.2 0 0.05
24.586 1.29 0.26 -7.72 -0.44 -0.62 3.06 0 0 19 2 1 0 0 0 27 3.03 3.49 -53.51 1274 0.4 0 0.5 0.4 0 0.5 1.5 0.5 0.3 1.2 0.01 0 1.2 0.03 0 0 0 0 0 0 0 0 0 0 1.2 0 0.05
24.686 1.25 0.23 -7.6 -1.56 -1.56 -0.69 0 0 20 2 2 0 0 0 27 0.46 3.22 -53.9 1277 0.4 0 0.5 0.4 0 0.5 1.5 0.5 0.3 1.2 0.01 0 1.2 0.03 0 0 0 0 0 0 0 0 0 0 1.2 0 0.05
24.786 1.32 0.26 -7.48 -0.56 -3.44 4.94 0 0 18 2 2 0 0 0 28 6.24 7.61 -55.18 1288 0.4 0 0.5 0.4 0 0.5 1.5 0.5 0.3 1.2 0.01 0 1.2 0.03 0 0 0 0 0 0 0 0 0 0 1.2 0 0.05
24.886 1.22 0.21 -7.46 10.94 3.69 2.12 0 0 22 2 2 0 0 0 28 -11.34 -2.35 -48.55 1288 0.4 0 0.5 0.4 0 0.5 1.5 0.5 0.3 1.2 0.01 0 1.2 0.03 0 0 0 0 0 0 0 0 0 0 1.2 0 0.05
24.986 1.18 0.18 -7.38 8.5 4.12 6.12 0 0 22 1 2 0 0 0 31 -6.98 -2.6 -51.91 1318 0.4 0 0.5 0.4 0 0.5 1.5 0.5 0.3 1.2 0.01 0 1.2 0.03 0 0 0 0 0 0 0 0 0 0 1.2 0 0.05
25.086 1.19 0.13 -7.25 -2 -4.44 10.31 0 0 23 1 2 0 0 0 32 7 5.95 -55.81 1321 0.4 0 0.5 0.4 0 0.5 1.5 0.5 0.3 1.2 0.01 0 1.2 0.03 0 0 0 0 0 0 0 0 0 0 1.2 0 0.05
25.186 1.11 0.14 -7.2 -10.56 3.06 -5.44 0 0 23 1 2 0 0 0 33 6.41 -3.23 -58.03 1331 0.4 0 0.5 0.4 0 0.5 1.5 0.5 0.3 1.2 0.01 0 1.2 0.03 0 0 0 0 0 0 0 0 0 0 1.2 0 0.05
25.286 1.11 0.08 -7.34 -7.62 -0.69 2.69 0 0 23 1 1 0 0 0 33 9.81 2.04 -50.07 1331 0.4 0 0.5 0.4 0 0.5 1.5 0.5 0.3 1.2 0.01 0 1.2 0.03 0 0 0 0 0 0 0 0 0 0 1.2 0 0.05
25.386 1.46 0.31 -7.54 7.5 6.75 3.87 0 0 22 1 1 0 0 0 33 -6.65 -3.2 -54.04 1332 0.4 0 0.5 0.4 0 0.5 1.5 0.5 0.3 1.2 0.01 0 1.2 0.03 0 0 0 0 0 0 0 0 0 0 1.2 0 0.05
25.486 1.33 0.29 -7.71 11 2.87 -9.19 0 0 22 2 1 0 0 0 37 -21.18 -3.05 -50.66 1374 0.4 0 0.5 0.4 0 0.5 1.5 0.5 0.3 1.2 0.01 0 1.2 0.03 0 0 0 0 0 0 0 0 0 0 1.2 0 0.05
25.586 1.01 0.07 -8.06 7.5 3.62 -15.31 0 0 23 2 1 0 0 0 37 -12.95 -0.83 -44.04 1375 0.4 0 0.5 0.4 0 0.5 1.5 0.5 0.3 1.2 0.01 0 1.2 0.03 0 0 0 0 0 0 0 0 0 0 1.2 0 0.05
25.686 0.85 0.1 -8.89 1.81 5.5 -1.81 0 0 23 2 2 0 0 0 37 3.86 -2.74 -34.27 1375 0.4 0 0.5 0.4 0 0.5 1.5 0.5 0.3 1.2 0.01 0 1.2 0.03 0 0 0 0 0 0 0 0 0 0 1.2 0 0.05
25.786 1.34 1.51 -10.11 2.37 21.56 -27.75 0 0 22 2 2 0 0 0 37 -1 -10.56 -31.37 1375 0.4 0 0.5 0.4 0 0.5 1.5 0.5 0.3 1.2 0.01 0 1.2 0.03 0 0 0 0 0 0 0 0 0 0 1.2 0 0.05
25.886 1.9 2.64 -11.54 -23.94 -1.75 -9.88 0 0 22 2 2 0 0 0 38 32.02 11.25 -36.05 1388 0.4 0 0.5 0.4 0 0.5 1.5 0.5 0.3 1.2 0.01 0 1.2 0.03 0 0 0 0 0 0 0 0 0 0 1.2 0 0.05
25.986 0.97 2.61 -13.11 -27.44 6.94 -18.44 0 0 21 2 2 0 0 0 38 28.15 -10.38 -25.91 1386 0.4 0 0.5 0.4 0 0.5 1.5 0.5 0.3 1.2 0.01 0 1.2 0.03 0 0 0 0 0 0 0 0 0 0 1.2 0 0.05
26.087 0.82 3.1 -14.85 6.12 14.19 -26.37 0 0 22 2 2 0 0 0 38 -4.46 -7.84 -26.06 1388 0.4 0 0.5 0.4 0 0.5 1.5 0.5 0.3 1.2 0.01 0 1.2 0.03 0 0 0 0 0 0 0 0 0 0 1.2 0 0.05
26.186 2.48 3.97 -16.64 27.87 16.75 -26.81 0 0 25 2 2 0 0 0 38 -15.94 -8.41 -19.24 1387 0.4 0 0.5 0.4 0 0.5 1.5 0.5 0.3 1.2 0.01 0 1.2 0.03 0 0 0 0 0 0 0 0 0 0 1.2 0 0.05
26.287 4.28 4.91 -18.44 10.38 10.25 -1.87 0 0 20 2 2 0 0 0 38 0.25 -4.61 -27.64 1387 0.4 0 0.5 0.4 0 0.5 1.5 0.5 0.3 1.2 0.01 0 1.2 0.03 0 0 0 0 0 0 0 0 0 0 1.2 0 0.05
26.386 3.94 6.26 -20.2 8 33.31 -22.12 0 0 20 2 2 0 0 0 38 -10.67 -22.32 -20.85 1387 0.4 0 0.5 0.4 0 0.5 1.5 0.5 0.3 1.2 0.01 0 1.2 0.03 0 0 0 0 0 0 0 0 0 0 1.2 0 0.05
26.486 2.57 8.04 -21.98 -29.81 17.81 -13.94 0 0 21 1 4 0 0 0 38 27.56 -5.94 -17.16 1386 0.4 0 0.5 0.4 0 0.5 1.5 0.5 0.3 1.2 0.01 0 1.2 0.03 0 0 0 0 0 0 0 0 0 0 1.2 0 0.05
26.586 1.79 9.02 -23.86 11.38 7.44 -21.69 0 0 21 0 4 0 0 0 38 -18.31 -9.39 -14.56 1387 0.4 0 0.5 0.4 0 0.5 1.5 0.5 0.3 1.2 0.01 0 1.2 0.03 0 0 0 0 0 0 0 0 0 0 1.2 0 0.05
26.686 2.09 9.4 -25.84 11.69 2.62 -16.56 0 0 21 1 4 0 0 0 38 -9.39 -3.95 -16.32 1387 0.4 0 0.5 0.4 0 0.5 1.5 0.5 0.3 1.2 0.01 0 1.2 0.03 0 0 0 0 0 0 0 0 0 0 1.2 0 0.05
26.786 3.02 10.23 -27.84 14.75 5.69 -10.69 0 0 21 2 1 0 0 0 38 -12.63 -5.39 -14.64 1386 0.4 0 0.5 0.4 0 0.5 1.5 0.5 0.3 1.2 0.01 0 1.2 0.03 0 0 0 0 0 0 0 0 0 0 1.2 0 0.05
26.886 3.93 11.61 -29.71 2.31 20.69 -10.06 0 0 22 2 0 0 0 0 38 6.17 -18.98 -14.11 1386 0.4 0 0.5 0.4 0 0.5 1.5 0.5 0.3 1.2 0.01 0 1.2 0.03 0 0 0 0 0 0 0 0 0 0 1.2 0 0.05
26.987 3.88 12.43 -31.59 -22.75 4.62 -35 0 0 22 1 -9 0 0 0 38 12.62 -8.27 -6.86 1386 0.4 0 0.5 0.4 0 0.5 1.5 0.5 0.3 1.2 0.01 0 1.2 0.03 0 0 0 0 0 0 0 0 0 0 1.2 0 0.05
27.086 2.86 11.59 -33.54 -1.25 -15.06 -13.88 0 0 23 1 -8 0 0 0 38 -9.24 -3.26 -12.55 1387 0.4 0 0.5 0.4 0 0.5 1.5 0.5 0.3 1.2 0.01 0 1.2 0.03 0 0 0 0 0 0 0 0 0 0 1.2 0 0.05
27.187 2 8.93 -35.45 3.94 -31.62 -4.69 0 0 20 2 -2 0 0 0 38 -3.71 7 -12.28 1387 0.4 0 0.5 0.4 0 0.5 1.5 0.5 0.3 1.2 0.01 0 1.2 0.03 0 0 0 0 0 0 0 0 0 0 1.2 0 0.05
27.287 2.11 6.76 -37.43 5.75 -18.62 -18.12 0 0 20 2 -1 0 0 0 38 -2.77 3.82 -8.14 1386 0.4 0 0.5 0.4 0 0.5 1.5 0.5 0.3 1.2 0.01 0 1.2 0.03 0 0 0 0 0 0 0 0 0 0 1.2 0 0.05
27.386 2.64 6.93 -39.25 25 13.06 -12.38 0 0 21 2 1 0 0 0 38 -15.73 -12.68 -5.62 1387 0.4 0 0.5 0.4 0 0.5 1.5 0.5 0.3 1.2 0.01 0 1.2 0.03 0 0 0 0 0 0 0 0 0 0 1.2 0 0.05
27.486 2.68 9.33 -40.81 -6.81 30 -14.88 0 0 23 2 1 0 0 0 38 6.67 -16.02 -12.63 1387 0.4 0 0.5 0.4 0 0.5 1.5 0.5 0.3 1.2 0.01 0 1.2 0.03 0 0 0 0 0 0 0 0 0 0 1.2 0 0.05
27.586 1.82 11 -42.32 -4.31 11.63 -0.25 0 0 21 2 1 0 0 0 38 2.32 -9.66 -16.56 1386 0.4 0 0.5 0.4 0 0.5 1.5 0.5 0.3 1.2 0.01 0 1.2 0.03 0 0 0 0 0 0 0 0 0 0 1.2 0 0.05
27.687 0.52 10.27 -43.85 -23.19 -7.69 -13.38 0 0 21 2 2 0 0 0 38 16.76 -2.22 -9.69 1386 0.4 0 0.5 0.4 0 0.5 1.5 0.5 0.3 1.2 0.01 0 1.2 0.03 0 0 0 0 0 0 0 0 0 0 1.2 0 0.05
27.787 0.49 8.92 -45.18 -3.56 -8.06 -17.25 0 0 20 2 1 0 0 0 38 8.23 1.38 -11.65 1387 0.4 0 0.5 0.4 0 0.5 1.5 0.5 0.3 1.2 0.01 0 1.2 0.03 0 0 0 0 0 0 0 0 0 0 1.2 0 0.05
27.887 1.96 8.55 -46.35 17.81 -0.75 -4.56 0 0 21 2 2 0 0 0 38 -4.3 -4.03 -15.55 1387 0.4 0 0.5 0.4 0 0.5 1.5 0.5 0.3 1.2 0.01 0 1.2 0.03 0 0 0 0 0 0 0 0 0 0 1.2 0 0.05
27.987 3.12 9.21 -47.71 -5.37 3.37 -21.37 0 0 21 2 2 0 0 0 38 1.5 -5.05 -8.21 1386 0.4 0 0.5 0.4 0 0.5 1.5 0.5 0.3 1.2 0.01 0 1.2 0.03 0 0 0 0 0 0 0 0 0 0 1.2 0 0.05
28.087 3.41 10.1 -49.05 5 3.37 -22.62 0 0 21 2 1 0 0 0 38 -10.7 -5.66 -11.85 1387 0.4 0 0.5 0.4 0 0.5 1.5 0.5 0.3 1.2 0.01 0 1.2 0.03 0 0 0 0 0 0 0 0 0 0 1.2 0 0.05
28.187 2.32 10.28 -50.25 -12.56 -3.94 -11.88 0 0 21 2 2 0 0 0 38 -1.53 1.01 -15.1 1388 0.4 0 0.5 0.4 0 0.5 1.5 0.5 0.3 1.2 0.01 0 1.2 0.03 0 0 0 0 0 0 0 0 0 0 1.2 0 0.05
28.287 0.65 9.67 -51.37 4.25 -0.37 0 0 0 20 2 1 0 0 0 38 -6.15 -4.06 -14.21 1388 0.4 0 0.5 0.4 0 0.5 1.5 0.5 0.3 1.2 0.01 0 1.2 0.03 0 0 0 0 0 0 0 0 0 0 1.2 0 0.05
28.387 0 9.23 -52.38 7.25 2.37 3.06 0 0 21 2 1 0 0 0 38 -15.45 -7.59 -13.8 1387 0.4 0 0.5 0.4 0 0.5 1.5 0.5 0.3 1.2 0.01 0 1.2 0.03 0 0 0 0 0 0 0 0 0 0 1.2 0 0.05
28.487 0.26 9.42 -53.35 0.75 7.69 -1.06 0 0 21 2 1 0 0 0 38 9.58 -5.47 -15.31 1388 0.4 0 0.5 0.4 0 0.5 1.5 0.5 0.3 1.2 0.01 0 1.2 0.03 0 0 0 0 0 0 0 0 0 0 1.2 0 0.05
28.587 0.38 10.01 -54.32 4.06 9.5 2.94 0 0 21 1 1 0 0 0 38 -4.35 -10.53 -10.54 1389 0.4 0 0.5 0.4 0 0.5 1.5 0.5 0.3 1.2 0.01 0 1.2 0.03 0 0 0 0 0 0 0 0 0 0 1.2 0 0.05
28.687 0.52 10.52 -55.35 -20.5 -4.19 -12.56 0 0 21 1 1 0 0 0 38 25.43 -0.04 -9.75 1388 0.4 0 0.5 0.4 0 0.5 1.5 0.5 0.3 1.2 0.01 0 1.2 0.03 0 0 0 0 0 0 0 0 0 0 1.2 0 0.05
28.787 -0.16 10.54 -56.22 -13.13 -6.31 -17.75 0 0 21 1 1 0 0 0 38 11.75 -1.96 -15.21 1388 0.4 0 0.5 0.4 0 0.5 1.5 0.5 0.3 1.2 0.01 0 1.2 0.03 0 0 0 0 0 0 0 0 0 0 1.2 0 0.05
28.887 -0.18 10.27 -56.79 12.75 -5.87 -13.31 0 0 20 1 1 0 0 0 38 -12.19 0.22 -16.61 1389 0.4 0 0.5 0.4 0 0.5 1.5 0.5 0.3 1.2 0.01 0 1.2 0.03 0 0 0 0 0 0 0 0 0 0 1.2 0 0.05
28.987 0.02 10.26 -57.4 -16.37 1.06 -23.56 0 0 21 1 1 0 0 0 38 12.68 -3.32 -12.41 1387 0.4 0 0.5 0.4 0 0.5 1.5 0.5 0.3 1.2 0.01 0 1.2 0.03 0 0 0 0 0 0 0 0 0 0 1.2 0 0.05
29.087 -1.02 10.42 -57.88 1.37 0.06 2.19 0 0 21 1 1 0 0 0 38 -12.93 -3.29 -24.19 1387 0.4 0 0.5 0.4 0 0.5 1.5 0.5 0.3 1.2 0.01 0 1.2 0.03 0 0 0 0 0 0 0 0 0 0 1.2 0 0.05
29.187 -1.87 10.06 -58.25 -1.87 -6.31 -1.87 0 0 21 2 1 0 0 0 38 1.9 1.96 -20.18 1387 0.4 0 0.5 0.4 0 0.5 1.5 0.5 0.3 1.2 0.01 0 1.2 0.03 0 0 0 0 0 0 0 0 0 0 1.2 0 0.05
29.287 -1.42 9.34 -58.71 15.63 -9.19 3.31 0 0 21 2 1 0 0 0 38 -8.33 1.17 -14.52 1387 0.4 0 0.5 0.4 0 0.5 1.5 0.5 0.3 1.2 0.01 0 1.2 0.03 0 0 0 0 0 0 0 0 0 0 1.2 0 0.05
29.387 -0.55 8.65 -59.35 -11.06 -14.06 -14.31 0 0 21 2 1 0 0 0 38 20.05 4.96 -14.41 1387 0.4 0 0.5 0.4 0 0.5 1.5 0.5 0.3 1.2 0.01 0 1.2 0.03 0 0 0 0 0 0 0 0 0 0 1.2 0 0.05
29.487 -0.48 8.06 -60.07 2.19 -11.06 -14.13 0 0 21 2 1 0 0 0 38 -9.48 1.74 -10.98 1386 0.4 0 0.5 0.4 0 0.5 1.5 0.5 0.3 1.2 0.01 0 1.2 0.03 0 0 0 0 0 0 0 0 0 0 1.2 0 0.05
29.587 -1.31 8.05 -60.88 -4.37 8.25 -12.94 0 0 21 2 1 0 0 0 38 -2.02 -8.53 -13.25 1386 0.4 0 0.5 0.4 0 0.5 1.5 0.5 0.3 1.2 0.01 0 1.2 0.03 0 0 0 0 0 0 0 0 0 0 1.2 0 0.05
29.687 -2.82 9.11 -61.6 -8.75 12.81 -11.56 0 0 21 2 1 0 0 0 38 -0.68 -7.59 -16.62 1387 0.4 0 0.5 0.4 0 0.5 1.5 0.5 0.3 1.2 0.01 0 1.2 0.03 0 0 0 0 0 0 0 0 0 0 1.2 0 0.05
29.787 -3.39 9.87 -62.26 2.75 4.12 -2.5 0 0 21 2 1 0 0 0 38 5.34 -2.83 -15.18 1387 0.4 0 0.5 0.4 0 0.5 1.5 0.5 0.3 1.2 0.01 0 1.2 0.03 0 0 0 0 0 0 0 0 0 0 1.2 0 0.05
29.886 -3.22 9.13 -62.89 19.37 -12.13 3.44 0 0 21 2 1 0 0 0 38 -11.7 3.48 -17.77 1386 0.4 0 0.5 0.4 0 0.5 1.5 0.5 0.3 1.2 0.01 0 1.2 0.03 0 0 0 0 0 0 0 0 0 0 1.2 0 0.05
29.987 -2.43 7.99 -63.39 6.62 -7.81 1.5 0 0 21 2 1 0 0 0 38 13.05 0.77 -17.84 1386 0.4 0 0.5 0.4 0 0.5 1.5 0.5 0.3 1.2 0.01 0 1.2 0.03 0 0 0 0 0 0 0 0 0 0 1.2 0 0.05
30.087 -1.74 7.82 -63.91 10.69 0.13 3.87 0 0 21 2 1 0 0 0 38 -1.77 -3.24 -11.09 1386 0.4 0 0.5 0.4 0 0.5 1.5 0.5 0.3 1.2 0.01 0 1.2 0.03 0 0 0 0 0 0 0 0 0 0 1.2 0 0.05
30.187 -1.58 8.26 -64.39 -9.19 4.31 -4 0 0 21 2 1 0 0 0 38 18.98 -8.58 -16.11 1386 0.4 0 0.5 0.4 0 0.5 1.5 0.5 0.3 1.2 0.01 0 1.2 0.03 0 0 0 0 0 0 0 0 0 0 1.2 0 0.05
30.287 -2.36 8.24 -64.84 -1.81 -2.44 -14.75 0 0 20 2 1 0 0 0 38 -6.14 1.47 -20.2 1386 0.4 0 0.5 0.4 0 0.5 1.5 0.5 0.3 1.2 0.01 0 1.2 0.03 0 0 0 0 0 0 0 0 0 0 1.2 0 0.05
30.387 -2.77 7.75 -65.23 9.31 4.31 -2.62 0 0 21 2 1 0 0 0 38 -8.41 -7.5 -17.67 1386 0.4 0 0.5 0.4 0 0.5 1.5 0.5 0.3 1.2 0.01 0 1.2 0.03 0 0 0 0 0 0 0 0 0 0 1.2 0 0.05
30.487 -2.72 7.45 -65.62 2.69 1.06 -9.13 0 0 21 2 1 0 0 0 38 -6.2 -3.87 -16.87 1387 0.4 0 0.5 0.4 0 0.5 1.5 0.5 0.3 1.2 0.01 0 1.2 0.03 0 0 0 0 0 0 0 0 0 0 1.2 0 0.05
