time roll pitch yaw roll_d pitch_d yaw_d longitude latitude height roll_t pitch_t yaw_t longitude_t latitude_t height_t roll_signal pitch_signal yaw_signal throttle Kp_r_d Ki_r_d Kd_r_d Kp_p_d Ki_p_d Kd_p_d Kp_y_d Ki_y_d Kd_y_d Kp_r Ki_r Kd_r Kp_p Ki_p Kd_p Kp_y Ki_y Kd_y Kp_lon Ki_lon Kd_lon Kp_lat Ki_lat Kd_lat Kp_h Ki_h Kd_h
0 0 0 0 0 0 0 0 0 0 0 0 0 0 0 25 0 0 0 1250 0.5 0.1 0.3 0.5 0.1 0.3 1.5 0.5 0.3 1.7 0 0 1.7 0 0 0 0 0 0 0 0 0 0 0 1.5 0 0.11
1062.084 1.35 -0.04 -328.98 -0.25 0.25 1.06 0 0 21 2 1 0 0 0 22 2.75 8.74 -57.83 1221 0.5 0.1 0.3 0.5 0.1 0.3 1.5 0.5 0.3 1.7 0 0 1.7 0 0 0 0 0 0 0 0 0 0 0 1.5 0 0.11
1062.185 1.35 -0.05 -328.93 -0.19 0.25 1 0 0 22 2 1 0 0 0 22 2.69 8.88 -56.08 1221 0.5 0.1 0.3 0.5 0.1 0.3 1.5 0.5 0.3 1.7 0 0 1.7 0 0 0 0 0 0 0 0 0 0 0 1.5 0 0.11
1062.285 1.35 -0.05 -328.98 -0.31 0.31 1 0 0 21 2 1 0 0 0 22 2.67 8.73 -56.03 1221 0.5 0.1 0.3 0.5 0.1 0.3 1.5 0.5 0.3 1.7 0 0 1.7 0 0 0 0 0 0 0 0 0 0 0 1.5 0 0.11
1062.385 1.35 -0.05 -328.98 -0.19 0.31 1 0 0 22 2 1 0 0 0 22 2.65 8.73 -56.06 1221 0.5 0.1 0.3 0.5 0.1 0.3 1.5 0.5 0.3 1.7 0 0 1.7 0 0 0 0 0 0 0 0 0 0 0 1.5 0 0.11
1062.485 1.35 -0.04 -329.03 -0.25 0.31 0.94 0 0 21 2 1 0 0 0 22 2.62 8.72 -55.93 1221 0.5 0.1 0.3 0.5 0.1 0.3 1.5 0.5 0.3 1.7 0 0 1.7 0 0 0 0 0 0 0 0 0 0 0 1.5 0 0.11
1062.585 1.35 -0.04 -329.03 -0.25 0.25 1 0 0 21 2 1 0 0 0 22 2.65 8.87 -57.63 1221 0.5 0.1 0.3 0.5 0.1 0.3 1.5 0.5 0.3 1.7 0 0 1.7 0 0 0 0 0 0 0 0 0 0 0 1.5 0 0.11
1062.685 1.35 -0.04 -329.03 -0.25 0.31 0.94 0 0 21 2 1 0 0 0 22 2.75 8.63 -56.03 1221 0.5 0.1 0.3 0.5 0.1 0.3 1.5 0.5 0.3 1.7 0 0 1.7 0 0 0 0 0 0 0 0 0 0 0 1.5 0 0.11
1062.785 1.35 -0.04 -329.07 -0.25 0.25 1 0 0 22 2 1 0 0 0 22 2.68 8.74 -57.86 1221 0.5 0.1 0.3 0.5 0.1 0.3 1.5 0.5 0.3 1.7 0 0 1.7 0 0 0 0 0 0 0 0 0 0 0 1.5 0 0.11
1062.885 1.35 -0.05 -329.05 -0.31 0.31 0.94 0 0 22 2 1 0 0 0 22 2.75 8.83 -57.52 1221 0.5 0.1 0.3 0.5 0.1 0.3 1.5 0.5 0.3 1.7 0 0 1.7 0 0 0 0 0 0 0 0 0 0 0 1.5 0 0.11
1062.985 1.35 -0.05 -329.08 -0.25 0.31 1 0 0 21 2 1 0 0 0 22 2.73 8.73 -55.99 1221 0.5 0.1 0.3 0.5 0.1 0.3 1.5 0.5 0.3 1.7 0 0 1.7 0 0 0 0 0 0 0 0 0 0 0 1.5 0 0.11
1063.085 1.35 -0.04 -329.05 -0.19 0.37 1 0 0 22 2 1 0 0 0 22 2.58 8.55 -57.59 1221 0.5 0.1 0.3 0.5 0.1 0.3 1.5 0.5 0.3 1.7 0 0 1.7 0 0 0 0 0 0 0 0 0 0 0 1.5 0 0.11
1063.185 1.35 -0.04 -329.07 -0.19 0.31 1 0 0 21 2 1 0 0 0 22 2.63 8.64 -57.53 1221 0.5 0.1 0.3 0.5 0.1 0.3 1.5 0.5 0.3 1.7 0 0 1.7 0 0 0 0 0 0 0 0 0 0 0 1.5 0 0.11
1063.285 1.35 -0.04 -329.08 -0.25 0.37 1.06 0 0 22 2 1 0 0 0 22 2.67 8.73 -56.09 1221 0.5 0.1 0.3 0.5 0.1 0.3 1.5 0.5 0.3 1.7 0 0 1.7 0 0 0 0 0 0 0 0 0 0 0 1.5 0 0.11
1063.385 1.35 -0.04 -329.11 -0.13 0.31 1 0 0 21 2 1 0 0 0 22 2.63 8.67 -57.46 1221 0.5 0.1 0.3 0.5 0.1 0.3 1.5 0.5 0.3 1.7 0 0 1.7 0 0 0 0 0 0 0 0 0 0 0 1.5 0 0.11
1063.485 1.35 -0.05 -329.08 -0.19 0.25 1 0 0 21 2 1 0 0 0 22 2.52 8.75 -57.56 1221 0.5 0.1 0.3 0.5 0.1 0.3 1.5 0.5 0.3 1.7 0 0 1.7 0 0 0 0 0 0 0 0 0 0 0 1.5 0 0.11
1063.585 1.35 -0.05 -329.11 -0.19 0.25 1 0 0 21 2 1 0 0 0 22 2.66 8.88 -56.03 1221 0.5 0.1 0.3 0.5 0.1 0.3 1.5 0.5 0.3 1.7 0 0 1.7 0 0 0 0 0 0 0 0 0 0 0 1.5 0 0.11
1063.685 1.35 -0.05 -329.12 -0.25 0.31 1.06 0 0 21 2 1 0 0 0 22 2.75 8.67 -56.1 1221 0.5 0.1 0.3 0.5 0.1 0.3 1.5 0.5 0.3 1.7 0 0 1.7 0 0 0 0 0 0 0 0 0 0 0 1.5 0 0.11
1063.785 1.35 -0.05 -329.18 -0.25 0.31 1 0 0 21 2 1 0 0 0 22 2.67 8.81 -57.86 1221 0.5 0.1 0.3 0.5 0.1 0.3 1.5 0.5 0.3 1.7 0 0 1.7 0 0 0 0 0 0 0 0 0 0 0 1.5 0 0.11
1063.885 1.35 -0.05 -329.14 -0.19 0.31 1.06 0 0 22 2 1 0 0 0 22 2.75 8.75 -56.08 1221 0.5 0.1 0.3 0.5 0.1 0.3 1.5 0.5 0.3 1.7 0 0 1.7 0 0 0 0 0 0 0 0 0 0 0 1.5 0 0.11
1063.985 1.35 -0.05 -329.09 -0.19 0.44 1 0 0 22 2 1 0 0 0 22 2.65 8.57 -57.5 1221 0.5 0.1 0.3 0.5 0.1 0.3 1.5 0.5 0.3 1.7 0 0 1.7 0 0 0 0 0 0 0 0 0 0 0 1.5 0 0.11
1064.085 1.35 -0.05 -329.03 -0.19 0.31 1 0 0 21 2 1 0 0 0 22 2.6 8.67 -56 1221 0.5 0.1 0.3 0.5 0.1 0.3 1.5 0.5 0.3 1.7 0 0 1.7 0 0 0 0 0 0 0 0 0 0 0 1.5 0 0.11
1064.185 1.35 -0.05 -328.96 -0.25 0.37 0.94 0 0 22 2 1 0 0 0 22 2.67 8.66 -55.9 1221 0.5 0.1 0.3 0.5 0.1 0.3 1.5 0.5 0.3 1.7 0 0 1.7 0 0 0 0 0 0 0 0 0 0 0 1.5 0 0.11
1064.285 1.35 -0.05 -329.03 -0.25 0.31 1 0 0 21 2 1 0 0 0 22 2.72 8.69 -55.71 1221 0.5 0.1 0.3 0.5 0.1 0.3 1.5 0.5 0.3 1.7 0 0 1.7 0 0 0 0 0 0 0 0 0 0 0 1.5 0 0.11
1064.385 1.35 -0.05 -329.02 -0.19 0.31 1 0 0 22 2 1 0 0 0 22 2.51 8.8 -56.06 1221 0.5 0.1 0.3 0.5 0.1 0.3 1.5 0.5 0.3 1.7 0 0 1.7 0 0 0 0 0 0 0 0 0 0 0 1.5 0 0.11
1064.485 1.35 -0.05 -328.98 -0.25 0.31 1.06 0 0 21 2 1 0 0 0 22 2.7 8.79 -57.87 1221 0.5 0.1 0.3 0.5 0.1 0.3 1.5 0.5 0.3 1.7 0 0 1.7 0 0 0 0 0 0 0 0 0 0 0 1.5 0 0.11
1064.585 1.35 -0.05 -328.91 -0.13 0.31 1.06 0 0 22 2 1 0 0 0 22 2.52 8.81 -57.56 1221 0.5 0.1 0.3 0.5 0.1 0.3 1.5 0.5 0.3 1.7 0 0 1.7 0 0 0 0 0 0 0 0 0 0 0 1.5 0 0.11
1064.685 1.35 -0.05 -328.82 -0.25 0.37 0.94 0 0 21 2 1 0 0 0 22 2.75 8.73 -55.89 1221 0.5 0.1 0.3 0.5 0.1 0.3 1.5 0.5 0.3 1.7 0 0 1.7 0 0 0 0 0 0 0 0 0 0 0 1.5 0 0.11
1064.785 1.35 -0.05 -328.81 -0.31 0.31 1.12 0 0 21 2 1 0 0 0 22 2.82 8.68 -56.11 1221 0.5 0.1 0.3 0.5 0.1 0.3 1.5 0.5 0.3 1.7 0 0 1.7 0 0 0 0 0 0 0 0 0 0 0 1.5 0 0.11
1064.885 1.35 -0.05 -328.82 -0.25 0.31 1 0 0 22 2 1 0 0 0 22 2.67 8.73 -57.46 1221 0.5 0.1 0.3 0.5 0.1 0.3 1.5 0.5 0.3 1.7 0 0 1.7 0 0 0 0 0 0 0 0 0 0 0 1.5 0 0.11
1064.985 1.35 -0.05 -328.77 -0.19 0.25 0.94 0 0 21 2 1 0 0 0 22 2.68 8.75 -57.53 1221 0.5 0.1 0.3 0.5 0.1 0.3 1.5 0.5 0.3 1.7 0 0 1.7 0 0 0 0 0 0 0 0 0 0 0 1.5 0 0.11
1065.085 1.35 -0.05 -328.8 -0.31 0.25 1 0 0 22 2 1 0 0 0 22 2.78 8.69 -56.03 1221 0.5 0.1 0.3 0.5 0.1 0.3 1.5 0.5 0.3 1.7 0 0 1.7 0 0 0 0 0 0 0 0 0 0 0 1.5 0 0.11
1065.185 1.35 -0.04 -328.8 -0.25 0.37 1 0 0 21 2 1 0 0 0 22 2.68 8.64 -55.97 1221 0.5 0.1 0.3 0.5 0.1 0.3 1.5 0.5 0.3 1.7 0 0 1.7 0 0 0 0 0 0 0 0 0 0 0 1.5 0 0.11
1065.285 1.35 -0.04 -328.85 -0.25 0.37 1 0 0 21 2 1 0 0 0 22 2.73 8.58 -57.76 1221 0.5 0.1 0.3 0.5 0.1 0.3 1.5 0.5 0.3 1.7 0 0 1.7 0 0 0 0 0 0 0 0 0 0 0 1.5 0 0.11
1065.385 1.35 -0.04 -328.82 -0.19 0.37 1.06 0 0 21 2 1 0 0 0 22 2.67 8.52 -56.04 1221 0.5 0.1 0.3 0.5 0.1 0.3 1.5 0.5 0.3 1.7 0 0 1.7 0 0 0 0 0 0 0 0 0 0 0 1.5 0 0.11
1065.485 1.35 -0.04 -328.74 -0.25 0.31 0.94 0 0 22 2 1 0 0 0 22 2.73 8.87 -57.69 1221 0.5 0.1 0.3 0.5 0.1 0.3 1.5 0.5 0.3 1.7 0 0 1.7 0 0 0 0 0 0 0 0 0 0 0 1.5 0 0.11
1065.585 1.35 -0.04 -328.72 -0.31 0.31 1.06 0 0 22 2 1 0 0 0 22 2.71 8.72 -57.47 1221 0.5 0.1 0.3 0.5 0.1 0.3 1.5 0.5 0.3 1.7 0 0 1.7 0 0 0 0 0 0 0 0 0 0 0 1.5 0 0.11
1065.685 1.35 -0.04 -328.71 -0.19 0.37 1 0 0 22 2 1 0 0 0 22 2.6 8.65 -57.53 1221 0.5 0.1 0.3 0.5 0.1 0.3 1.5 0.5 0.3 1.7 0 0 1.7 0 0 0 0 0 0 0 0 0 0 0 1.5 0 0.11
1065.785 1.35 -0.04 -328.75 -0.13 0.25 1.06 0 0 21 2 1 0 0 0 22 2.6 8.75 -56.11 1223 0.5 0.1 0.3 0.5 0.1 0.3 1.5 0.5 0.3 1.7 0 0 1.7 0 0 0 0 0 0 0 0 0 0 0 1.5 0 0.11
1065.885 1.35 -0.04 -328.73 -0.19 0.37 1 0 0 22 2 1 0 0 0 22 2.65 8.64 -56.03 1221 0.5 0.1 0.3 0.5 0.1 0.3 1.5 0.5 0.3 1.7 0 0 1.7 0 0 0 0 0 0 0 0 0 0 0 1.5 0 0.11
1065.985 1.35 -0.04 -328.77 -0.25 0.31 1.12 0 0 21 2 1 0 0 0 22 2.65 8.67 -57.61 1221 0.5 0.1 0.3 0.5 0.1 0.3 1.5 0.5 0.3 1.7 0 0 1.7 0 0 0 0 0 0 0 0 0 0 0 1.5 0 0.11
1066.085 1.35 -0.04 -328.75 -0.19 0.25 0.94 0 0 22 2 1 0 0 0 22 2.52 8.81 -57.49 1221 0.5 0.1 0.3 0.5 0.1 0.3 1.5 0.5 0.3 1.7 0 0 1.7 0 0 0 0 0 0 0 0 0 0 0 1.5 0 0.11
1066.185 1.35 -0.04 -328.81 -0.19 0.44 1.06 0 0 21 2 1 0 0 0 22 2.59 8.57 -56.03 1221 0.5 0 3.3 0.5 0.03 3.3 1.5 0.5 0.3 1.7 0 0 1.7 0 0 0 0 0 0 0 0 0 0 0 1.5 0 0.11
1066.285 1.35 -0.04 -328.8 -0.19 0.31 1.06 0 0 21 2 1 0 0 0 22 2.6 8.7 -57.62 1221 0.5 0 3.3 0.5 0.03 3.3 1.5 0.5 0.3 1.7 0 0 1.7 0 0 0 0 0 0 0 0 0 0 0 1.5 0 0.11
1066.385 1.35 -0.04 -328.83 -0.25 0.31 1 0 0 21 2 1 0 0 0 22 2.61 8.74 -57.53 1221 0.5 0 3.3 0.5 0.03 3.3 1.5 0.5 0.3 1.7 0 0 1.7 0 0 0 0 0 0 0 0 0 0 0 1.5 0 0.11
1066.485 1.35 -0.04 -328.84 -0.25 0.25 1 0 0 21 2 1 0 0 0 22 2.73 8.75 -55.7 1221 0.5 0 3.3 0.5 0.03 3.3 1.5 0.5 0.3 1.7 0 0 1.7 0 0 0 0 0 0 0 0 0 0 0 1.5 0 0.11
1066.585 1.35 -0.04 -328.81 -0.25 0.37 0.94 0 0 21 2 1 0 0 0 22 2.67 8.72 -57.56 1221 0.5 0 3.3 0.5 0.03 3.3 1.5 0.5 0.3 1.7 0 0 1.7 0 0 0 0 0 0 0 0 0 0 0 1.5 0 0.11
1066.685 1.35 -0.04 -328.73 -0.31 0.25 0.94 0 0 21 2 1 0 0 0 22 2.71 8.82 -57.39 1221 0.5 0 3.3 0.5 0.03 3.3 1.5 0.5 0.3 1.7 0 0 1.7 0 0 0 0 0 0 0 0 0 0 0 1.5 0 0.11
1066.785 1.35 -0.04 -328.7 -0.19 0.31 1.12 0 0 19 2 1 0 0 0 22 2.73 8.79 -56.19 1221 0.5 0 3.3 0.5 0.03 3.3 1.5 0.5 0.3 1.7 0 0 1.7 0 0 0 0 0 0 0 0 0 0 0 1.5 0 0.11
1066.885 1.35 -0.04 -328.64 -0.19 0.25 1.06 0 0 21 2 1 0 0 0 22 2.57 8.82 -56.03 1221 0.5 0 3.3 0.5 0.03 3.3 1.5 0.5 0.3 1.7 0 0 1.7 0 0 0 0 0 0 0 0 0 0 0 1.5 0 0.11
1066.985 1.35 -0.04 -328.71 -0.19 0.25 1 0 0 21 2 1 0 0 0 22 2.53 8.76 -57.86 1221 0.5 0 3.3 0.5 0.03 3.3 1.5 0.5 0.3 1.7 0 0 1.7 0 0 0 0 0 0 0 0 0 0 0 1.5 0 0.11
1067.085 1.35 -0.04 -328.69 -0.06 0.31 1 0 0 21 2 1 0 0 0 22 2.51 8.8 -56.03 1221 0.5 0 3.3 0.5 0.03 3.3 1.5 0.5 0.3 1.7 0 0 1.7 0 0 0 0 0 0 0 0 0 0 0 1.5 0 0.11
1067.185 1.35 -0.04 -328.66 -0.19 0.25 1 0 0 21 2 1 0 0 0 22 2.68 8.81 -56.09 1221 0.5 0 3.3 0.5 0.03 3.3 1.5 0.5 0.3 1.7 0 0 1.7 0 0 0 0 0 0 0 0 0 0 0 1.5 0 0.11
1067.285 1.35 -0.04 -328.66 -0.19 0.31 1 0 0 21 2 1 0 0 0 22 2.66 8.79 -57.5 1221 0.5 0 3.3 0.5 0.03 3.3 1.5 0.5 0.3 1.7 0 0 1.7 0 0 0 0 0 0 0 0 0 0 0 1.5 0 0.11
1067.385 1.35 -0.04 -328.6 -0.19 0.37 1 0 0 22 2 1 0 0 0 22 2.58 8.64 -57.47 1221 0.5 0 3.3 0.5 0.03 3.3 1.5 0.5 0.3 1.7 0 0 1.7 0 0 0 0 0 0 0 0 0 0 0 1.5 0 0.11
1067.487 1.35 -0.04 -328.57 -0.25 0.31 1 0 0 22 2 1 0 0 0 22 2.72 8.65 -55.73 1221 0.5 0 3.3 0.5 0.03 3.3 1.5 0.5 0.3 1.7 0 0 1.7 0 0 0 0 0 0 0 0 0 0 0 1.5 0 0.11
1067.585 1.35 -0.05 -328.49 -0.19 0.31 1.06 0 0 21 2 1 0 0 0 22 2.59 8.73 -57.51 1221 0.5 0 3.3 0.5 0.03 3.3 1.5 0.5 0.3 1.7 0 0 1.7 0 0 0 0 0 0 0 0 0 0 0 1.5 0 0.11
1067.685 1.34 -0.05 -328.49 -0.13 0.31 1.12 0 0 21 2 1 0 0 0 22 2.45 8.72 -57.64 1221 0.5 0 3.3 0.5 0.03 3.3 1.5 0.5 0.3 1.7 0 0 1.7 0 0 0 0 0 0 0 0 0 0 0 1.5 0 0.11
1067.785 1.34 -0.05 -328.46 -0.25 0.25 1 0 0 20 2 1 0 0 0 22 2.74 8.89 -56.05 1221 0.5 0 3.3 0.5 0.03 3.3 1.5 0.5 0.3 1.7 0 0 1.7 0 0 0 0 0 0 0 0 0 0 0 1.5 0 0.11
1067.885 1.34 -0.05 -328.47 -0.13 0.31 1 0 0 19 2 1 0 0 0 22 2.53 8.74 -57.5 1221 0.5 0 3.3 0.5 0.03 3.3 1.5 0.5 0.3 1.7 0 0 1.7 0 0 0 0 0 0 0 0 0 0 0 1.5 0 0.11
1067.985 1.34 -0.05 -328.5 -0.19 0.31 0.94 0 0 21 2 1 0 0 0 22 2.52 8.74 -57.49 1221 0.5 0 3.3 0.5 0.03 3.3 1.5 0.5 0.3 1.7 0 0 1.7 0 0 0 0 0 0 0 0 0 0 0 1.5 0 0.11
1068.085 1.34 -0.05 -328.57 -0.31 0.25 1 0 0 21 2 1 0 0 0 22 2.76 8.89 -56.06 1221 0.5 0 3.3 0.5 0.03 3.3 1.5 0.5 0.3 1.7 0 0 1.7 0 0 0 0 0 0 0 0 0 0 0 1.5 0 0.11
1068.185 1.34 -0.05 -328.55 -0.13 0.25 1.06 0 0 22 2 1 0 0 0 22 2.53 8.88 -57.87 1221 0.5 0 3.3 0.5 0.03 3.3 1.5 0.5 0.3 1.7 0 0 1.7 0 0 0 0 0 0 0 0 0 0 0 1.5 0 0.11
1068.285 1.35 -0.04 -328.58 -0.25 0.25 0.94 0 0 20 2 1 0 0 0 22 2.71 8.87 -57.49 1221 0.5 0 3.3 0.5 0.03 3.3 1.5 0.5 0.3 1.7 0 0 1.7 0 0 0 0 0 0 0 0 0 0 0 1.5 0 0.11
1068.385 1.35 -0.04 -328.56 -0.19 0.25 1.06 0 0 22 2 1 0 0 0 22 2.63 8.82 -57.56 1221 0.5 0 3.3 0.5 0.03 3.3 1.5 0.5 0.3 1.7 0 0 1.7 0 0 0 0 0 0 0 0 0 0 0 1.5 0 0.11
1068.485 1.35 -0.05 -328.61 -0.19 0.25 1 0 0 22 2 1 0 0 0 22 2.72 8.71 -56.03 1221 0.5 0 3.3 0.5 0.03 3.3 1.5 0.5 0.3 1.7 0 0 1.7 0 0 0 0 0 0 0 0 0 0 0 1.5 0 0.11
1068.585 1.35 -0.05 -328.64 -0.19 0.31 1 0 0 21 2 1 0 0 0 22 2.53 8.75 -57.53 1221 0.5 0 3.3 0.5 0.03 3.3 1.5 0.5 0.3 1.7 0 0 1.7 0 0 0 0 0 0 0 0 0 0 0 1.5 0 0.11
1068.685 1.35 -0.04 -328.67 -0.25 0.31 1.06 0 0 22 2 1 0 0 0 22 2.69 8.74 -57.58 1221 0.5 0 3.3 0.5 0.03 3.3 1.5 0.5 0.3 1.7 0 0 1.7 0 0 0 0 0 0 0 0 0 0 0 1.5 0 0.11
1068.785 1.35 -0.04 -328.77 -0.13 0.31 1 0 0 21 2 1 0 0 0 22 2.52 8.67 -56.09 1221 0.5 0 3.3 0.5 0.03 3.3 1.5 0.5 0.3 1.7 0 0 1.7 0 0 0 0 0 0 0 0 0 0 0 1.5 0 0.11
1068.885 1.35 -0.05 -328.74 -0.31 0.37 1.12 0 0 20 2 1 0 0 0 22 2.86 8.65 -56.05 1221 0.5 0 3.3 0.5 0.03 3.3 1.5 0.5 0.3 1.7 0.02 0 1.7 0.02 0 0 0 0 0 0 0 0 0 0 1.5 0 0.11
1068.985 1.35 -0.05 -328.74 -0.19 0.31 1 0 0 20 2 1 0 0 0 22 2.63 8.81 -56.01 1221 0.5 0 3.3 0.5 0.03 3.3 1.5 0.5 0.3 1.7 0.02 0 1.7 0.02 0 0 0 0 0 0 0 0 0 0 1.5 0 0.11
1069.085 1.35 -0.05 -328.7 -0.25 0.25 1 0 0 22 2 1 0 0 0 22 2.66 8.81 -56.04 1221 0.5 0 3.3 0.5 0.03 3.3 1.5 0.5 0.3 1.7 0.02 0 1.7 0.02 0 0 0 0 0 0 0 0 0 0 1.5 0 0.11
1069.185 1.35 -0.05 -328.75 -0.19 0.31 1.06 0 0 20 2 1 0 0 0 22 2.58 8.82 -57.9 1221 0.5 0 3.3 0.5 0.03 3.3 1.5 0.5 0.3 1.7 0.02 0 1.7 0.02 0 0 0 0 0 0 0 0 0 0 1.5 0 0.11
1069.285 1.35 -0.05 -328.71 -0.25 0.25 1.19 0 0 21 2 1 0 0 0 22 2.68 8.88 -57.6 1221 0.5 0 3.3 0.5 0.03 3.3 1.5 0.5 0.3 1.7 0.02 0 1.7 0.02 0 0 0 0 0 0 0 0 0 0 1.5 0 0.11
1069.385 1.35 -0.05 -328.72 -0.19 0.31 1.06 0 0 22 2 1 0 0 0 22 2.67 8.68 -56.07 1221 0.5 0 3.3 0.5 0.03 3.3 1.5 0.5 0.3 1.7 0.02 0 1.7 0.02 0 0 0 0 0 0 0 0 0 0 1.5 0 0.11
1069.485 1.35 -0.04 -328.73 -0.25 0.25 1.06 0 0 22 2 1 0 0 0 22 2.67 8.73 -56.08 1221 0.5 0 3.3 0.5 0.03 3.3 1.5 0.5 0.3 1.7 0.02 0 1.7 0.02 0 0 0 0 0 0 0 0 0 0 1.5 0 0.11
1069.585 1.35 -0.04 -328.69 -0.25 0.37 1 0 0 22 2 1 0 0 0 22 2.67 8.65 -57.46 1221 0.5 0 3.3 0.5 0.03 3.3 1.5 0.5 0.3 1.7 0.02 0 1.7 0.02 0 0 0 0 0 0 0 0 0 0 1.5 0 0.11
1069.685 1.35 -0.04 -328.63 -0.13 0.25 1.06 0 0 22 2 1 0 0 0 22 2.59 8.88 -55.8 1221 0.5 0 3.3 0.5 0.03 3.3 1.5 0.5 0.3 1.7 0.02 0 1.7 0.02 0 0 0 0 0 0 0 0 0 0 1.5 0 0.11
1069.785 1.34 -0.04 -328.64 -0.25 0.25 1 0 0 22 2 1 0 0 0 22 2.82 8.74 -56.03 1221 0.5 0 3.3 0.5 0.03 3.3 1.5 0.5 0.3 1.7 0.02 0 1.7 0.02 0 0 0 0 0 0 0 0 0 0 1.5 0 0.11
1069.885 1.34 -0.05 -328.64 -0.19 0.31 1.06 0 0 22 2 1 0 0 0 22 2.7 8.66 -57.57 1221 0.5 0 3.3 0.5 0.03 3.3 1.5 0.5 0.3 1.7 0.02 0 1.7 0.02 0 0 0 0 0 0 0 0 0 0 1.5 0 0.11
1069.985 1.34 -0.04 -328.71 -0.19 0.25 1.06 0 0 22 2 1 0 0 0 22 2.7 8.81 -56.07 1221 0.5 0 3.3 0.5 0.03 3.3 1.5 0.5 0.3 1.7 0.02 0 1.7 0.02 0 0 0 0 0 0 0 0 0 0 1.5 0 0.11
1070.085 1.34 -0.05 -328.69 -0.19 0.31 1.06 0 0 22 2 1 0 0 0 22 2.66 8.74 -57.59 1221 0.5 0 3.3 0.5 0.03 3.3 1.5 0.5 0.3 1.7 0.02 0 1.7 0.02 0 0 0 0 0 0 0 0 0 0 1.5 0 0.11
1070.185 1.34 -0.05 -328.74 -0.13 0.25 1.06 0 0 21 2 1 0 0 0 22 2.66 8.69 -57.77 1221 0.5 0 3.3 0.5 0.03 3.3 1.5 0.5 0.3 1.7 0.02 0 1.7 0.02 0 0 0 0 0 0 0 0 0 0 1.5 0 0.11
1070.285 1.34 -0.05 -328.74 -0.13 0.31 0.94 0 0 21 2 1 0 0 0 22 2.52 8.74 -57.53 1221 0.5 0 3.3 0.5 0.03 3.3 1.5 0.5 0.3 1.7 0.02 0 1.7 0.02 0 0 0 0 0 0 0 0 0 0 1.5 0 0.11
1070.385 1.34 -0.05 -328.67 -0.25 0.31 0.94 0 0 23 2 1 0 0 0 22 2.8 8.74 -55.7 1221 0.5 0 3.3 0.5 0.03 3.3 1.5 0.5 0.3 1.7 0.02 0 1.7 0.02 0 0 0 0 0 0 0 0 0 0 1.5 0 0.11
1070.486 1.34 -0.05 -328.68 -0.13 0.31 1.06 0 0 22 2 1 0 0 0 22 2.52 8.82 -56.04 1221 0.5 0 3.3 0.5 0.03 3.3 1.5 0.5 0.3 1.7 0.02 0 1.7 0.02 0 0 0 0 0 0 0 0 0 0 1.5 0 0.11
1070.585 1.35 -0.05 -328.64 -0.37 0.31 1.06 0 0 22 2 1 0 0 0 22 2.78 8.87 -56.1 1221 0.5 0 3.3 0.5 0.03 3.3 1.5 0.5 0.3 1.7 0.02 0 1.7 0.02 0 0 0 0 0 0 0 0 0 0 1.5 0 0.11
1070.685 1.34 -0.05 -328.67 -0.25 0.31 1 0 0 20 2 1 0 0 0 22 2.68 8.73 -56.03 1221 0.5 0 3.3 0.5 0.03 3.3 1.5 0.5 0.3 1.7 0.02 0 1.7 0.02 0 0 0 0 0 0 0 0 0 0 1.5 0 0.11
1070.786 1.34 -0.04 -328.64 -0.25 0.31 1.06 0 0 21 2 1 0 0 0 22 2.64 8.73 -57.6 1221 0.5 0 3.3 0.5 0.03 3.3 1.5 0.5 0.3 1.7 0.02 0 1.7 0.02 0 0 0 0 0 0 0 0 0 0 1.5 0 0.11
1070.885 1.35 -0.04 -328.63 -0.31 0.37 1.06 0 0 22 2 1 0 0 0 22 2.76 8.57 -57.61 1221 0.5 0 3.3 0.5 0.03 3.3 1.5 0.5 0.3 1.7 0.02 0 1.7 0.02 0 0 0 0 0 0 0 0 0 0 1.5 0 0.11
1070.985 1.35 -0.04 -328.63 -0.31 0.25 1 0 0 22 2 1 0 0 0 22 2.76 8.82 -56.06 1221 0.5 0 3.3 0.5 0.03 3.3 1.5 0.5 0.3 1.7 0.02 0 1.7 0.02 0 0 0 0 0 0 0 0 0 0 1.5 0 0.11
1071.085 1.35 -0.04 -328.62 -0.25 0.25 1 0 0 22 2 1 0 0 0 22 2.88 8.89 -57.58 1221 0.5 0 3.3 0.5 0.03 3.3 1.5 0.5 0.3 1.7 0.02 0 1.7 0.02 0 0 0 0 0 0 0 0 0 0 1.5 0 0.11
1071.185 1.35 -0.04 -328.58 -0.13 0.19 1.06 0 0 22 2 1 0 0 0 22 2.58 8.83 -57.88 1221 0.5 0 3.3 0.5 0.03 3.3 1.5 0.5 0.3 1.7 0.02 0 1.7 0.02 0 0 0 0 0 0 0 0 0 0 1.5 0 0.11
1071.285 1.35 -0.04 -328.62 -0.25 0.31 0.94 0 0 22 2 1 0 0 0 22 2.73 8.75 -55.9 1221 0.5 0 3.3 0.5 0.03 3.3 1.5 0.5 0.3 1.7 0.02 0 1.7 0.02 0 0 0 0 0 0 0 0 0 0 1.5 0 0.11
1071.385 1.35 -0.04 -328.64 -0.31 0.31 1 0 0 23 2 1 0 0 0 22 2.82 8.73 -55.99 1221 0.5 0 3.3 0.5 0.03 3.3 1.5 0.5 0.3 1.7 0.02 0 1.7 0.02 0 0 0 0 0 0 0 0 0 0 1.5 0 0.11
1071.486 1.35 -0.04 -328.67 -0.19 0.37 1 0 0 22 2 1 0 0 0 22 2.62 8.72 -55.96 1221 0.5 0 3.3 0.5 0.03 3.3 1.5 0.5 0.3 1.7 0.02 0 1.7 0.02 0 0 0 0 0 0 0 0 0 0 1.5 0 0.11
1071.585 1.35 -0.04 -328.69 -0.13 0.25 1 0 0 23 2 1 0 0 0 22 2.58 8.72 -57.51 1221 0.5 0 3.3 0.5 0.03 3.3 1.5 0.5 0.3 1.7 0.02 0 1.7 0.02 0 0 0 0 0 0 0 0 0 0 1.5 0 0.11
1071.685 1.35 -0.04 -328.74 -0.25 0.31 0.94 0 0 23 2 1 0 0 0 22 2.72 8.68 -57.53 1221 0.5 0 3.3 0.5 0.03 3.3 1.5 0.5 0.3 1.7 0.02 0 1.7 0.02 0 0 0 0 0 0 0 0 0 0 1.5 0 0.11
1071.785 1.35 -0.04 -328.77 -0.25 0.25 1 0 0 22 2 1 0 0 0 22 2.73 8.81 -55.97 1221 0.5 0 3.3 0.5 0.03 3.3 1.5 0.5 0.3 1.7 0.02 0 1.7 0.02 0 0 0 0 0 0 0 0 0 0 1.5 0 0.11
1071.885 1.35 -0.04 -328.77 -0.19 0.25 0.94 0 0 21 2 1 0 0 0 22 2.62 8.78 -57.78 1221 0.5 0 3.3 0.5 0.03 3.3 1.5 0.5 0.3 1.7 0.02 0 1.7 0.02 0 0 0 0 0 0 0 0 0 0 1.5 0 0.11
1071.986 1.35 -0.04 -328.81 -0.19 0.31 1 0 0 22 2 1 0 0 0 22 2.65 8.87 -57.5 1221 0.5 0 3.3 0.5 0.03 3.3 1.5 0.5 0.3 1.7 0.02 0 1.7 0.02 0 0 0 0 0 0 0 0 0 0 1.5 0 0.11
1072.086 1.35 -0.04 -328.79 -0.19 0.25 1.06 0 0 22 2 1 0 0 0 22 2.59 8.81 -56.07 1221 0.5 0 3.3 0.5 0.03 3.3 1.5 0.5 0.3 1.7 0.02 0 1.7 0.02 0 0 0 0 0 0 0 0 0 0 1.5 0 0.11
1072.185 1.35 -0.04 -328.75 -0.19 0.25 0.94 0 0 22 2 1 0 0 0 22 2.72 8.81 -57.46 1221 0.5 0 3.3 0.5 0.03 3.3 1.5 0.5 0.3 1.7 0.02 0 1.7 0.02 0 0 0 0 0 0 0 0 0 0 1.5 0 0.11
1072.286 1.35 -0.04 -328.7 -0.19 0.31 1 0 0 22 2 1 0 0 0 22 2.66 8.66 -55.99 1221 0.5 0 3.3 0.5 0.03 3.3 1.5 0.5 0.3 1.7 0.02 0 1.7 0.02 0 0 0 0 0 0 0 0 0 0 1.5 0 0.11
1072.386 1.35 -0.05 -328.75 -0.19 0.44 1 0 0 22 2 1 0 0 0 22 2.72 8.64 -56.06 1221 0.5 0 3.3 0.5 0.03 3.3 1.5 0.5 0.3 1.7 0.02 0 1.7 0.02 0 0 0 0 0 0 0 0 0 0 1.5 0 0.11
1072.486 1.35 -0.05 -328.77 -0.25 0.31 1.06 0 0 22 2 1 0 0 0 22 2.69 8.66 -56.04 1221 0.5 0 3.3 0.5 0.03 3.3 1.5 0.5 0.3 1.7 0.02 0 1.7 0.02 0 0 0 0 0 0 0 0 0 0 1.5 0 0.11
1072.586 1.35 -0.04 -328.74 -0.19 0.31 1.06 0 0 21 2 1 0 0 0 22 2.58 8.73 -57.51 1221 0.5 0 3.3 0.5 0.03 3.3 1.5 0.5 0.3 1.7 0.02 0 1.7 0.02 0 0 0 0 0 0 0 0 0 0 1.5 0 0.11
1072.685 1.35 -0.05 -328.7 -0.19 0.31 0.94 0 0 23 2 1 0 0 0 22 2.53 8.8 -57.46 1221 0.5 0 3.3 0.5 0.03 3.3 1.5 0.5 0.3 1.7 0.02 0 1.7 0.02 0 0 0 0 0 0 0 0 0 0 1.5 0 0.11
1072.786 1.35 -0.04 -328.7 -0.13 0.37 1 0 0 22 2 1 0 0 0 22 2.51 8.77 -56.03 1221 0.5 0 3.3 0.5 0.03 3.3 1.5 0.5 0.3 1.7 0.02 0 1.7 0.02 0 0 0 0 0 0 0 0 0 0 1.5 0 0.11
1072.885 1.35 -0.04 -328.69 -0.19 0.31 1 0 0 21 2 1 0 0 0 22 2.58 8.73 -57.79 1221 0.5 0 3.3 0.5 0.03 3.3 1.5 0.5 0.3 1.7 0.02 0 1.7 0.02 0 0 0 0 0 0 0 0 0 0 1.5 0 0.11
1072.986 1.35 -0.04 -328.66 -0.19 0.37 0.94 0 0 21 2 1 0 0 0 22 2.51 8.65 -55.94 1221 0.5 0 3.3 0.5 0.03 3.3 1.5 0.5 0.3 1.7 0.02 0 1.7 0.02 0 0 0 0 0 0 0 0 0 0 1.5 0 0.11
1073.086 1.35 -0.04 -328.61 -0.19 0.31 1 0 0 21 2 1 0 0 0 22 2.65 8.81 -57.46 1221 0.5 0 3.3 0.5 0.03 3.3 1.5 0.5 0.3 1.7 0.02 0 1.7 0.02 0 0 0 0 0 0 0 0 0 0 1.5 0 0.11
1073.186 1.35 -0.04 -328.63 -0.25 0.31 1.06 0 0 22 2 1 0 0 0 22 2.67 8.65 -57.5 1221 0.5 0 3.3 0.5 0.03 3.3 1.5 0.5 0.3 1.7 0.02 0 1.7 0.02 0 0 0 0 0 0 0 0 0 0 1.5 0 0.11
1073.286 1.35 -0.04 -328.6 -0.25 0.31 0.94 0 0 22 2 1 0 0 0 22 2.66 8.68 -55.93 1221 0.5 0 3.3 0.5 0.03 3.3 1.5 0.5 0.3 1.7 0.02 0 1.7 0.02 0 0 0 0 0 0 0 0 0 0 1.5 0 0.11
1073.386 1.35 -0.04 -328.58 -0.25 0.31 1.06 0 0 22 2 1 0 0 0 22 2.68 8.6 -56.01 1221 0.5 0 3.3 0.5 0.03 3.3 1.5 0.5 0.3 1.7 0.02 0 1.7 0.02 0 0 0 0 0 0 0 0 0 0 1.5 0 0.11
1073.486 1.35 -0.04 -328.68 -0.25 0.31 1.06 0 0 21 2 1 0 0 0 22 2.65 8.74 -56.1 1221 0.5 0 3.3 0.5 0.03 3.3 1.5 0.5 0.3 1.7 0.02 0 1.7 0.02 0 0 0 0 0 0 0 0 0 0 1.5 0 0.11
1073.586 1.35 -0.04 -328.7 -0.31 0.31 1 0 0 22 2 1 0 0 0 22 2.8 8.59 -55.93 1221 0.5 0 3.3 0.5 0.03 3.3 1.5 0.5 0.3 1.7 0.02 0 1.7 0.02 0 0 0 0 0 0 0 0 0 0 1.5 0 0.11
1073.686 1.35 -0.04 -328.91 0.06 0.81 1.12 0 0 22 2 1 0 0 0 22 2.18 7.68 -57.5 1221 0.5 0 3.3 0.5 0.03 3.3 1.5 0.5 0.3 1.7 0.02 0 1.7 0.02 0 0 0 0 0 0 0 0 0 0 1.5 0 0.11
1073.786 1.35 -0.04 -329.37 -0.13 -0.25 1.75 0 0 21 2 1 0 0 0 22 3.17 8.91 -56.91 1221 0.5 0 3.3 0.5 0.03 3.3 1.5 0.5 0.3 1.7 0.02 0 1.7 0.02 0 0 0 0 0 0 0 0 0 0 1.5 0 0.11
1073.886 1.34 -0.04 -330.4 -0.25 0.37 -0.25 0 0 22 2 1 0 0 0 22 1.39 7.9 -56.08 1221 0.5 0 3.3 0.5 0.03 3.3 1.5 0.5 0.3 1.7 0.02 0 1.7 0.02 0 0 0 0 0 0 0 0 0 0 1.5 0 0.11
1073.986 1.33 -0.04 -331.34 1.12 -1.94 0.5 0 0 22 2 1 0 0 0 22 -0.48 12.2 -56.17 1221 0.5 0 3.3 0.5 0.03 3.3 1.5 0.5 0.3 1.7 0.02 0 1.7 0.02 0 0 0 0 0 0 0 0 0 0 1.5 0 0.11
1074.086 1.35 -0.02 -332.34 2.19 -0.81 1.19 0 0 23 2 1 0 0 0 22 -3.37 11.9 -56.34 1221 0.5 0 3.3 0.5 0.03 3.3 1.5 0.5 0.3 1.7 0.02 0 1.7 0.02 0 0 0 0 0 0 0 0 0 0 1.5 0 0.11
1074.186 1.3 -0.04 -332.8 0.37 1.25 -0.75 0 0 22 2 1 0 0 0 22 1.38 7.23 -56.05 1221 0.5 0 3.3 0.5 0.03 3.3 1.5 0.5 0.3 1.7 0.02 0 1.7 0.02 0 0 0 0 0 0 0 0 0 0 1.5 0 0.11
1074.286 1.31 -0.04 -333.54 -3.75 -0.25 0 0 0 22 2 1 0 0 0 22 8.41 10.31 -54.39 1221 0.5 0 3.3 0.5 0.03 3.3 1.5 0.5 0.3 1.7 0.02 0 1.7 0.02 0 0 0 0 0 0 0 0 0 0 1.5 0 0.11
1074.386 1.33 -0.04 -333.95 -3.56 -1.06 0.31 0 0 21 2 1 0 0 0 22 6.43 12.34 -57.98 1228 0.5 0 3.3 0.5 0.03 3.3 1.5 0.5 0.3 1.7 0.02 0 1.7 0.02 0 0 0 0 0 0 0 0 0 0 1.5 0 0.11
1074.486 1.3 -0.05 -335.27 -1.25 -0.25 1.19 0 0 21 2 1 0 0 0 22 8.09 13.55 -58.99 1227 0.5 0 3.3 0.5 0.03 3.3 1.5 0.5 0.3 1.7 0.02 0 1.7 0.02 0 0 0 0 0 0 0 0 0 0 1.5 0 0.11
1074.586 1.3 -0.04 -335.76 3 0.44 0.44 0 0 21 2 1 0 0 0 22 -0.15 9.49 -55.42 1227 0.5 0 3.3 0.5 0.03 3.3 1.5 0.5 0.3 1.7 0.02 0 1.7 0.02 0 0 0 0 0 0 0 0 0 0 1.5 0 0.11
1074.686 1.29 -0.03 -337.17 0.94 4 0.31 0 0 23 2 1 0 0 0 22 -3.92 2.16 -54.36 1228 0.5 0 3.3 0.5 0.03 3.3 1.5 0.5 0.3 1.7 0.02 0 1.7 0.02 0 0 0 0 0 0 0 0 0 0 1.5 0 0.11
1074.785 1.23 -0.05 -337.89 -4.62 -1.06 -3.31 0 0 23 2 1 0 0 0 24 13.97 13.98 -54.81 1241 0.5 0 3.3 0.5 0.03 3.3 1.5 0.5 0.3 1.7 0.02 0 1.7 0.02 0 0 0 0 0 0 0 0 0 0 1.5 0 0.11
1074.886 1.25 -0.02 -338.59 2.5 3.19 1.25 0 0 23 2 1 0 0 0 24 3.9 5.8 -55.53 1242 0.5 0 3.3 0.5 0.03 3.3 1.5 0.5 0.3 1.7 0.02 0 1.7 0.02 0 0 0 0 0 0 0 0 0 0 1.5 0 0.11
1074.986 1.25 -0.04 -339.66 4.12 0.88 1.12 0 0 21 2 1 0 0 0 25 0.68 12.58 -57.56 1257 0.5 0 3.3 0.5 0.03 3.3 1.5 0.5 0.3 1.7 0.02 0 1.7 0.02 0 0 0 0 0 0 0 0 0 0 1.5 0 0.11
1075.086 1.27 -0.07 -340.38 3.44 1 1.62 0 0 21 2 1 0 0 0 29 0.94 10.46 -59.07 1293 0.5 0 3.3 0.5 0.03 3.3 1.5 0.5 0.3 1.7 0.02 0 1.7 0.02 0 0 0 0 0 0 0 0 0 0 1.5 0 0.11
1075.186 1.23 -0.09 -340.7 0.94 -2.62 0 0 0 21 2 1 0 0 0 31 6.29 16.45 -56.55 1312 0.5 0 3.3 0.5 0.03 3.3 1.5 0.5 0.3 1.7 0.02 0 1.7 0.02 0 0 0 0 0 0 0 0 0 0 1.5 0 0.11
1075.286 1.18 -0.11 -340.59 -7.19 -4 0.19 0 0 23 2 1 0 0 0 32 5.14 11.56 -58.09 1320 0.5 0 3.3 0.5 0.03 3.3 1.5 0.5 0.3 1.7 0.02 0 1.7 0.02 0 0 0 0 0 0 0 0 0 0 1.5 0 0.11
1075.386 1.2 -0.12 -340.49 -7.37 0.06 1.25 0 0 22 2 1 0 0 0 33 7.98 7.82 -58.14 1337 0.5 0 3.3 0.5 0.03 3.3 1.5 0.5 0.3 1.7 0.02 0 1.7 0.02 0 0 0 0 0 0 0 0 0 0 1.5 0 0.11
1075.486 1.18 -0.09 -340.41 -1.06 3.62 -3.81 0 0 23 2 1 0 0 0 35 6.45 8.77 -54.99 1351 0.5 0 3.3 0.5 0.03 3.3 1.5 0.5 0.3 1.7 0.02 0 1.7 0.02 0 0 0 0 0 0 0 0 0 0 1.5 0 0.11
1075.586 1.3 0.01 -340.42 -5.44 -1.81 2.44 0 0 22 2 1 0 0 0 35 6.44 11.32 -54.33 1352 0.5 0 3.3 0.5 0.03 3.3 1.5 0.5 0.3 1.7 0.02 0 1.7 0.02 0 0 0 0 0 0 0 0 0 0 1.5 0 0.11
1075.686 1.31 0.04 -340.55 -10.88 -6.5 5.12 0 0 23 2 1 0 0 0 36 8.5 7.49 -57.07 1365 0.5 0 3.3 0.5 0.03 3.3 1.5 0.5 0.3 1.7 0.02 0 1.7 0.02 0 0 0 0 0 0 0 0 0 0 1.5 0 0.11
1075.786 1.33 0.12 -340.7 -6.31 -1.56 5.62 0 0 20 2 1 0 0 0 36 0.89 5.01 -55.13 1365 0.5 0 3.3 0.5 0.03 3.3 1.5 0.5 0.3 1.7 0.02 0 1.7 0.02 0 0 0 0 0 0 0 0 0 0 1.5 0 0.11
1075.886 1.35 0.15 -341.09 -0.25 4.44 -10.63 0 0 21 2 2 0 0 0 36 -3.52 8.78 -48.23 1365 0.5 0 3.3 0.5 0.03 3.3 1.5 0.5 0.3 1.7 0.02 0 1.7 0.02 0 0 0 0 0 0 0 0 0 0 1.5 0 0.11
1075.986 1.33 0.16 -341.58 11.69 6.56 -5.69 0 0 22 2 1 0 0 0 36 0.26 9.31 -50.78 1369 0.5 0 3.3 0.5 0.03 3.3 1.5 0.5 0.3 1.7 0.02 0 1.7 0.02 0 0 0 0 0 0 0 0 0 0 1.5 0 0.11
1076.086 1.38 0.24 -342.1 -0.19 -1.19 -1.62 0 0 20 2 2 0 0 0 38 7.49 9.84 -46.58 1381 0.5 0 3.3 0.5 0.03 3.3 1.5 0.5 0.3 1.7 0.02 0 1.7 0.02 0 0 0 0 0 0 0 0 0 0 1.5 0 0.11
1076.186 1.34 0.53 -342.82 -3.62 8.69 -10 0 0 22 1 1 0 0 0 38 -7.18 -9.25 -41.03 1381 0.5 0 3.3 0.5 0.03 3.3 1.5 0.5 0.3 1.7 0.02 0 1.7 0.02 0 0 0 0 0 0 0 0 0 0 1.5 0 0.11
1076.286 1.38 1.1 -343.75 12.94 13.13 -13.56 0 0 20 1 2 0 0 0 38 2.52 8.56 -38.52 1383 0.5 0 3.3 0.5 0.03 3.3 1.5 0.5 0.3 1.7 0.02 0 1.7 0.02 0 0 0 0 0 0 0 0 0 0 1.5 0 0.11
1076.386 1.4 1.91 -344.94 -10.25 7.75 -6.56 0 0 20 2 2 0 0 0 39 1.9 1.08 -35.33 1393 0.5 0 3.3 0.5 0.03 3.3 1.5 0.5 0.3 1.7 0.02 0 1.7 0.02 0 0 0 0 0 0 0 0 0 0 1.5 0 0.11
1076.486 1.25 3.49 -346.29 4.31 19 -12.63 0 0 22 2 2 0 0 0 39 16.83 10.02 -36.49 1392 0.5 0 3.3 0.5 0.03 3.3 1.5 0.5 0.3 1.7 0.02 0 1.7 0.02 0 0 0 0 0 0 0 0 0 0 1.5 0 0.11
1076.586 1.46 5.44 -347.78 17.19 36.5 -20 0 0 20 2 2 0 0 0 39 -9.75 -17.02 -26.62 1393 0.5 0 3.3 0.5 0.03 3.3 1.5 0.5 0.3 1.7 0.02 0 1.7 0.02 0 0 0 0 0 0 0 0 0 0 1.5 0 0.11
1076.686 1.68 7.27 -349.52 -12.69 11.5 -18.37 0 0 20 2 2 0 0 0 39 7.97 -3.59 -25.19 1393 0.5 0 3.3 0.5 0.03 3.3 1.5 0.5 0.3 1.7 0.02 0 1.7 0.02 0 0 0 0 0 0 0 0 0 0 1.5 0 0.11
1076.786 1.58 8.44 -351.46 -2.75 -0.37 -11.88 0 0 20 2 2 0 0 0 39 26.72 13.33 -22.76 1392 0.5 0 3.3 0.5 0.03 3.3 1.5 0.5 0.3 1.7 0.02 0 1.7 0.02 0 0 0 0 0 0 0 0 0 0 1.5 0 0.11
1076.886 1.61 9.49 -353.44 -9.19 -6.81 -20.44 0 0 21 2 1 0 0 0 39 5.51 4.14 -19.57 1391 0.5 0 3.3 0.5 0.03 3.3 1.5 0.5 0.3 1.7 0.02 0 1.7 0.02 0 0 0 0 0 0 0 0 0 0 1.5 0 0.11
1076.986 1.81 10.02 -355.33 15.88 10.69 -23.44 0 0 19 2 1 0 0 0 38 -14.74 -9.18 -21.49 1383 0.5 0 3.3 0.5 0.03 3.3 1.5 0.5 0.3 1.7 0.02 0 1.7 0.02 0 0 0 0 0 0 0 0 0 0 1.5 0 0.11
1077.086 2.02 10.02 -356.91 4 0.88 -19.62 0 0 19 1 1 0 0 0 37 -1.64 -0.04 -20.31 1379 0.5 0 3.3 0.5 0.03 3.3 1.5 0.5 0.3 1.7 0.02 0 1.7 0.02 0 0 0 0 0 0 0 0 0 0 1.5 0 0.11
1077.186 1.7 9.92 -358.55 -12.25 -2.5 -11.56 0 0 21 1 1 0 0 0 38 4.78 -0.57 -17.68 1380 0.5 0 3.3 0.5 0.03 3.3 1.5 0.5 0.3 1.7 0.02 0 1.7 0.02 0 0 0 0 0 0 0 0 0 0 1.5 0 0.11
1077.286 1.54 9.68 -359.75 11.5 -9.44 -8.81 0 0 21 1 1 0 0 0 37 -7.09 6.97 -19.31 1378 0.5 0 3.3 0.5 0.03 3.3 1.5 0.5 0.3 1.7 0.02 0 1.7 0.02 0 0 0 0 0 0 0 0 0 0 1.5 0 0.11
1077.386 2.04 9.11 -0.85 -8.38 -2.06 -8.44 0 0 21 2 1 0 0 0 30 8.49 0.7 -24.36 1308 0.5 0 3.3 0.5 0.03 3.3 1.5 0.5 0.3 1.7 0.02 0 1.7 0.02 0 0 0 0 0 0 0 0 0 0 1.5 0 0.11
1077.486 1.65 9.03 -1.92 0.19 -4.31 -13.44 0 0 19 2 1 0 0 0 26 6.32 4.1 -31.19 1267 0.5 0 3.3 0.5 0.03 3.3 1.5 0.5 0.3 1.7 0.02 0 1.7 0.02 0 0 0 0 0 0 0 0 0 0 1.5 0 0.11
1077.586 1.82 6.55 -3.19 1.25 -43.63 1.12 0 0 21 2 2 0 0 0 23 5.07 32.48 -39.13 1238 0.5 0 3.3 0.5 0.03 3.3 1.5 0.5 0.3 1.7 0.02 0 1.7 0.02 0 0 0 0 0 0 0 0 0 0 1.5 0 0.11
1077.686 1.45 1.09 -4.31 -15.63 -55.75 -1.37 0 0 21 2 2 0 0 0 22 37.16 48.63 -43.07 1221 0.5 0 3.3 0.5 0.03 3.3 1.5 0.5 0.3 1.7 0.02 0 1.7 0.02 0 0 0 0 0 0 0 0 0 0 1.5 0 0.11
1077.786 1.56 0.64 -4.61 3.69 18 1 0 0 28 2 2 0 0 0 22 3.45 -3.94 -48.26 1221 0.5 0 3.3 0.5 0.03 3.3 1.5 0.5 0.3 1.7 0.02 0 1.7 0.02 0 0 0 0 0 0 0 0 0 0 1.5 0 0.11
1077.886 1.37 0.67 -4.83 4.75 -0.56 2.37 0 0 20 2 1 0 0 0 22 -10.64 5.25 -49.79 1221 0.5 0 3.3 0.5 0.03 3.3 1.5 0.5 0.3 1.7 0.02 0 1.7 0.02 0 0 0 0 0 0 0 0 0 0 1.5 0 0.11
1077.986 1.4 0.63 -5.35 2.87 -0.56 4.62 0 0 22 2 1 0 0 0 22 -0.31 8.08 -47.27 1221 0.5 0 3.3 0.5 0.03 3.3 1.5 0.5 0.3 1.7 0.02 0 1.7 0.02 0 0 0 0 0 0 0 0 0 0 1.5 0 0.11
1078.086 1.41 0.56 -5.61 -6 -1.31 -0.88 0 0 22 2 2 0 0 0 22 14.22 13.78 -46.04 1221 0.5 0 3.3 0.5 0.03 3.3 1.5 0.5 0.3 1.7 0.02 0 1.7 0.02 0 0 0 0 0 0 0 0 0 0 1.5 0 0.11
1078.186 1.4 0.53 -6.06 2.25 0.81 1.31 0 0 23 2 2 0 0 0 22 0.29 7.95 -46.56 1221 0.5 0 3.3 0.5 0.03 3.3 1.5 0.5 0.3 1.7 0.02 0 1.7 0.02 0 0 0 0 0 0 0 0 0 0 1.5 0 0.11
1078.286 1.41 0.47 -6.36 1.37 4 0.81 0 0 22 2 2 0 0 0 22 2.52 4.71 -45.93 1221 0.5 0 3.3 0.5 0.03 3.3 1.5 0.5 0.3 1.7 0.02 0 1.7 0.02 0 0 0 0 0 0 0 0 0 0 1.5 0 0.11
1078.386 1.4 0.42 -6.83 -0.94 -0.75 2.37 0 0 23 2 2 0 0 0 22 2.42 9.95 -48.18 1221 0.5 0 3.3 0.5 0.03 3.3 1.5 0.5 0.3 1.7 0.02 0 1.7 0.02 0 0 0 0 0 0 0 0 0 0 1.5 0 0.11
1078.486 1.38 0.41 -7.08 3 2.75 1.94 0 0 21 2 1 0 0 0 22 -1.52 4.69 -47.05 1221 0.5 0 3.3 0.5 0.03 3.3 1.5 0.5 0.3 1.7 0.02 0 1.7 0.02 0 0 0 0 0 0 0 0 0 0 1.5 0 0.11
1078.586 1.4 0.4 -7.51 1.56 1.5 0.56 0 0 21 2 1 0 0 0 22 -1.33 -2.25 -47.64 1221 0.5 0 3.3 0.5 0.03 3.3 1.5 0.5 0.3 1.7 0.02 0 1.7 0.02 0 0 0 0 0 0 0 0 0 0 1.5 0 0.11
1078.686 1.35 0.35 -7.75 0.81 -1 0.06 0 0 20 2 2 0 0 0 22 1.82 11.29 -46.96 1221 0.5 0 3.3 0.5 0.03 3.3 1.5 0.5 0.3 1.7 0.02 0 1.7 0.02 0 0 0 0 0 0 0 0 0 0 1.5 0 0.11
1078.786 1.37 0.32 -8.15 -1.06 0.62 0.5 0 0 21 2 1 0 0 0 22 4.62 11 -47.79 1221 0.5 0 3.3 0.5 0.03 3.3 1.5 0.5 0.3 1.7 0.02 0 1.7 0.02 0 0 0 0 0 0 0 0 0 0 1.5 0 0.11
1078.886 1.43 0.31 -8.37 0.56 0 4.37 0 0 22 2 2 0 0 0 22 -0.55 5.35 -51.79 1221 0.5 0 3.3 0.5 0.03 3.3 1.5 0.5 0.3 1.7 0.02 0 1.7 0.02 0 0 0 0 0 0 0 0 0 0 1.5 0 0.11
1078.986 1.4 0.24 -8.77 -1.5 -1.06 -0.25 0 0 22 2 2 0 0 0 22 3.99 12.51 -51.24 1221 0.5 0 3.3 0.5 0.03 3.3 1.5 0.5 0.3 1.7 0.02 0 1.7 0.02 0 0 0 0 0 0 0 0 0 0 1.5 0 0.11
1079.086 1.38 0.22 -8.96 0.31 0.06 0.81 0 0 22 2 1 0 0 0 22 1.61 9.72 -48.93 1221 0.5 0 3.3 0.5 0.03 3.3 1.5 0.5 0.3 1.7 0.02 0 1.7 0.02 0 0 0 0 0 0 0 0 0 0 1.5 0 0.11
1079.186 1.41 0.22 -9.34 3.12 3.37 -1.87 0 0 21 2 2 0 0 0 22 -2.54 2.4 -47.49 1221 0.5 0 3.3 0.5 0.03 3.3 1.5 0.5 0.3 1.7 0.02 0 1.7 0.02 0 0 0 0 0 0 0 0 0 0 1.5 0 0.11
1079.286 1.36 0.19 -9.57 -2.19 -2.62 1 0 0 19 2 1 0 0 0 22 5.74 17.12 -51.39 1221 0.5 0 3.3 0.5 0.03 3.3 1.5 0.5 0.3 1.7 0.02 0 1.7 0.02 0 0 0 0 0 0 0 0 0 0 1.5 0 0.11
1079.386 1.36 0.15 -9.8 2.06 0.37 1.94 0 0 22 2 2 0 0 0 22 1.84 9.46 -48.61 1221 0.5 0 3.3 0.5 0.03 3.3 1.5 0.5 0.3 1.7 0.02 0 1.7 0.02 0 0 0 0 0 0 0 0 0 0 1.5 0 0.11
1079.486 1.37 0.15 -10.15 0.13 1.19 1.5 0 0 22 2 2 0 0 0 22 1.42 7.64 -51.84 1221 0.5 0 3.3 0.5 0.03 3.3 1.5 0.5 0.3 1.7 0.02 0 1.7 0.02 0 0 0 0 0 0 0 0 0 0 1.5 0 0.11
1079.586 1.37 0.15 -10.37 -3.25 -2.44 -1.37 0 0 21 2 1 0 0 0 22 7.03 13.07 -52.5 1221 0.5 0 3.3 0.5 0.03 3.3 1.5 0.5 0.3 1.7 0.02 0 1.7 0.02 0 0 0 0 0 0 0 0 0 0 1.5 0 0.11
1079.686 1.37 0.15 -10.78 0.19 2.12 -0.81 0 0 22 2 1 0 0 0 22 6.53 8.37 -50.79 1221 0.5 0 3.3 0.5 0.03 3.3 1.5 0.5 0.3 1.7 0.02 0 1.7 0.02 0 0 0 0 0 0 0 0 0 0 1.5 0 0.11
1079.786 1.37 0.14 -10.98 4.06 3.44 1.12 0 0 22 2 1 0 0 0 22 -1.04 3.36 -52.74 1221 0.5 0 3.3 0.5 0.03 3.3 1.5 0.5 0.3 1.7 0.02 0 1.7 0.02 0 0 0 0 0 0 0 0 0 0 1.5 0 0.11
1079.886 1.35 0.11 -11.27 -4.5 -4.94 3.19 0 0 20 2 2 0 0 0 22 9.29 16.79 -55.02 1221 0.5 0 3.3 0.5 0.03 3.3 1.5 0.5 0.3 1.7 0.02 0 1.7 0.02 0 0 0 0 0 0 0 0 0 0 1.5 0 0.11
1079.986 1.36 0.1 -11.47 2.25 3.56 -0.31 0 0 20 2 2 0 0 0 22 4.51 5.76 -52.32 1221 0.5 0 3.3 0.5 0.03 3.3 1.5 0.5 0.3 1.7 0.02 0 1.7 0.02 0 0 0 0 0 0 0 0 0 0 1.5 0 0.11
1080.086 1.35 0.11 -11.82 0.88 1.31 2.12 0 0 20 2 2 0 0 0 22 4.44 8.15 -54.29 1221 0.5 0 3.3 0.5 0.03 3.3 1.5 0.5 0.3 1.7 0.02 0 1.7 0.02 0 0 0 0 0 0 0 0 0 0 1.5 0 0.11
1080.186 1.33 0.08 -12 -2.44 -2.69 -0.81 0 0 22 2 2 0 0 0 22 5.14 14.79 -52.02 1221 0.5 0 3.3 0.5 0.03 3.3 1.5 0.5 0.3 1.7 0.02 0 1.7 0.02 0 0 0 0 0 0 0 0 0 0 1.5 0 0.11
1080.286 1.35 0.09 -12.28 3.06 1.56 1.75 0 0 22 2 2 0 0 0 22 -3.81 6.56 -52.11 1221 0.5 0 3.3 0.5 0.03 3.3 1.5 0.5 0.3 1.7 0.02 0 1.7 0.02 0 0 0 0 0 0 0 0 0 0 1.5 0 0.11
1080.386 1.36 0.07 -12.41 -3.5 -1.19 1.69 0 0 22 2 1 0 0 0 22 8.69 10.21 -53.58 1221 0.5 0 3.3 0.5 0.03 3.3 1.5 0.5 0.3 1.7 0.02 0 1.7 0.02 0 0 0 0 0 0 0 0 0 0 1.5 0 0.11
1080.486 1.36 0.05 -12.67 -0.62 -0.31 2 0 0 22 2 1 0 0 0 22 5.02 13.92 -57.09 1221 0.5 0 3.3 0.5 0.03 3.3 1.5 0.5 0.3 1.7 0.02 0 1.7 0.02 0 0 0 0 0 0 0 0 0 0 1.5 0 0.11
1080.586 1.37 0.07 -12.81 1.5 1 -0.37 0 0 19 2 1 0 0 0 22 -4.27 2.36 -54.02 1221 0.5 0 3.3 0.5 0.03 3.3 1.5 0.5 0.3 1.7 0.02 0 1.7 0.02 0 0 0 0 0 0 0 0 0 0 1.5 0 0.11
1080.686 1.34 0.02 -13.13 1.12 -1.69 -1.5 0 0 21 2 1 0 0 0 22 1.24 14.01 -54.88 1221 0.5 0 3.3 0.5 0.03 3.3 1.5 0.5 0.3 1.7 0.02 0 1.7 0.02 0 0 0 0 0 0 0 0 0 0 1.5 0 0.11
1080.786 1.36 0.03 -13.26 2 3.37 1.44 0 0 22 2 1 0 0 0 22 -4.82 1.84 -54.97 1221 0.5 0 3.3 0.5 0.03 3.3 1.5 0.5 0.3 1.7 0.02 0 1.7 0.02 0 0 0 0 0 0 0 0 0 0 1.5 0 0.11
1080.786 1.36 0.03 -13.26 2 3.37 1.44 0 0 22 2 1 0 0 0 22 -4.82 1.84 -54.97 1221 0.5 0 3.3 0.5 0.03 3.3 1.5 0.5 0.3 1.7 0.02 0 1.7 0.02 0 0 0 0 0 0 0 0 0 0 1.5 0 0.11
1080.887 1.36 0.05 -13.51 -5.31 -3.81 2.5 0 0 22 2 1 0 0 0 22 7.24 1.84 -54.97 1221 0.5 0 3.3 0.5 0.03 3.3 1.5 0.5 0.3 1.7 0.02 0 1.7 0.02 0 0 0 0 0 0 0 0 0 0 1.5 0 0.11
1081.087 1.35 0.04 -13.79 -1.31 -0.44 0.5 0 0 22 2 2 0 0 0 22 9.88 12.05 -55.67 1221 0.5 0 3.3 0.5 0.03 3.3 1.5 0.5 0.3 1.7 0.02 0 1.7 0.02 0 0 0 0 0 0 0 0 0 0 1.5 0 0.11
1081.187 1.36 0.02 -14.06 0.19 -1.62 1.12 0 0 20 2 2 0 0 0 22 3.3 15.06 -56.15 1221 0.5 0 3.3 0.5 0.03 3.3 1.5 0.5 0.3 1.7 0.02 0 1.7 0.02 0 0 0 0 0 0 0 0 0 0 1.5 0 0.11
1081.287 1.37 0.01 -14.19 4.25 3.75 1.5 0 0 22 2 2 0 0 0 22 -6.63 -0.08 -54.52 1221 0.5 0 3.3 0.5 0.03 3.3 1.5 0.5 0.3 1.7 0.02 0 1.7 0.02 0 0 0 0 0 0 0 0 0 0 1.5 0 0.11
1081.387 1.35 0 -14.43 1.44 0.44 0.56 0 0 22 2 2 0 0 0 22 1.19 11.7 -59.67 1221 0.5 0 3.3 0.5 0.03 3.3 1.5 0.5 0.3 1.7 0.02 0 1.7 0.02 0 0 0 0 0 0 0 0 0 0 1.5 0 0.11
1081.487 1.37 0 -14.55 -2 0 -0.13 0 0 23 2 2 0 0 0 22 1.27 7.51 -55.21 1221 0.5 0 3.3 0.5 0.03 3.3 1.5 0.5 0.3 1.7 0.02 0 1.7 0.02 0 0 0 0 0 0 0 0 0 0 1.5 0 0.11
1081.587 1.4 -0.01 -14.8 -2.12 -3.19 0.69 0 0 21 2 2 0 0 0 22 3.54 12.5 -55.68 1221 0.5 0 3.3 0.5 0.03 3.3 1.5 0.5 0.3 1.7 0.02 0 1.7 0.02 0 0 0 0 0 0 0 0 0 0 1.5 0 0.11
1081.687 1.36 -0.02 -14.9 3.25 3.69 -0.06 0 0 22 2 2 0 0 0 22 1.32 3.84 -53.9 1221 0.5 0 3.3 0.5 0.03 3.3 1.5 0.5 0.3 1.7 0.02 0 1.7 0.02 0 0 0 0 0 0 0 0 0 0 1.5 0 0.11
1081.787 1.37 -0.01 -15.04 1 0.62 3.25 0 0 21 2 2 0 0 0 22 4.35 10.95 -57.89 1221 0.5 0 3.3 0.5 0.03 3.3 1.5 0.5 0.3 1.7 0.02 0 1.7 0.02 0 0 0 0 0 0 0 0 0 0 1.5 0 0.11
1081.887 1.35 -0.07 -15.15 -0.75 -1.19 1.31 0 0 21 2 1 0 0 0 22 3.76 13.7 -56.78 1221 0.5 0 3.3 0.5 0.03 3.3 1.5 0.5 0.3 1.7 0.02 0 1.7 0.02 0 0 0 0 0 0 0 0 0 0 1.5 0 0.11
1081.987 1.36 -0.04 -15.36 1.37 0.75 3.31 0 0 21 2 1 0 0 0 22 -5.61 -1.6 -58.32 1221 0.5 0 3.3 0.5 0.03 3.3 1.5 0.5 0.3 1.7 0.02 0 1.7 0.02 0 0 0 0 0 0 0 0 0 0 1.5 0 0.11
1082.087 1.33 -0.07 -15.46 -2.31 -0.13 -0.44 0 0 23 2 2 0 0 0 22 5.21 8.88 -57.16 1221 0.5 0 3.3 0.5 0.03 3.3 1.5 0.5 0.3 1.7 0.02 0 1.7 0.02 0 0 0 0 0 0 0 0 0 0 1.5 0 0.11
1082.187 1.33 -0.07 -15.69 2.44 0.56 -0.13 0 0 23 2 2 0 0 0 22 3.16 13.62 -54.21 1221 0.5 0 3.3 0.5 0.03 3.3 1.5 0.5 0.3 1.7 0.02 0 1.7 0.02 0 0 0 0 0 0 0 0 0 0 1.5 0 0.11
1082.287 1.35 -0.05 -15.8 -4.75 -3.19 4 0 0 22 2 2 0 0 0 22 7.98 14.27 -57.77 1221 0.5 0 3.3 0.5 0.03 3.3 1.5 0.5 0.3 1.7 0.02 0 1.7 0.02 0 0 0 0 0 0 0 0 0 0 1.5 0 0.11
1082.387 1.35 -0.07 -16 2.75 0.44 0.94 0 0 21 2 1 0 0 0 22 -2.55 8.67 -58.02 1221 0.5 0 3.3 0.5 0.03 3.3 1.5 0.5 0.3 1.7 0.02 0 1.7 0.02 0 0 0 0 0 0 0 0 0 0 1.5 0 0.11
1082.496 1.34 -0.07 -16.09 -1.31 -1.81 0.81 0 0 21 2 1 0 0 0 22 5.22 12.92 -55.66 1221 0.5 0 3.3 0.5 0.03 3.3 1.5 0.5 0.3 1.7 0.02 0 1.7 0.02 0 0 0 0 0 0 0 0 0 0 1.5 0 0.11
1082.587 1.33 -0.08 -16.2 -5.94 -4.06 1.12 0 0 21 2 2 0 0 0 22 10.57 15.31 -58.16 1221 0.5 0 3.3 0.5 0.03 3.3 1.5 0.5 0.3 1.7 0.02 0 1.7 0.02 0 0 0 0 0 0 0 0 0 0 1.5 0 0.11
1082.687 1.33 -0.07 -16.38 0.19 0.88 2 0 0 21 2 2 0 0 0 22 -3.65 6.28 -56.31 1221 0.5 0 3.3 0.5 0.03 3.3 1.5 0.5 0.3 1.7 0.02 0 1.7 0.02 0 0 0 0 0 0 0 0 0 0 1.5 0 0.11
1082.787 1.32 -0.07 -16.45 -1.25 -1.62 1.31 0 0 22 2 2 0 0 0 22 4.44 8.51 -55.19 1221 0.5 0 3.3 0.5 0.03 3.3 1.5 0.5 0.3 1.7 0.02 0 1.7 0.02 0 0 0 0 0 0 0 0 0 0 1.5 0 0.11
1082.887 1.3 -0.07 -16.62 -0.31 2.31 -0.19 0 0 22 2 2 0 0 0 22 2.1 6.93 -56.01 1221 0.5 0 3.3 0.5 0.03 3.3 1.5 0.5 0.3 1.7 0.02 0 1.7 0.02 0 0 0 0 0 0 0 0 0 0 1.5 0 0.11
1082.987 1.29 -0.07 -16.7 -4.5 -0.88 -1.56 0 0 21 2 1 0 0 0 22 7.02 4.72 -56.49 1221 0.5 0 3.3 0.5 0.03 3.3 1.5 0.5 0.3 1.7 0.02 0 1.7 0.02 0 0 0 0 0 0 0 0 0 0 1.5 0 0.11
1083.087 1.29 -0.07 -16.87 -0.13 -0.19 -0.25 0 0 22 2 2 0 0 0 22 6.18 13.82 -54.9 1221 0.5 0 3.3 0.5 0.03 3.3 1.5 0.5 0.3 1.7 0.02 0 1.7 0.02 0 0 0 0 0 0 0 0 0 0 1.5 0 0.11
1083.188 1.32 -0.04 -16.91 0.37 1.81 1.94 0 0 22 2 2 0 0 0 22 2.84 3.33 -56.96 1221 0.5 0 3.3 0.5 0.03 3.3 1.5 0.5 0.3 1.7 0.02 0 1.7 0.02 0 0 0 0 0 0 0 0 0 0 1.5 0 0.11
1083.287 1.3 -0.07 -17.05 0.25 0 0.44 0 0 24 2 2 0 0 0 22 8.02 16.78 -57.56 1221 0.5 0 3.3 0.5 0.03 3.3 1.5 0.5 0.3 1.7 0.02 0 1.7 0.02 0 0 0 0 0 0 0 0 0 0 1.5 0 0.11
1083.387 1.31 -0.05 -17.14 -0.37 -0.56 2.06 0 0 21 2 1 0 0 0 22 -0.94 8.29 -56.12 1221 0.5 0 3.3 0.5 0.03 3.3 1.5 0.5 0.3 1.7 0.02 0 1.7 0.02 0 0 0 0 0 0 0 0 0 0 1.5 0 0.11
1083.487 1.3 -0.05 -17.28 1.62 -0.88 1.87 0 0 22 2 2 0 0 0 22 0.51 18.34 -60.33 1221 0.5 0 3.3 0.5 0.03 3.3 1.5 0.5 0.3 1.7 0.02 0 1.7 0.02 0 0 0 0 0 0 0 0 0 0 1.5 0 0.11
1083.587 1.31 -0.05 -17.37 3.56 5.56 0.69 0 0 21 2 1 0 0 0 22 -6.6 -0.78 -56.84 1221 0.5 0 3.3 0.5 0.03 3.3 1.5 0.5 0.3 1.7 0.02 0 1.7 0.02 0 0 0 0 0 0 0 0 0 0 1.5 0 0.11
1083.687 1.29 -0.08 -17.5 -0.19 -1.06 -0.19 0 0 22 2 2 0 0 0 22 6.86 21.29 -55.24 1221 0.5 0 3.3 0.5 0.03 3.3 1.5 0.5 0.3 1.7 0.02 0 1.7 0.02 0 0 0 0 0 0 0 0 0 0 1.5 0 0.11
1083.787 1.27 -0.05 -17.6 0.19 0.06 2.5 0 0 24 2 2 0 0 0 22 -3.6 8.58 -54.36 1221 0.5 0 3.3 0.5 0.03 3.3 1.5 0.5 0.3 1.7 0.02 0 1.7 0.02 0 0 0 0 0 0 0 0 0 0 1.5 0 0.11
1083.887 1.31 -0.03 -17.78 -1.69 -0.56 6.25 0 0 23 2 2 0 0 0 22 4.98 7.75 -59.09 1221 0.5 0 3.3 0.5 0.03 3.3 1.5 0.5 0.3 1.7 0.02 0 1.7 0.02 0 0 0 0 0 0 0 0 0 0 1.5 0 0.11
1083.988 1.29 -0.05 -17.87 -2 1.81 -0.37 0 0 26 2 1 0 0 0 22 11.58 12.21 -56.21 1221 0.5 0 3.3 0.5 0.03 3.3 1.5 0.5 0.3 1.7 0.02 0 1.7 0.02 0 0 0 0 0 0 0 0 0 0 1.5 0 0.11
1084.087 1.3 -0.04 -18 -3.94 -1.44 0.44 0 0 21 2 1 0 0 0 22 6.81 8.27 -57.17 1221 0.5 0 3.3 0.5 0.03 3.3 1.5 0.5 0.3 1.7 0.02 0 1.7 0.02 0 0 0 0 0 0 0 0 0 0 1.5 0 0.11
1084.188 1.3 -0.04 -18.07 0 -0.44 -0.31 0 0 22 2 1 0 0 0 22 3.19 10.15 -57.11 1221 0.5 0 3.3 0.5 0.03 3.3 1.5 0.5 0.3 1.7 0.02 0 1.7 0.02 0 0 0 0 0 0 0 0 0 0 1.5 0 0.11
1084.287 1.3 -0.04 -18.14 4.5 3.12 0.88 0 0 23 2 1 0 0 0 22 -8.91 -0.66 -55.72 1221 0.5 0 3.3 0.5 0.03 3.3 1.5 0.5 0.3 1.7 0.02 0 1.7 0.02 0 0 0 0 0 0 0 0 0 0 1.5 0 0.11
1084.388 1.29 -0.03 -18.28 -4.75 -3.81 1.37 0 0 23 2 2 0 0 0 22 11.58 18.83 -58.52 1221 0.5 0 3.3 0.5 0.03 3.3 1.5 0.5 0.3 1.7 0.02 0 1.7 0.02 0 0 0 0 0 0 0 0 0 0 1.5 0 0.11
1084.488 1.32 -0.01 -18.3 -1.37 2.19 2 0 0 20 2 1 0 0 0 22 1.92 -0.06 -54.87 1221 0.5 0 3.3 0.5 0.03 3.3 1.5 0.5 0.3 1.7 0.02 0 1.7 0.02 0 0 0 0 0 0 0 0 0 0 1.5 0 0.11
1084.587 1.32 -0.02 -18.4 -1.56 0.88 1.44 0 0 21 2 1 0 0 0 22 4.67 6.61 -59.22 1221 0.5 0 3.3 0.5 0.03 3.3 1.5 0.5 0.3 1.7 0.02 0 1.7 0.02 0 0 0 0 0 0 0 0 0 0 1.5 0 0.11
1084.688 1.32 -0.03 -18.47 0.19 2.94 -0.56 0 0 21 2 2 0 0 0 22 5.93 7.27 -56.57 1221 0.5 0 3.3 0.5 0.03 3.3 1.5 0.5 0.3 1.7 0.02 0 1.7 0.02 0 0 0 0 0 0 0 0 0 0 1.5 0 0.11
1084.787 1.33 -0.03 -18.57 -6.56 -4.5 1.87 0 0 23 2 2 0 0 0 22 11.51 14.08 -56.66 1221 0.5 0 3.3 0.5 0.03 3.3 1.5 0.5 0.3 1.7 0.02 0 1.7 0.02 0 0 0 0 0 0 0 0 0 0 1.5 0 0.11
1084.887 1.32 -0.03 -18.64 0.75 0.62 -1.5 0 0 23 2 2 0 0 0 22 3.24 8.38 -55.16 1221 0.5 0 3.3 0.5 0.03 3.3 1.5 0.5 0.3 1.7 0.02 0 1.7 0.02 0 0 0 0 0 0 0 0 0 0 1.5 0 0.11
1084.987 1.32 -0.01 -18.75 -0.37 -0.5 4.94 0 0 21 2 2 0 0 0 23 1.65 9.88 -60.31 1233 0.5 0 3.3 0.5 0.03 3.3 1.5 0.5 0.3 1.7 0.02 0 1.7 0.02 0 0 0 0 0 0 0 0 0 0 1.5 0 0.11
1085.088 1.33 -0.03 -18.79 1.56 1.12 -0.44 0 0 22 2 1 0 0 0 25 4.14 13.53 -59.62 1255 0.5 0 3.3 0.5 0.03 3.3 1.5 0.5 0.3 1.7 0.02 0 1.7 0.02 0 0 0 0 0 0 0 0 0 0 1.5 0 0.11
1085.188 1.35 -0.02 -18.82 0.56 -1.69 0.81 0 0 23 2 1 0 0 0 25 2.68 13.33 -56.22 1254 0.5 0 3.3 0.5 0.03 3.3 1.5 0.5 0.3 1.7 0.02 0 1.7 0.02 0 0 0 0 0 0 0 0 0 0 1.5 0 0.11
1085.288 1.34 0.01 -18.83 -1 2.5 2.25 0 0 21 2 1 0 0 0 27 0.91 5.57 -56.04 1270 0.5 0 3.3 0.5 0.03 3.3 1.5 0.5 0.3 1.7 0.02 0 1.7 0.02 0 0 0 0 0 0 0 0 0 0 1.5 0 0.11
1085.388 1.33 0 -18.87 -2.06 -0.94 4.37 0 0 21 2 2 0 0 0 27 3.28 6.23 -56.49 1272 0.5 0 3.3 0.5 0.03 3.3 1.5 0.5 0.3 1.7 0.02 0 1.7 0.02 0 0 0 0 0 0 0 0 0 0 1.5 0 0.11
1085.488 1.33 -0.01 -18.81 -2.25 -0.56 -0.19 0 0 21 2 1 0 0 0 29 5.57 6.61 -56.49 1296 0.5 0 3.3 0.5 0.03 3.3 1.5 0.5 0.3 1.7 0.02 0 1.7 0.02 0 0 0 0 0 0 0 0 0 0 1.5 0 0.11
1085.587 1.32 0 -18.7 -0.06 0.13 -0.94 0 0 21 2 1 0 0 0 32 -0.28 7.34 -56.33 1325 0.5 0 3.3 0.5 0.03 3.3 1.5 0.5 0.3 1.7 0.02 0 1.7 0.02 0 0 0 0 0 0 0 0 0 0 1.5 0 0.11
1085.688 1.34 0.04 -18.61 -5.25 2.19 3.31 0 0 23 2 1 0 0 0 32 4.56 7.34 -58.27 1325 0.5 0 3.3 0.5 0.03 3.3 1.5 0.5 0.3 1.7 0.02 0 1.7 0.02 0 0 0 0 0 0 0 0 0 0 1.5 0 0.11
1085.787 1.37 0.05 -18.51 -7.69 -2.69 2.19 0 0 21 2 1 0 0 0 33 6.37 12.66 -56.49 1336 0.5 0 3.3 0.5 0.03 3.3 1.5 0.5 0.3 1.7 0.02 0 1.7 0.02 0 0 0 0 0 0 0 0 0 0 1.5 0 0.11
1085.888 1.41 0.09 -18.42 4.62 1.81 -4.06 0 0 24 2 2 0 0 0 33 2.77 8.51 -55.99 1338 0.5 0 3.3 0.5 0.03 3.3 1.5 0.5 0.3 1.7 0.02 0 1.7 0.02 0 0 0 0 0 0 0 0 0 0 1.5 0 0.11
1085.988 1.47 0.14 -18.3 -9.5 -7 1.94 0 0 23 1 1 0 0 0 36 2.3 4.25 -56.94 1366 0.5 0 3.3 0.5 0.03 3.3 1.5 0.5 0.3 1.7 0.02 0 1.7 0.02 0 0 0 0 0 0 0 0 0 0 1.5 0 0.11
1086.087 1.41 0.12 -18.26 -8.63 -4.87 6.56 0 0 22 1 2 0 0 0 36 1.36 7.11 -57.08 1365 0.5 0 3.3 0.5 0.03 3.3 1.5 0.5 0.3 1.7 0.02 0 1.7 0.02 0 0 0 0 0 0 0 0 0 0 1.5 0 0.11
1086.188 1.63 0.36 -18.2 -6.25 -3.37 4.5 0 0 24 1 1 0 0 0 38 -4.53 3.98 -54.48 1383 0.5 0 3.3 0.5 0.03 3.3 1.5 0.5 0.3 1.7 0.02 0 1.7 0.02 0 0 0 0 0 0 0 0 0 0 1.5 0 0.11
1086.288 1.65 0.47 -18.41 18.31 4.25 -5.94 0 0 22 1 2 0 0 0 38 -5.17 13.73 -50.72 1384 0.5 0 3.3 0.5 0.03 3.3 1.5 0.5 0.3 1.7 0.02 0 1.7 0.02 0 0 0 0 0 0 0 0 0 0 1.5 0 0.11
1086.388 1.55 0.43 -18.8 0.25 2.81 -14.06 0 0 24 1 2 0 0 0 39 -18.12 -3.91 -47.3 1393 0.5 0 3.3 0.5 0.03 3.3 1.5 0.5 0.3 1.7 0.02 0 1.7 0.02 0 0 0 0 0 0 0 0 0 0 1.5 0 0.11
1086.488 1.66 0.53 -19.34 -14.63 -8.63 1.19 0 0 24 1 2 0 0 0 39 14.83 15.87 -46.58 1396 0.5 0 3.3 0.5 0.03 3.3 1.5 0.5 0.3 1.7 0.02 0 1.7 0.02 0 0 0 0 0 0 0 0 0 0 1.5 0 0.11
1086.588 1.69 0.65 -19.98 25.25 21.19 -13.44 0 0 24 1 1 0 0 0 40 -17.4 -3.45 -42.22 1406 0.5 0 3.3 0.5 0.03 3.3 1.5 0.5 0.3 1.7 0.02 0 1.7 0.02 0 0 0 0 0 0 0 0 0 0 1.5 0 0.11
1086.688 1.54 1.45 -20.62 -8.25 16.62 -6.62 0 0 23 1 1 0 0 0 40 -13.47 -18.97 -38.14 1406 0.5 0 3.3 0.5 0.03 3.3 1.5 0.5 0.3 1.7 0.02 0 1.7 0.02 0 0 0 0 0 0 0 0 0 0 1.5 0 0.11
1086.788 1.49 3.08 -21.37 -11.19 14 -10.69 0 0 22 1 1 0 0 0 40 -7.11 -12.11 -38.56 1406 0.5 0 3.3 0.5 0.03 3.3 1.5 0.5 0.3 1.7 0.02 0 1.7 0.02 0 0 0 0 0 0 0 0 0 0 1.5 0 0.11
1086.888 1.58 4.59 -22.21 -19.81 4.44 -2 0 0 19 1 1 0 0 0 40 34.2 15.11 -40.85 1407 0.5 0 3.3 0.5 0.03 3.3 1.5 0.5 0.3 1.7 0.02 0 1.7 0.02 0 0 0 0 0 0 0 0 0 0 1.5 0 0.11
1086.988 1.98 5.76 -23.23 9.75 11.31 -7.19 0 0 20 1 1 0 0 0 40 5.65 6.39 -38.62 1407 0.5 0 3.3 0.5 0.03 3.3 1.5 0.5 0.3 1.7 0.02 0 1.7 0.02 0 0 0 0 0 0 0 0 0 0 1.5 0 0.11
1087.088 2.27 6.91 -24.39 17.81 25.81 -17.12 0 0 21 1 0 0 0 0 40 -15.22 -10.41 -31.54 1407 0.5 0 3.3 0.5 0.03 3.3 1.5 0.5 0.3 1.7 0.02 0 1.7 0.02 0 0 0 0 0 0 0 0 0 0 1.5 0 0.11
1087.188 2.71 8.01 -25.5 -13.13 -4.62 -7.87 0 0 20 1 0 0 0 0 40 5.28 1.32 -35.88 1407 0.5 0 3.3 0.5 0.03 3.3 1.5 0.5 0.3 1.7 0.02 0 1.7 0.02 0 0 0 0 0 0 0 0 0 0 1.5 0 0.11
1087.288 3.12 8.9 -26.8 -14.06 11.94 -13.06 0 0 21 1 -4 0 0 0 40 22.58 -8.83 -33.05 1407 0.5 0 3.3 0.5 0.03 3.3 1.5 0.5 0.3 1.7 0.02 0 1.7 0.02 0 0 0 0 0 0 0 0 0 0 1.5 0 0.11
1087.388 2.93 9.68 -28.29 -9 -6.37 -6.94 0 0 19 2 -10 0 0 0 40 22.2 3.7 -29.87 1407 0.5 0 3.3 0.5 0.03 3.3 1.5 0.5 0.3 1.7 0.02 0 1.7 0.02 0 0 0 0 0 0 0 0 0 0 1.5 0 0.11
1087.488 3.08 8.44 -29.9 30.87 -5 -23.69 0 0 20 2 -6 0 0 0 40 -24.81 1.36 -19.07 1407 0.5 0 3.3 0.5 0.03 3.3 1.5 0.5 0.3 1.7 0.02 0 1.7 0.02 0 0 0 0 0 0 0 0 0 0 1.5 0 0.11
1087.588 4.99 7.25 -31.76 1.87 -13.75 -14.38 0 0 21 2 -1 0 0 0 40 1.25 -2.31 -16.83 1407 0.5 0 3.3 0.5 0.03 3.3 1.5 0.5 0.3 1.7 0.02 0 1.7 0.02 0 0 0 0 0 0 0 0 0 0 1.5 0 0.11
1087.688 5.72 7.4 -33.49 -0.94 -1.94 -10.94 0 0 22 2 1 0 0 0 40 8.45 10.01 -25.02 1407 0.5 0 3.3 0.5 0.03 3.3 1.5 0.5 0.3 1.7 0.02 0 1.7 0.02 0 0 0 0 0 0 0 0 0 0 1.5 0 0.11
1087.788 4.24 9.01 -35.01 -17 19.19 -5.25 0 0 20 2 1 0 0 0 42 6.2 -15.78 -23.59 1421 0.5 0 3.3 0.5 0.03 3.3 1.5 0.5 0.3 1.7 0.02 0 1.7 0.02 0 0 0 0 0 0 0 0 0 0 1.5 0 0.11
1087.888 2.81 11.14 -36.82 -36.31 5 -14.63 0 0 22 2 1 0 0 0 42 20.55 -2.24 -15.09 1420 0.5 0 3.3 0.5 0.03 3.3 1.5 0.5 0.3 1.7 0.02 0 1.7 0.02 0 0 0 0 0 0 0 0 0 0 1.5 0 0.11
1087.988 2.67 11.51 -38.88 1.19 -7.75 -24.25 0 0 20 2 2 0 0 0 42 5.34 9.36 -12.34 1420 0.5 0 3.3 0.5 0.03 3.3 1.5 0.5 0.3 1.7 0.02 0 1.7 0.02 0 0 0 0 0 0 0 0 0 0 1.5 0 0.11
1088.088 3.91 11.25 -40.86 26.37 8.81 -28 0 0 20 2 2 0 0 0 42 -14.21 -7.09 -17.17 1420 0.5 0 3.3 0.5 0.03 3.3 1.5 0.5 0.3 1.7 0.02 0 1.7 0.02 0 0 0 0 0 0 0 0 0 0 1.5 0 0.11
1088.188 4.5 11.78 -42.88 -16.81 -4 -16.19 0 0 20 2 2 0 0 0 42 7.11 17.36 -16.72 1421 0.5 0 3.3 0.5 0.03 3.3 1.5 0.5 0.3 1.7 0.02 0 1.7 0.02 0 0 0 0 0 0 0 0 0 0 1.5 0 0.11
1088.288 3.87 12.4 -44.85 5.5 8.38 -20.87 0 0 21 2 2 0 0 0 43 12.4 -4.13 -13.33 1436 0.5 0 3.3 0.5 0.03 3.3 1.5 0.5 0.3 1.7 0.02 0 1.7 0.02 0 0 0 0 0 0 0 0 0 0 1.5 0 0.11
1088.388 2.94 13.49 -46.71 -5.5 11 -10.5 0 0 20 2 2 0 0 0 43 -2.15 -21.11 -9.51 1435 0.5 0 3.3 0.5 0.03 3.3 1.5 0.5 0.3 1.7 0.02 0 1.7 0.02 0 0 0 0 0 0 0 0 0 0 1.5 0 0.11
1088.488 2.49 14.34 -48.64 -23.19 11 -26.81 0 0 22 2 2 0 0 0 43 -1.64 -8.83 -5.73 1435 0.5 0 3.3 0.5 0.03 3.3 1.5 0.5 0.3 1.7 0.02 0 1.7 0.02 0 0 0 0 0 0 0 0 0 0 1.5 0 0.11
1088.588 2.13 14.37 -50.35 -13.44 4.94 -26.25 0 0 21 2 2 0 0 0 43 15.24 13.33 -7.53 1435 0.5 0 3.3 0.5 0.03 3.3 1.5 0.5 0.3 1.7 0.02 0 1.7 0.02 0 0 0 0 0 0 0 0 0 0 1.5 0 0.11
1088.688 1.51 13.78 -52.11 -30.19 -5.69 -18.94 0 0 23 2 2 0 0 0 43 41.26 2.46 -13.83 1435 0.5 0 3.3 0.5 0.03 3.3 1.5 0.5 0.3 1.7 0.02 0 1.7 0.02 0 0 0 0 0 0 0 0 0 0 1.5 0 0.11
1088.788 1.3 13.79 -53.77 22.37 5 -12.81 0 0 21 1 1 0 0 0 43 -9.21 -9.59 -11.02 1435 0.5 0 3.3 0.5 0.03 3.3 1.5 0.5 0.3 1.7 0.02 0 1.7 0.02 0 0 0 0 0 0 0 0 0 0 1.5 0 0.11
1088.888 2.64 14.25 -55.36 3.31 2.44 -12.56 0 0 23 1 1 0 0 0 43 -5.67 -9.19 -8.22 1435 0.5 0 3.3 0.5 0.03 3.3 1.5 0.5 0.3 1.7 0.02 0 1.7 0.02 0 0 0 0 0 0 0 0 0 0 1.5 0 0.11
1088.988 4.24 14.62 -57.01 -6.94 -6.5 -0.13 0 0 21 2 2 0 0 0 43 -0.64 10.22 -13.29 1435 0.5 0 3.3 0.5 0.03 3.3 1.5 0.5 0.3 1.7 0.02 0 1.7 0.02 0 0 0 0 0 0 0 0 0 0 1.5 0 0.11
1089.088 3.93 14.23 -58.41 -33.69 3.81 -13.75 0 0 22 2 2 0 0 0 43 58.51 -11.59 -12.92 1434 0.5 0 3.3 0.5 0.03 3.3 1.5 0.5 0.3 1.7 0.02 0 1.7 0.02 0 0 0 0 0 0 0 0 0 0 1.5 0 0.11
1089.188 2.75 14.11 -59.84 -2.87 -9.13 -16 0 0 21 2 2 0 0 0 43 25.14 1.71 -8.44 1436 0.5 0 3.3 0.5 0.03 3.3 1.5 0.5 0.3 1.7 0.02 0 1.7 0.02 0 0 0 0 0 0 0 0 0 0 1.5 0 0.11
1089.288 2.92 14.49 -61.36 9.13 5.94 -31.19 0 0 20 2 1 0 0 0 43 -23.24 -2.85 -0.4 1435 0.5 0 3.3 0.5 0.03 3.3 1.5 0.5 0.3 1.7 0.02 0 1.7 0.02 0 0 0 0 0 0 0 0 0 0 1.5 0 0.11
1089.388 4.33 14.05 -62.84 -4.44 -26.12 3.56 0 0 21 2 2 0 0 0 43 -2.92 12.63 -13.7 1435 0.5 0 3.3 0.5 0.03 3.3 1.5 0.5 0.3 1.7 0.02 0 1.7 0.02 0 0 0 0 0 0 0 0 0 0 1.5 0 0.11
1089.488 4.58 12.93 -64.51 -24.94 -14.44 -10.5 0 0 20 2 1 0 0 0 43 11.88 6.77 -5.69 1435 0.5 0 3.3 0.5 0.03 3.3 1.5 0.5 0.3 1.7 0.02 0 1.7 0.02 0 0 0 0 0 0 0 0 0 0 1.5 0 0.11
1089.588 3.78 11.96 -66.05 13.31 -1.31 -21.81 0 0 20 2 -2 0 0 0 43 -16.27 -15.37 0.47 1435 0.5 0 3.3 0.5 0.03 3.3 1.5 0.5 0.3 1.7 0.02 0 1.7 0.02 0 0 0 0 0 0 0 0 0 0 1.5 0 0.11
1089.688 2.55 11.26 -67.69 -25 -14.31 -11.75 0 0 21 2 -12 0 0 0 43 -10.54 -9.27 -3.75 1436 0.5 0 3.3 0.5 0.03 3.3 1.5 0.5 0.3 1.7 0.02 0 1.7 0.02 0 0 0 0 0 0 0 0 0 0 1.5 0 0.11
1089.788 1.81 9.44 -69.47 -16.44 -8.38 -26 0 0 20 2 -13 0 0 0 43 -12.13 -15.88 -0.54 1435 0.5 0 3.3 0.5 0.03 3.3 1.5 0.5 0.3 1.7 0.02 0 1.7 0.02 0 0 0 0 0 0 0 0 0 0 1.5 0 0.11
1089.888 1.58 7.03 -70.92 -9.81 -25.5 1.31 0 0 20 2 -11 0 0 0 43 11.26 -9.16 -11.57 1435 0.5 0 3.3 0.5 0.03 3.3 1.5 0.5 0.3 1.7 0.02 0 1.7 0.02 0 0 0 0 0 0 0 0 0 0 1.5 0 0.11
1089.988 1.36 5.9 -72.26 5.31 4.62 -24.69 0 0 20 2 -11 0 0 0 43 -17.26 -16.2 -4.15 1436 0.5 0 3.3 0.5 0.03 3.3 1.5 0.5 0.3 1.7 0.02 0 1.7 0.02 0 0 0 0 0 0 0 0 0 0 1.5 0 0.11
1090.088 2.47 6.13 -73.52 -9.13 16.5 -15.5 0 0 22 2 -10 0 0 0 43 17.13 -30.01 -1.98 1436 0.5 0 3.3 0.5 0.03 3.3 1.5 0.5 0.3 1.7 0.02 0 1.7 0.02 0 0 0 0 0 0 0 0 0 0 1.5 0 0.11
1090.188 3.16 6.25 -74.59 -13.5 -16.06 5.56 0 0 26 1 -5 0 0 0 43 12.83 -6.63 -13.66 1430 0.5 0 3.3 0.5 0.03 3.3 1.5 0.5 0.3 1.7 0.02 0 1.7 0.02 0 0 0 0 0 0 0 0 0 0 1.5 0 0.11
1090.288 3.31 5.24 -75.56 -2.37 -5.44 -14.06 0 0 30 2 0 0 0 0 40 22.77 20.13 -10.81 1403 0.5 0 3.3 0.5 0.03 3.3 1.5 0.5 0.3 1.7 0.02 0 1.7 0.02 0 0 0 0 0 0 0 0 0 0 1.5 0 0.11
1090.388 3.76 5.08 -76.33 7.19 5.19 7.5 0 0 36 2 2 0 0 0 40 -5.64 -6.85 -13.69 1402 0.5 0 3.3 0.5 0.03 3.3 1.5 0.5 0.3 1.7 0.02 0 1.7 0.02 0 0 0 0 0 0 0 0 0 0 1.5 0 0.11
1090.488 4.71 7.4 -77.07 8.25 25.37 4.37 0 0 43 1 2 0 0 0 40 -1.8 -15.86 -14.37 1403 0.5 0 3.3 0.5 0.03 3.3 1.5 0.5 0.3 1.7 0.02 0 1.7 0.02 0 0 0 0 0 0 0 0 0 0 1.5 0 0.11
1090.588 4.92 9.43 -77.91 -3.31 2.44 5.5 0 0 48 1 1 0 0 0 39 1.61 2.87 -13.09 1399 0.5 0 3.3 0.5 0.03 3.3 1.5 0.5 0.3 1.7 0.02 0 1.7 0.02 0 0 0 0 0 0 0 0 0 0 1.5 0 0.11
1090.688 4.35 8.79 -78.97 -16.44 -23.56 -8.94 0 0 52 1 2 0 0 0 39 5.45 7.34 -4.11 1392 0.5 0 3.3 0.5 0.03 3.3 1.5 0.5 0.3 1.7 0.02 0 1.7 0.02 0 0 0 0 0 0 0 0 0 0 1.5 0 0.11
1090.788 4.33 7.81 -80.36 2.69 0.88 -16.44 0 0 57 1 2 0 0 0 39 -6.92 -4.54 -4.54 1392 0.5 0 3.3 0.5 0.03 3.3 1.5 0.5 0.3 1.7 0.02 0 1.7 0.02 0 0 0 0 0 0 0 0 0 0 1.5 0 0.11
1090.888 4.81 9.11 -81.43 0 25.31 -14.56 0 0 57 1 2 0 0 0 39 -2.68 -16.92 -6.5 1391 0.5 0 3.3 0.5 0.03 3.3 1.5 0.5 0.3 1.7 0.02 0 1.7 0.02 0 0 0 0 0 0 0 0 0 0 1.5 0 0.11
1090.988 4.6 11 -82.23 -5.56 16.87 -14.44 0 0 56 1 2 0 0 0 39 2.79 -9.51 -3.73 1392 0.5 0 3.3 0.5 0.03 3.3 1.5 0.5 0.3 1.7 0.02 0 1.7 0.02 0 0 0 0 0 0 0 0 0 0 1.5 0 0.11
1091.088 4.19 11.44 -83.28 -5.31 1.12 -9.13 0 0 56 1 1 0 0 0 39 -4.91 -3.11 -0.75 1392 0.5 0 3.3 0.5 0.03 3.3 1.5 0.5 0.3 1.7 0.02 0 1.7 0.02 0 0 0 0 0 0 0 0 0 0 1.5 0 0.11
1091.188 4.17 10.17 -84.51 1.56 -13.25 -4.69 0 0 56 1 -2 0 0 0 39 8.61 7.25 -4.64 1393 0.5 0 3.3 0.5 0.03 3.3 1.5 0.5 0.3 1.7 0.02 0 1.7 0.02 0 0 0 0 0 0 0 0 0 0 1.5 0 0.11
1091.288 3.74 9.27 -85.5 0.69 0.06 -9.25 0 0 54 1 -7 0 0 0 39 0.14 -13.5 -6.53 1392 0.5 0 3.3 0.5 0.03 3.3 1.5 0.5 0.3 1.7 0.02 0 1.7 0.02 0 0 0 0 0 0 0 0 0 0 1.5 0 0.11
1091.388 2.83 9.02 -86.39 -1.94 2.62 -11.69 0 0 52 1 -12 0 0 0 39 6.62 -1.19 -8.61 1392 0.5 0 3.3 0.5 0.03 3.3 1.5 0.5 0.3 1.7 0.02 0 1.7 0.02 0 0 0 0 0 0 0 0 0 0 1.5 0 0.11
1091.488 2.24 7.49 -87.35 14 -27.56 -15.81 0 0 48 1 -12 0 0 0 39 -4.43 5.87 -0.56 1392 0.5 0 3.3 0.5 0.03 3.3 1.5 0.5 0.3 1.7 0.02 0 1.7 0.02 0 0 0 0 0 0 0 0 0 0 1.5 0 0.11
1091.588 2.72 5.05 -88.42 7.75 -29.75 -7.87 0 0 47 1 -17 0 0 0 39 -3.27 -8.05 -2.12 1394 0.5 0 3.3 0.5 0.03 3.3 1.5 0.5 0.3 1.7 0.02 0 1.7 0.02 0 0 0 0 0 0 0 0 0 0 1.5 0 0.11
1091.688 2.85 4.25 -89.35 11.5 -4.12 -8.69 0 0 46 1 -20 0 0 0 39 6.72 -15.47 -3.24 1392 0.5 0 3.3 0.5 0.03 3.3 1.5 0.5 0.3 1.7 0.02 0 1.7 0.02 0 0 0 0 0 0 0 0 0 0 1.5 0 0.11
1091.788 2 4.36 -90.19 -1.37 -9.81 0.31 0 0 41 2 -18 0 0 0 39 0.72 -8.76 -5.38 1392 0.5 0 3.3 0.5 0.03 3.3 1.5 0.5 0.3 1.7 0.02 0 1.7 0.02 0 0 0 0 0 0 0 0 0 0 1.5 0 0.11
1091.888 1.46 2.69 -91.01 3.81 -27.25 -9.88 0 0 41 2 -15 0 0 0 39 -2.21 2.21 2.87 1393 0.5 0 3.3 0.5 0.03 3.3 1.5 0.5 0.3 1.7 0.02 0 1.7 0.02 0 0 0 0 0 0 0 0 0 0 1.5 0 0.11
1091.988 2.19 0.25 -91.8 3.94 -13.31 -5.69 0 0 38 1 -11 0 0 0 39 12.56 6.07 -5.44 1394 0.5 0 3.3 0.5 0.03 3.3 1.5 0.5 0.3 1.7 0.02 0 1.7 0.02 0 0 0 0 0 0 0 0 0 0 1.5 0 0.11
1092.088 3.13 0.22 -92.46 14.5 21.69 -8.5 0 0 35 1 -1 0 0 0 40 -3.3 -3.46 -7.21 1407 0.5 0 3.3 0.5 0.03 3.3 1.5 0.5 0.3 1.7 0.02 0 1.7 0.02 0 0 0 0 0 0 0 0 0 0 1.5 0 0.11
1092.188 3.78 2.71 -92.76 6.12 25.37 5.12 0 0 32 2 2 0 0 0 40 4.66 -6.86 -11.61 1407 0.5 0 3.3 0.5 0.03 3.3 1.5 0.5 0.3 1.7 0.02 0 1.7 0.02 0 0 0 0 0 0 0 0 0 0 1.5 0 0.11
1092.288 4.08 3.98 -92.93 -17.06 0.75 8.5 0 0 27 1 2 0 0 0 40 1.91 -1.51 -12.13 1407 0.5 0 3.3 0.5 0.03 3.3 1.5 0.5 0.3 1.7 0.02 0 1.7 0.02 0 0 0 0 0 0 0 0 0 0 1.5 0 0.11
1092.388 4.95 3.59 -93.3 26.25 12.44 -5.19 0 0 27 2 2 0 0 0 42 -30.9 -12.03 -8.06 1420 0.5 0 3.3 0.5 0.03 3.3 1.5 0.5 0.3 1.7 0.02 0 1.7 0.02 0 0 0 0 0 0 0 0 0 0 1.5 0 0.11
1092.488 6.23 3.8 -93.65 2.94 7.44 4.87 0 0 26 2 2 0 0 0 42 -2.49 -9.01 -7.36 1420 0.5 0 3.3 0.5 0.03 3.3 1.5 0.5 0.3 1.7 0.02 0 1.7 0.02 0 0 0 0 0 0 0 0 0 0 1.5 0 0.11
1092.588 6.72 5.3 -94.2 14.88 37.25 -19.94 0 0 25 1 2 0 0 0 42 -33.33 -33.84 -2.18 1420 0.5 0 3.3 0.5 0.03 3.3 1.5 0.5 0.3 1.7 0.02 0 1.7 0.02 0 0 0 0 0 0 0 0 0 0 1.5 0 0.11
1092.688 5.92 5.9 -94.92 -9.31 -4.75 -4.12 0 0 25 2 2 0 0 0 41 -19.81 -1.45 -2.59 1419 0.5 0 3.3 0.5 0.03 3.3 1.5 0.5 0.3 1.7 0.02 0 1.7 0.02 0 0 0 0 0 0 0 0 0 0 1.5 0 0.11
1092.788 4.61 5.6 -95.84 -15.81 -18.06 3.56 0 0 27 1 2 0 0 0 42 36.43 17.68 -2.49 1420 0.5 0 3.3 0.5 0.03 3.3 1.5 0.5 0.3 1.7 0.02 0 1.7 0.02 0 0 0 0 0 0 0 0 0 0 1.5 0 0.11
1092.888 4.34 7.19 -96.76 -12.88 11.44 -14.13 0 0 26 1 1 0 0 0 41 8.42 -18.47 -1.48 1418 0.5 0 3.3 0.5 0.03 3.3 1.5 0.5 0.3 1.7 0.02 0 1.7 0.02 0 0 0 0 0 0 0 0 0 0 1.5 0 0.11
1092.988 4.79 10.35 -97.35 -13.56 25.06 -6.69 0 0 27 1 1 0 0 0 41 7.16 -19.08 -8.87 1419 0.5 0 3.3 0.5 0.03 3.3 1.5 0.5 0.3 1.7 0.02 0 1.7 0.02 0 0 0 0 0 0 0 0 0 0 1.5 0 0.11
1093.088 5.38 11.82 -97.9 -6.12 -4.62 13 0 0 29 1 1 0 0 0 42 11.18 -6.6 -10.47 1420 0.5 0 3.3 0.5 0.03 3.3 1.5 0.5 0.3 1.7 0.02 0 1.7 0.02 0 0 0 0 0 0 0 0 0 0 1.5 0 0.11
1093.188 5.31 10.34 -98.36 18.37 3.62 -12.94 0 0 28 2 1 0 0 0 42 9.68 -1.25 -4.96 1420 0.5 0 3.3 0.5 0.03 3.3 1.5 0.5 0.3 1.7 0.02 0 1.7 0.02 0 0 0 0 0 0 0 0 0 0 1.5 0 0.11
1093.288 3.89 9.06 -98.6 -9.56 -4 0.69 0 0 28 2 1 0 0 0 42 -2.83 -7.5 -11.19 1420 0.5 0 3.3 0.5 0.03 3.3 1.5 0.5 0.3 1.7 0.02 0 1.7 0.02 0 0 0 0 0 0 0 0 0 0 1.5 0 0.11
1093.388 2.92 9.32 -98.69 -6.06 3.94 2.87 0 0 30 2 1 0 0 0 42 19.16 -0.29 -12.19 1420 0.5 0 3.3 0.5 0.03 3.3 1.5 0.5 0.3 1.7 0.02 0 1.7 0.02 0 0 0 0 0 0 0 0 0 0 1.5 0 0.11
1093.488 2.91 9.44 -98.93 14.5 10 -18.06 0 0 32 2 2 0 0 0 41 -10.88 -8.93 -6.81 1419 0.5 0 3.3 0.5 0.03 3.3 1.5 0.5 0.3 1.7 0.02 0 1.7 0.02 0 0 0 0 0 0 0 0 0 0 1.5 0 0.11
1093.588 3.88 9.47 -99.36 -10.25 -5.69 -3.94 0 0 34 2 2 0 0 0 42 3.02 5.44 -5.99 1420 0.5 0 3.3 0.5 0.03 3.3 1.5 0.5 0.3 1.7 0.02 0 1.7 0.02 0 0 0 0 0 0 0 0 0 0 1.5 0 0.11
1093.688 5.02 9.87 -99.88 23.25 -1.37 -4.56 0 0 33 2 1 0 0 0 42 -23.39 3.05 -8.74 1420 0.5 0 3.3 0.5 0.03 3.3 1.5 0.5 0.3 1.7 0.02 0 1.7 0.02 0 0 0 0 0 0 0 0 0 0 1.5 0 0.11
1093.788 5.38 10.95 -100.21 -11.81 3.75 -2.19 0 0 33 2 1 0 0 0 42 7.88 -20.41 -6.44 1420 0.5 0 3.3 0.5 0.03 3.3 1.5 0.5 0.3 1.7 0.02 0 1.7 0.02 0 0 0 0 0 0 0 0 0 0 1.5 0 0.11
1093.888 4.26 11.96 -100.58 -1.12 14.25 -5.31 0 0 32 2 2 0 0 0 42 -3.24 -3.33 -14.32 1420 0.5 0 3.3 0.5 0.03 3.3 1.5 0.5 0.3 1.7 0.02 0 1.7 0.02 0 0 0 0 0 0 0 0 0 0 1.5 0 0.11
1093.988 3.23 11.67 -100.89 -21.12 -14.88 14.19 0 0 35 2 2 0 0 0 42 7.26 -2.45 -17.02 1420 0.5 0 3.3 0.5 0.03 3.3 1.5 0.5 0.3 1.7 0.02 0 1.7 0.02 0 0 0 0 0 0 0 0 0 0 1.5 0 0.11
1094.088 3.11 10.79 -101.21 16.19 -0.44 -6.75 0 0 33 2 2 0 0 0 42 -0.03 -0.42 -7.07 1420 0.5 0 3.3 0.5 0.03 3.3 1.5 0.5 0.3 1.7 0.02 0 1.7 0.02 0 0 0 0 0 0 0 0 0 0 1.5 0 0.11
1094.188 3.66 10.74 -101.47 -10.25 7.06 -7.75 0 0 35 2 1 0 0 0 42 0.88 -9.57 -9.67 1420 0.5 0 3.3 0.5 0.03 3.3 1.5 0.5 0.3 1.7 0.02 0 1.7 0.02 0 0 0 0 0 0 0 0 0 0 1.5 0 0.11
1094.288 3.75 11.54 -101.72 5.87 18.19 -17.31 0 0 35 2 2 0 0 0 42 -15.61 -22.44 -6.87 1421 0.5 0 3.3 0.5 0.03 3.3 1.5 0.5 0.3 1.7 0.02 0 1.7 0.02 0 0 0 0 0 0 0 0 0 0 1.5 0 0.11
1094.388 3.57 12.15 -101.93 1.12 -14 4.06 0 0 34 2 1 0 0 0 42 -13.09 -5.82 -7.33 1421 0.5 0 3.3 0.5 0.03 3.3 1.5 0.5 0.3 1.7 0.02 0 1.7 0.02 0 0 0 0 0 0 0 0 0 0 1.5 0 0.11
1094.488 3.61 11.43 -102.26 -7.44 -16.62 -5.87 0 0 34 2 1 0 0 0 42 20.25 -0.2 -5.35 1421 0.5 0 3.3 0.5 0.03 3.3 1.5 0.5 0.3 1.7 0.02 0 1.7 0.02 0 0 0 0 0 0 0 0 0 0 1.5 0 0.11
1094.588 3.41 10.36 -102.77 5.75 8.19 -7.44 0 0 35 2 1 0 0 0 42 -2.72 -2.14 -6.03 1421 0.5 0 3.3 0.5 0.03 3.3 1.5 0.5 0.3 1.7 0.02 0 1.7 0.02 0 0 0 0 0 0 0 0 0 0 1.5 0 0.11
1094.688 3.34 10.46 -103.21 -3.37 15.88 -4.06 0 0 33 2 1 0 0 0 42 20.37 5.87 -14.17 1421 0.5 0 3.3 0.5 0.03 3.3 1.5 0.5 0.3 1.7 0.02 0 1.7 0.02 0 0 0 0 0 0 0 0 0 0 1.5 0 0.11
1094.788 3.79 11.12 -103.51 17.19 14.5 -0.5 0 0 35 2 1 0 0 0 42 -8.64 -11.65 -7.83 1421 0.5 0 3.3 0.5 0.03 3.3 1.5 0.5 0.3 1.7 0.02 0 1.7 0.02 0 0 0 0 0 0 0 0 0 0 1.5 0 0.11
1094.888 4.5 11.59 -103.91 -2.56 0.56 -13.25 0 0 35 2 2 0 0 0 42 -15.28 2.26 -8.39 1420 0.5 0 3.3 0.5 0.03 3.3 1.5 0.5 0.3 1.7 0.02 0 1.7 0.02 0 0 0 0 0 0 0 0 0 0 1.5 0 0.11
1094.988 4.86 10.8 -104.26 -8.13 -15.06 3.44 0 0 36 2 2 0 0 0 42 14.27 11.87 -9.1 1420 0.5 0 3.3 0.5 0.03 3.3 1.5 0.5 0.3 1.7 0.02 0 1.7 0.02 0 0 0 0 0 0 0 0 0 0 1.5 0 0.11
1095.088 4.44 9.15 -104.81 4.31 -20.56 -4.75 0 0 36 2 1 0 0 0 42 -33.96 1.39 -4.25 1420 0.5 0 3.3 0.5 0.03 3.3 1.5 0.5 0.3 1.7 0.02 0 1.7 0.02 0 0 0 0 0 0 0 0 0 0 1.5 0 0.11
1095.188 3.74 8.22 -105.3 3.81 -4.19 -0.75 0 0 37 2 2 0 0 0 41 1.78 -1.51 -8.2 1419 0.5 0 3.3 0.5 0.03 3.3 1.5 0.5 0.3 1.7 0.02 0 1.7 0.02 0 0 0 0 0 0 0 0 0 0 1.5 0 0.11
1095.288 3.53 8.71 -105.56 -23 7.12 -9.38 0 0 36 2 2 0 0 0 42 16.65 -10.05 -9.3 1420 0.5 0 3.3 0.5 0.03 3.3 1.5 0.5 0.3 1.7 0.02 0 1.7 0.02 0 0 0 0 0 0 0 0 0 0 1.5 0 0.11
1095.388 3.12 9.38 -105.72 -1.12 9.88 5.12 0 0 37 1 1 0 0 0 41 8.36 -2.8 -19.1 1419 0.5 0 3.3 0.5 0.03 3.3 1.5 0.5 0.3 1.7 0.02 0 1.7 0.02 0 0 0 0 0 0 0 0 0 0 1.5 0 0.11
1095.488 2.88 9.18 -105.77 7.69 -14.56 1.62 0 0 37 1 -3 0 0 0 42 -19.27 -6.6 -14.07 1421 0.5 0 3.3 0.5 0.03 3.3 1.5 0.5 0.3 1.7 0.02 0 1.7 0.02 0 0 0 0 0 0 0 0 0 0 1.5 0 0.11
1095.588 3.45 7.05 -105.83 -6.56 -33.69 9.38 0 0 37 1 -8 0 0 0 42 -11.1 4.39 -13.61 1420 0.5 0 3.3 0.5 0.03 3.3 1.5 0.5 0.3 1.7 0.02 0 1.7 0.02 0 0 0 0 0 0 0 0 0 0 1.5 0 0.11
1095.688 4.55 4.78 -105.98 6.56 -12.25 -7.87 0 0 37 2 2 0 0 0 42 10.87 9.31 -8.22 1420 0.5 0 3.3 0.5 0.03 3.3 1.5 0.5 0.3 1.7 0.02 0 1.7 0.02 0 0 0 0 0 0 0 0 0 0 1.5 0 0.11
1095.789 5.43 5.98 -105.86 6 23.87 13.31 0 0 38 2 2 0 0 0 42 -14.41 -8.82 -23.43 1420 0.5 0 3.3 0.5 0.03 3.3 1.5 0.5 0.3 1.7 0.02 0 1.7 0.02 0 0 0 0 0 0 0 0 0 0 1.5 0 0.11
1095.888 5.48 9.5 -105.53 -5.25 36.19 6.12 0 0 39 1 2 0 0 0 42 -10.32 -26.98 -22.8 1420 0.5 0 3.3 0.5 0.03 3.3 1.5 0.5 0.3 1.7 0.02 0 1.7 0.02 0 0 0 0 0 0 0 0 0 0 1.5 0 0.11
1095.988 3.77 11.94 -105.37 -13.69 6.62 -0.06 0 0 38 1 2 0 0 0 41 29.69 13.72 -17.18 1419 0.5 0 3.3 0.5 0.03 3.3 1.5 0.5 0.3 1.7 0.02 0 1.7 0.02 0 0 0 0 0 0 0 0 0 0 1.5 0 0.11
1096.088 1.99 10.49 -105.59 0.88 -20.12 -2.56 0 0 39 1 2 0 0 0 42 5.34 11.61 -10.4 1420 0.5 0 3.3 0.5 0.03 3.3 1.5 0.5 0.3 1.7 0.02 0 1.7 0.02 0 0 0 0 0 0 0 0 0 0 1.5 0 0.11
1096.188 1.42 8.55 -106.25 -12.25 -14.38 0.69 0 0 40 1 2 0 0 0 42 -0.98 -1.67 -8.44 1420 0.5 0 3.3 0.5 0.03 3.3 1.5 0.5 0.3 1.7 0.02 0 1.7 0.02 0 0 0 0 0 0 0 0 0 0 1.5 0 0.11
1096.288 2.57 9.53 -106.74 28.37 21.69 -2.44 0 0 40 1 2 0 0 0 42 -1.9 -12.59 -10.6 1420 0.5 0 3.3 0.5 0.03 3.3 1.5 0.5 0.3 1.7 0.02 0 1.7 0.02 0 0 0 0 0 0 0 0 0 0 1.5 0 0.11
1096.389 4.1 11.35 -107 20 30.81 -22.19 0 0 38 1 2 0 0 0 41 -31.98 -31.97 -7.75 1419 0.5 0 3.3 0.5 0.03 3.3 1.5 0.5 0.3 1.7 0.02 0 1.7 0.02 0 0 0 0 0 0 0 0 0 0 1.5 0 0.11
1096.489 4.14 11.84 -107.29 -36.19 -1.69 -5.75 0 0 38 2 2 0 0 0 42 5.95 -4.29 -12.4 1420 0.5 0 3.3 0.5 0.03 3.3 1.5 0.5 0.3 1.7 0.02 0 1.7 0.02 0 0 0 0 0 0 0 0 0 0 1.5 0 0.11
1096.588 2.56 9.95 -107.6 -33.69 -43.44 -2.06 0 0 39 1 1 0 0 0 42 10.63 15.64 -13.59 1420 0.5 0 3.3 0.5 0.03 3.3 1.5 0.5 0.3 1.7 0.02 0 1.7 0.02 0 0 0 0 0 0 0 0 0 0 1.5 0 0.11
1096.689 1.48 6.87 -107.69 -4.06 -33.25 0.94 0 0 38 1 1 0 0 0 42 -3.86 7.3 -17.66 1420 0.5 0 3.3 0.5 0.03 3.3 1.5 0.5 0.3 1.7 0.02 0 1.7 0.02 0 0 0 0 0 0 0 0 0 0 1.5 0 0.11
1096.793 2.45 6.58 -107.54 38.88 18.87 -9.81 0 0 40 2 1 0 0 0 42 -14.52 -21.46 -16.78 1420 0.5 0 3.3 0.5 0.03 3.3 1.5 0.5 0.3 1.7 0.02 0 1.7 0.02 0 0 0 0 0 0 0 0 0 0 1.5 0 0.11
1096.893 3.78 8.36 -107.53 44.75 24.19 2.19 0 0 40 2 1 0 0 0 42 -35.62 -30.92 -19.36 1420 0.5 0 3.3 0.5 0.03 3.3 1.5 0.5 0.3 1.7 0.02 0 1.7 0.02 0 0 0 0 0 0 0 0 0 0 1.5 0 0.11
