time roll pitch yaw roll_d pitch_d yaw_d longitude latitude height roll_t pitch_t yaw_t longitude_t latitude_t height_t roll_signal pitch_signal yaw_signal throttle Kp_r_d Ki_r_d Kd_r_d Kp_p_d Ki_p_d Kd_p_d Kp_y_d Ki_y_d Kd_y_d Kp_r Ki_r Kd_r Kp_p Ki_p Kd_p Kp_y Ki_y Kd_y Kp_lon Ki_lon Kd_lon Kp_lat Ki_lat Kd_lat Kp_h Ki_h Kd_h
0 0 0 0 0 0 0 0 0 0 0 0 0 0 0 25 0 0 0 1250 0.5 0.1 0.3 0.5 0.1 0.3 1.5 0.5 0.3 1.7 0 0 1.7 0 0 0 0 0 0 0 0 0 0 0 1.5 0 0.11
0 0 0 0 0 0 0 0 0 0 0 0 0 0 0 25 0 0 0 1250 0.5 0.1 0.3 0.5 0.1 0.3 1.5 0.5 0.3 1.7 0 0 1.7 0 0 0 0 0 0 0 0 0 0 0 1.5 0 0.11
0 0 0 0 0 0 0 0 0 0 0 0 0 0 0 25 0 0 0 1250 0.5 0.1 0.3 0.5 0.1 0.3 1.5 0.5 0.3 1.7 0 0 1.7 0 0 0 0 0 0 0 0 0 0 0 1.5 0 0.11
0 0 0 0 0 0 0 0 0 0 0 0 0 0 0 25 0 0 0 1250 0.5 0.1 0.3 0.5 0.1 0.3 1.5 0.5 0.3 1.7 0 0 1.7 0 0 0 0 0 0 0 0 0 0 0 1.5 0 0.11
0 0 0 0 0 0 0 0 0 0 0 0 0 0 0 25 0 0 0 1250 0.5 0.1 0.3 0.5 0.1 0.3 1.5 0.5 0.3 1.7 0 0 1.7 0 0 0 0 0 0 0 0 0 0 0 1.5 0 0.11
0 0 0 0 0 0 0 0 0 0 0 0 0 0 0 25 0 0 0 1250 0.5 0.1 0.3 0.5 0.1 0.3 1.5 0.5 0.3 1.7 0 0 1.7 0 0 0 0 0 0 0 0 0 0 0 1.5 0 0.11
0 0 0 0 0 0 0 0 0 0 0 0 0 0 0 25 0 0 0 1250 0.5 0.1 0.3 0.5 0.1 0.3 1.5 0.5 0.3 1.7 0 0 1.7 0 0 0 0 0 0 0 0 0 0 0 1.5 0 0.11
0 0 0 0 0 0 0 0 0 0 0 0 0 0 0 25 0 0 0 1250 0.5 0.1 0.3 0.5 0.1 0.3 1.5 0.5 0.3 1.7 0 0 1.7 0 0 0 0 0 0 0 0 0 0 0 1.5 0 0.11
0 0 0 0 0 0 0 0 0 0 0 0 0 0 0 25 0 0 0 1250 0.5 0.1 0.3 0.5 0.1 0.3 1.5 0.5 0.3 1.7 0 0 1.7 0 0 0 0 0 0 0 0 0 0 0 1.5 0 0.11
0 0 0 0 0 0 0 0 0 0 0 0 0 0 0 25 0 0 0 1250 0.5 0.1 0.3 0.5 0.1 0.3 1.5 0.5 0.3 1.7 0 0 1.7 0 0 0 0 0 0 0 0 0 0 0 1.5 0 0.11
0 0 0 0 0 0 0 0 0 0 0 0 0 0 0 25 0 0 0 1250 0.5 0.1 0.3 0.5 0.1 0.3 1.5 0.5 0.3 1.7 0 0 1.7 0 0 0 0 0 0 0 0 0 0 0 1.5 0 0.11
0 0 0 0 0 0 0 0 0 0 0 0 0 0 0 25 0 0 0 1250 0.5 0.1 0.3 0.5 0.1 0.3 1.5 0.5 0.3 1.7 0 0 1.7 0 0 0 0 0 0 0 0 0 0 0 1.5 0 0.11
0 0 0 0 0 0 0 0 0 0 0 0 0 0 0 25 0 0 0 1250 0.5 0.1 0.3 0.5 0.1 0.3 1.5 0.5 0.3 1.7 0 0 1.7 0 0 0 0 0 0 0 0 0 0 0 1.5 0 0.11
0 0 0 0 0 0 0 0 0 0 0 0 0 0 0 25 0 0 0 1250 0.5 0.1 0.3 0.5 0.1 0.3 1.5 0.5 0.3 1.7 0 0 1.7 0 0 0 0 0 0 0 0 0 0 0 1.5 0 0.11
0 0 0 0 0 0 0 0 0 0 0 0 0 0 0 25 0 0 0 1250 0.5 0.1 0.3 0.5 0.1 0.3 1.5 0.5 0.3 1.7 0 0 1.7 0 0 0 0 0 0 0 0 0 0 0 1.5 0 0.11
0 0 0 0 0 0 0 0 0 0 0 0 0 0 0 25 0 0 0 1250 0.5 0.1 0.3 0.5 0.1 0.3 1.5 0.5 0.3 1.7 0 0 1.7 0 0 0 0 0 0 0 0 0 0 0 1.5 0 0.11
0 0 0 0 0 0 0 0 0 0 0 0 0 0 0 25 0 0 0 1250 0.5 0.1 0.3 0.5 0.1 0.3 1.5 0.5 0.3 1.7 0 0 1.7 0 0 0 0 0 0 0 0 0 0 0 1.5 0 0.11
0 0 0 0 0 0 0 0 0 0 0 0 0 0 0 25 0 0 0 1250 0.5 0.1 0.3 0.5 0.1 0.3 1.5 0.5 0.3 1.7 0 0 1.7 0 0 0 0 0 0 0 0 0 0 0 1.5 0 0.11
0 0 0 0 0 0 0 0 0 0 0 0 0 0 0 25 0 0 0 1250 0.5 0.1 0.3 0.5 0.1 0.3 1.5 0.5 0.3 1.7 0 0 1.7 0 0 0 0 0 0 0 0 0 0 0 1.5 0 0.11
0 0 0 0 0 0 0 0 0 0 0 0 0 0 0 25 0 0 0 1250 0.5 0.1 0.3 0.5 0.1 0.3 1.5 0.5 0.3 1.7 0 0 1.7 0 0 0 0 0 0 0 0 0 0 0 1.5 0 0.11
0 0 0 0 0 0 0 0 0 0 0 0 0 0 0 25 0 0 0 1250 0.5 0.1 0.3 0.5 0.1 0.3 1.5 0.5 0.3 1.7 0 0 1.7 0 0 0 0 0 0 0 0 0 0 0 1.5 0 0.11
0 0 0 0 0 0 0 0 0 0 0 0 0 0 0 25 0 0 0 1250 0.5 0.1 0.3 0.5 0.1 0.3 1.5 0.5 0.3 1.7 0 0 1.7 0 0 0 0 0 0 0 0 0 0 0 1.5 0 0.11
0 0 0 0 0 0 0 0 0 0 0 0 0 0 0 25 0 0 0 1250 0.5 0.1 0.3 0.5 0.1 0.3 1.5 0.5 0.3 1.7 0 0 1.7 0 0 0 0 0 0 0 0 0 0 0 1.5 0 0.11
0 0 0 0 0 0 0 0 0 0 0 0 0 0 0 25 0 0 0 1250 0.5 0.1 0.3 0.5 0.1 0.3 1.5 0.5 0.3 1.7 0 0 1.7 0 0 0 0 0 0 0 0 0 0 0 1.5 0 0.11
0 0 0 0 0 0 0 0 0 0 0 0 0 0 0 25 0 0 0 1250 0.5 0.1 0.3 0.5 0.1 0.3 1.5 0.5 0.3 1.7 0 0 1.7 0 0 0 0 0 0 0 0 0 0 0 1.5 0 0.11
0 0 0 0 0 0 0 0 0 0 0 0 0 0 0 25 0 0 0 1250 0.5 0.1 0.3 0.5 0.1 0.3 1.5 0.5 0.3 1.7 0 0 1.7 0 0 0 0 0 0 0 0 0 0 0 1.5 0 0.11
0 0 0 0 0 0 0 0 0 0 0 0 0 0 0 25 0 0 0 1250 0.5 0.1 0.3 0.5 0.1 0.3 1.5 0.5 0.3 1.7 0 0 1.7 0 0 0 0 0 0 0 0 0 0 0 1.5 0 0.11
0 0 0 0 0 0 0 0 0 0 0 0 0 0 0 25 0 0 0 1250 0.5 0.1 0.3 0.5 0.1 0.3 1.5 0.5 0.3 1.7 0 0 1.7 0 0 0 0 0 0 0 0 0 0 0 1.5 0 0.11
0 0 0 0 0 0 0 0 0 0 0 0 0 0 0 25 0 0 0 1250 0.5 0.1 0.3 0.5 0.1 0.3 1.5 0.5 0.3 1.7 0 0 1.7 0 0 0 0 0 0 0 0 0 0 0 1.5 0 0.11
0 0 0 0 0 0 0 0 0 0 0 0 0 0 0 25 0 0 0 1250 0.5 0.1 0.3 0.5 0.1 0.3 1.5 0.5 0.3 1.7 0 0 1.7 0 0 0 0 0 0 0 0 0 0 0 1.5 0 0.11
0 0 0 0 0 0 0 0 0 0 0 0 0 0 0 25 0 0 0 1250 0.5 0.1 0.3 0.5 0.1 0.3 1.5 0.5 0.3 1.7 0 0 1.7 0 0 0 0 0 0 0 0 0 0 0 1.5 0 0.11
0 0 0 0 0 0 0 0 0 0 0 0 0 0 0 25 0 0 0 1250 0.5 0.1 0.3 0.5 0.1 0.3 1.5 0.5 0.3 1.7 0 0 1.7 0 0 0 0 0 0 0 0 0 0 0 1.5 0 0.11
0 0 0 0 0 0 0 0 0 0 0 0 0 0 0 25 0 0 0 1250 0.5 0.1 0.3 0.5 0.1 0.3 1.5 0.5 0.3 1.7 0 0 1.7 0 0 0 0 0 0 0 0 0 0 0 1.5 0 0.11
0 0 0 0 0 0 0 0 0 0 0 0 0 0 0 25 0 0 0 1250 0.5 0.1 0.3 0.5 0.1 0.3 1.5 0.5 0.3 1.7 0 0 1.7 0 0 0 0 0 0 0 0 0 0 0 1.5 0 0.11
0 0 0 0 0 0 0 0 0 0 0 0 0 0 0 25 0 0 0 1250 0.5 0.1 0.3 0.5 0.1 0.3 1.5 0.5 0.3 1.7 0 0 1.7 0 0 0 0 0 0 0 0 0 0 0 1.5 0 0.11
0 0 0 0 0 0 0 0 0 0 0 0 0 0 0 25 0 0 0 1250 0.5 0.1 0.3 0.5 0.1 0.3 1.5 0.5 0.3 1.7 0 0 1.7 0 0 0 0 0 0 0 0 0 0 0 1.5 0 0.11
0 0 0 0 0 0 0 0 0 0 0 0 0 0 0 25 0 0 0 1250 0.5 0.1 0.3 0.5 0.1 0.3 1.5 0.5 0.3 1.7 0 0 1.7 0 0 0 0 0 0 0 0 0 0 0 1.5 0 0.11
0 0 0 0 0 0 0 0 0 0 0 0 0 0 0 25 0 0 0 1250 0.5 0.1 0.3 0.5 0.1 0.3 1.5 0.5 0.3 1.7 0 0 1.7 0 0 0 0 0 0 0 0 0 0 0 1.5 0 0.11
0 0 0 0 0 0 0 0 0 0 0 0 0 0 0 25 0 0 0 1250 0.5 0.1 0.3 0.5 0.1 0.3 1.5 0.5 0.3 1.7 0 0 1.7 0 0 0 0 0 0 0 0 0 0 0 1.5 0 0.11
0 0 0 0 0 0 0 0 0 0 0 0 0 0 0 25 0 0 0 1250 0.5 0.1 0.3 0.5 0.1 0.3 1.5 0.5 0.3 1.7 0 0 1.7 0 0 0 0 0 0 0 0 0 0 0 1.5 0 0.11
0 0 0 0 0 0 0 0 0 0 0 0 0 0 0 25 0 0 0 1250 0.5 0.1 0.3 0.5 0.1 0.3 1.5 0.5 0.3 1.7 0 0 1.7 0 0 0 0 0 0 0 0 0 0 0 1.5 0 0.11
0 0 0 0 0 0 0 0 0 0 0 0 0 0 0 25 0 0 0 1250 0.5 0 3.3 0.5 0.03 3.3 1.5 0.5 0.3 1.7 0 0 1.7 0 0 0 0 0 0 0 0 0 0 0 1.5 0 0.11
0 0 0 0 0 0 0 0 0 0 0 0 0 0 0 25 0 0 0 1250 0.5 0 3.3 0.5 0.03 3.3 1.5 0.5 0.3 1.7 0 0 1.7 0 0 0 0 0 0 0 0 0 0 0 1.5 0 0.11
0 0 0 0 0 0 0 0 0 0 0 0 0 0 0 25 0 0 0 1250 0.5 0 3.3 0.5 0.03 3.3 1.5 0.5 0.3 1.7 0 0 1.7 0 0 0 0 0 0 0 0 0 0 0 1.5 0 0.11
0 0 0 0 0 0 0 0 0 0 0 0 0 0 0 25 0 0 0 1250 0.5 0 3.3 0.5 0.03 3.3 1.5 0.5 0.3 1.7 0 0 1.7 0 0 0 0 0 0 0 0 0 0 0 1.5 0 0.11
0 0 0 0 0 0 0 0 0 0 0 0 0 0 0 25 0 0 0 1250 0.5 0 3.3 0.5 0.03 3.3 1.5 0.5 0.3 1.7 0 0 1.7 0 0 0 0 0 0 0 0 0 0 0 1.5 0 0.11
0 0 0 0 0 0 0 0 0 0 0 0 0 0 0 25 0 0 0 1250 0.5 0 3.3 0.5 0.03 3.3 1.5 0.5 0.3 1.7 0 0 1.7 0 0 0 0 0 0 0 0 0 0 0 1.5 0 0.11
0 0 0 0 0 0 0 0 0 0 0 0 0 0 0 25 0 0 0 1250 0.5 0 3.3 0.5 0.03 3.3 1.5 0.5 0.3 1.7 0 0 1.7 0 0 0 0 0 0 0 0 0 0 0 1.5 0 0.11
0 0 0 0 0 0 0 0 0 0 0 0 0 0 0 25 0 0 0 1250 0.5 0 3.3 0.5 0.03 3.3 1.5 0.5 0.3 1.7 0 0 1.7 0 0 0 0 0 0 0 0 0 0 0 1.5 0 0.11
0 0 0 0 0 0 0 0 0 0 0 0 0 0 0 25 0 0 0 1250 0.5 0 3.3 0.5 0.03 3.3 1.5 0.5 0.3 1.7 0 0 1.7 0 0 0 0 0 0 0 0 0 0 0 1.5 0 0.11
0 0 0 0 0 0 0 0 0 0 0 0 0 0 0 25 0 0 0 1250 0.5 0 3.3 0.5 0.03 3.3 1.5 0.5 0.3 1.7 0 0 1.7 0 0 0 0 0 0 0 0 0 0 0 1.5 0 0.11
0 0 0 0 0 0 0 0 0 0 0 0 0 0 0 25 0 0 0 1250 0.5 0 3.3 0.5 0.03 3.3 1.5 0.5 0.3 1.7 0 0 1.7 0 0 0 0 0 0 0 0 0 0 0 1.5 0 0.11
0 0 0 0 0 0 0 0 0 0 0 0 0 0 0 25 0 0 0 1250 0.5 0 3.3 0.5 0.03 3.3 1.5 0.5 0.3 1.7 0 0 1.7 0 0 0 0 0 0 0 0 0 0 0 1.5 0 0.11
0 0 0 0 0 0 0 0 0 0 0 0 0 0 0 25 0 0 0 1250 0.5 0 3.3 0.5 0.03 3.3 1.5 0.5 0.3 1.7 0 0 1.7 0 0 0 0 0 0 0 0 0 0 0 1.5 0 0.11
0 0 0 0 0 0 0 0 0 0 0 0 0 0 0 25 0 0 0 1250 0.5 0 3.3 0.5 0.03 3.3 1.5 0.5 0.3 1.7 0 0 1.7 0 0 0 0 0 0 0 0 0 0 0 1.5 0 0.11
0 0 0 0 0 0 0 0 0 0 0 0 0 0 0 25 0 0 0 1250 0.5 0 3.3 0.5 0.03 3.3 1.5 0.5 0.3 1.7 0 0 1.7 0 0 0 0 0 0 0 0 0 0 0 1.5 0 0.11
0 0 0 0 0 0 0 0 0 0 0 0 0 0 0 25 0 0 0 1250 0.5 0 3.3 0.5 0.03 3.3 1.5 0.5 0.3 1.7 0 0 1.7 0 0 0 0 0 0 0 0 0 0 0 1.5 0 0.11
0 0 0 0 0 0 0 0 0 0 0 0 0 0 0 25 0 0 0 1250 0.5 0 3.3 0.5 0.03 3.3 1.5 0.5 0.3 1.7 0 0 1.7 0 0 0 0 0 0 0 0 0 0 0 1.5 0 0.11
0 0 0 0 0 0 0 0 0 0 0 0 0 0 0 25 0 0 0 1250 0.5 0 3.3 0.5 0.03 3.3 1.5 0.5 0.3 1.7 0 0 1.7 0 0 0 0 0 0 0 0 0 0 0 1.5 0 0.11
0 0 0 0 0 0 0 0 0 0 0 0 0 0 0 25 0 0 0 1250 0.5 0 3.3 0.5 0.03 3.3 1.5 0.5 0.3 1.7 0 0 1.7 0 0 0 0 0 0 0 0 0 0 0 1.5 0 0.11
0 0 0 0 0 0 0 0 0 0 0 0 0 0 0 25 0 0 0 1250 0.5 0 3.3 0.5 0.03 3.3 1.5 0.5 0.3 1.7 0 0 1.7 0 0 0 0 0 0 0 0 0 0 0 1.5 0 0.11
0 0 0 0 0 0 0 0 0 0 0 0 0 0 0 25 0 0 0 1250 0.5 0 3.3 0.5 0.03 3.3 1.5 0.5 0.3 1.7 0 0 1.7 0 0 0 0 0 0 0 0 0 0 0 1.5 0 0.11
0 0 0 0 0 0 0 0 0 0 0 0 0 0 0 25 0 0 0 1250 0.5 0 3.3 0.5 0.03 3.3 1.5 0.5 0.3 1.7 0 0 1.7 0 0 0 0 0 0 0 0 0 0 0 1.5 0 0.11
0 0 0 0 0 0 0 0 0 0 0 0 0 0 0 25 0 0 0 1250 0.5 0 3.3 0.5 0.03 3.3 1.5 0.5 0.3 1.7 0 0 1.7 0 0 0 0 0 0 0 0 0 0 0 1.5 0 0.11
0 0 0 0 0 0 0 0 0 0 0 0 0 0 0 25 0 0 0 1250 0.5 0 3.3 0.5 0.03 3.3 1.5 0.5 0.3 1.7 0 0 1.7 0 0 0 0 0 0 0 0 0 0 0 1.5 0 0.11
0 0 0 0 0 0 0 0 0 0 0 0 0 0 0 25 0 0 0 1250 0.5 0 3.3 0.5 0.03 3.3 1.5 0.5 0.3 1.7 0 0 1.7 0 0 0 0 0 0 0 0 0 0 0 1.5 0 0.11
0 0 0 0 0 0 0 0 0 0 0 0 0 0 0 25 0 0 0 1250 0.5 0 3.3 0.5 0.03 3.3 1.5 0.5 0.3 1.7 0 0 1.7 0 0 0 0 0 0 0 0 0 0 0 1.5 0 0.11
0 0 0 0 0 0 0 0 0 0 0 0 0 0 0 25 0 0 0 1250 0.5 0 3.3 0.5 0.03 3.3 1.5 0.5 0.3 1.7 0 0 1.7 0 0 0 0 0 0 0 0 0 0 0 1.5 0 0.11
0 0 0 0 0 0 0 0 0 0 0 0 0 0 0 25 0 0 0 1250 0.5 0 3.3 0.5 0.03 3.3 1.5 0.5 0.3 1.7 0 0 1.7 0 0 0 0 0 0 0 0 0 0 0 1.5 0 0.11
0 0 0 0 0 0 0 0 0 0 0 0 0 0 0 25 0 0 0 1250 0.5 0 3.3 0.5 0.03 3.3 1.5 0.5 0.3 1.7 0 0 1.7 0 0 0 0 0 0 0 0 0 0 0 1.5 0 0.11
0 0 0 0 0 0 0 0 0 0 0 0 0 0 0 25 0 0 0 1250 0.5 0 3.3 0.5 0.03 3.3 1.5 0.5 0.3 1.7 0.02 0 1.7 0.02 0 0 0 0 0 0 0 0 0 0 1.5 0 0.11
0 0 0 0 0 0 0 0 0 0 0 0 0 0 0 25 0 0 0 1250 0.5 0 3.3 0.5 0.03 3.3 1.5 0.5 0.3 1.7 0.02 0 1.7 0.02 0 0 0 0 0 0 0 0 0 0 1.5 0 0.11
0 0 0 0 0 0 0 0 0 0 0 0 0 0 0 25 0 0 0 1250 0.5 0 3.3 0.5 0.03 3.3 1.5 0.5 0.3 1.7 0.02 0 1.7 0.02 0 0 0 0 0 0 0 0 0 0 1.5 0 0.11
0 0 0 0 0 0 0 0 0 0 0 0 0 0 0 25 0 0 0 1250 0.5 0 3.3 0.5 0.03 3.3 1.5 0.5 0.3 1.7 0.02 0 1.7 0.02 0 0 0 0 0 0 0 0 0 0 1.5 0 0.11
0 0 0 0 0 0 0 0 0 0 0 0 0 0 0 25 0 0 0 1250 0.5 0 3.3 0.5 0.03 3.3 1.5 0.5 0.3 1.7 0.02 0 1.7 0.02 0 0 0 0 0 0 0 0 0 0 1.5 0 0.11
0 0 0 0 0 0 0 0 0 0 0 0 0 0 0 25 0 0 0 1250 0.5 0 3.3 0.5 0.03 3.3 1.5 0.5 0.3 1.7 0.02 0 1.7 0.02 0 0 0 0 0 0 0 0 0 0 1.5 0 0.11
0 0 0 0 0 0 0 0 0 0 0 0 0 0 0 25 0 0 0 1250 0.5 0 3.3 0.5 0.03 3.3 1.5 0.5 0.3 1.7 0.02 0 1.7 0.02 0 0 0 0 0 0 0 0 0 0 1.5 0 0.11
0 0 0 0 0 0 0 0 0 0 0 0 0 0 0 25 0 0 0 1250 0.5 0 3.3 0.5 0.03 3.3 1.5 0.5 0.3 1.7 0.02 0 1.7 0.02 0 0 0 0 0 0 0 0 0 0 1.5 0 0.11
0 0 0 0 0 0 0 0 0 0 0 0 0 0 0 25 0 0 0 1250 0.5 0 3.3 0.5 0.03 3.3 1.5 0.5 0.3 1.7 0.02 0 1.7 0.02 0 0 0 0 0 0 0 0 0 0 1.5 0 0.11
0 0 0 0 0 0 0 0 0 0 0 0 0 0 0 25 0 0 0 1250 0.5 0 3.3 0.5 0.03 3.3 1.5 0.5 0.3 1.7 0.02 0 1.7 0.02 0 0 0 0 0 0 0 0 0 0 1.5 0 0.11
0 0 0 0 0 0 0 0 0 0 0 0 0 0 0 25 0 0 0 1250 0.5 0 3.3 0.5 0.03 3.3 1.5 0.5 0.3 1.7 0.02 0 1.7 0.02 0 0 0 0 0 0 0 0 0 0 1.5 0 0.11
0 0 0 0 0 0 0 0 0 0 0 0 0 0 0 25 0 0 0 1250 0.5 0 3.3 0.5 0.03 3.3 1.5 0.5 0.3 1.7 0.02 0 1.7 0.02 0 0 0 0 0 0 0 0 0 0 1.5 0 0.11
0 0 0 0 0 0 0 0 0 0 0 0 0 0 0 25 0 0 0 1250 0.5 0 3.3 0.5 0.03 3.3 1.5 0.5 0.3 1.7 0.02 0 1.7 0.02 0 0 0 0 0 0 0 0 0 0 1.5 0 0.11
0 0 0 0 0 0 0 0 0 0 0 0 0 0 0 25 0 0 0 1250 0.5 0 3.3 0.5 0.03 3.3 1.5 0.5 0.3 1.7 0.02 0 1.7 0.02 0 0 0 0 0 0 0 0 0 0 1.5 0 0.11
0 0 0 0 0 0 0 0 0 0 0 0 0 0 0 25 0 0 0 1250 0.5 0 3.3 0.5 0.03 3.3 1.5 0.5 0.3 1.7 0.02 0 1.7 0.02 0 0 0 0 0 0 0 0 0 0 1.5 0 0.11
0 0 0 0 0 0 0 0 0 0 0 0 0 0 0 25 0 0 0 1250 0.5 0 3.3 0.5 0.03 3.3 1.5 0.5 0.3 1.7 0.02 0 1.7 0.02 0 0 0 0 0 0 0 0 0 0 1.5 0 0.11
0 0 0 0 0 0 0 0 0 0 0 0 0 0 0 25 0 0 0 1250 0.5 0 3.3 0.5 0.03 3.3 1.5 0.5 0.3 1.7 0.02 0 1.7 0.02 0 0 0 0 0 0 0 0 0 0 1.5 0 0.11
0 0 0 0 0 0 0 0 0 0 0 0 0 0 0 25 0 0 0 1250 0.5 0 3.3 0.5 0.03 3.3 1.5 0.5 0.3 1.7 0.02 0 1.7 0.02 0 0 0 0 0 0 0 0 0 0 1.5 0 0.11
0 0 0 0 0 0 0 0 0 0 0 0 0 0 0 25 0 0 0 1250 0.5 0 3.3 0.5 0.03 3.3 1.5 0.5 0.3 1.7 0.02 0 1.7 0.02 0 0 0 0 0 0 0 0 0 0 1.5 0 0.11
0 0 0 0 0 0 0 0 0 0 0 0 0 0 0 25 0 0 0 1250 0.5 0 3.3 0.5 0.03 3.3 1.5 0.5 0.3 1.7 0.02 0 1.7 0.02 0 0 0 0 0 0 0 0 0 0 1.5 0 0.11
0 0 0 0 0 0 0 0 0 0 0 0 0 0 0 25 0 0 0 1250 0.5 0 3.3 0.5 0.03 3.3 1.5 0.5 0.3 1.7 0.02 0 1.7 0.02 0 0 0 0 0 0 0 0 0 0 1.5 0 0.11
0 0 0 0 0 0 0 0 0 0 0 0 0 0 0 25 0 0 0 1250 0.5 0 3.3 0.5 0.03 3.3 1.5 0.5 0.3 1.7 0.02 0 1.7 0.02 0 0 0 0 0 0 0 0 0 0 1.5 0 0.11
0 0 0 0 0 0 0 0 0 0 0 0 0 0 0 25 0 0 0 1250 0.5 0 3.3 0.5 0.03 3.3 1.5 0.5 0.3 1.7 0.02 0 1.7 0.02 0 0 0 0 0 0 0 0 0 0 1.5 0 0.11
0 0 0 0 0 0 0 0 0 0 0 0 0 0 0 25 0 0 0 1250 0.5 0 3.3 0.5 0.03 3.3 1.5 0.5 0.3 1.7 0.02 0 1.7 0.02 0 0 0 0 0 0 0 0 0 0 1.5 0 0.11
0 0 0 0 0 0 0 0 0 0 0 0 0 0 0 25 0 0 0 1250 0.5 0 3.3 0.5 0.03 3.3 1.5 0.5 0.3 1.7 0.02 0 1.7 0.02 0 0 0 0 0 0 0 0 0 0 1.5 0 0.11
0 0 0 0 0 0 0 0 0 0 0 0 0 0 0 25 0 0 0 1250 0.5 0 3.3 0.5 0.03 3.3 1.5 0.5 0.3 1.7 0.02 0 1.7 0.02 0 0 0 0 0 0 0 0 0 0 1.5 0 0.11
0 0 0 0 0 0 0 0 0 0 0 0 0 0 0 25 0 0 0 1250 0.5 0 3.3 0.5 0.03 3.3 1.5 0.5 0.3 1.7 0.02 0 1.7 0.02 0 0 0 0 0 0 0 0 0 0 1.5 0 0.11
0 0 0 0 0 0 0 0 0 0 0 0 0 0 0 25 0 0 0 1250 0.5 0 3.3 0.5 0.03 3.3 1.5 0.5 0.3 1.7 0.02 0 1.7 0.02 0 0 0 0 0 0 0 0 0 0 1.5 0 0.11
0 0 0 0 0 0 0 0 0 0 0 0 0 0 0 25 0 0 0 1250 0.5 0 3.3 0.5 0.03 3.3 1.5 0.5 0.3 1.7 0.02 0 1.7 0.02 0 0 0 0 0 0 0 0 0 0 1.5 0 0.11
0 0 0 0 0 0 0 0 0 0 0 0 0 0 0 25 0 0 0 1250 0.5 0 3.3 0.5 0.03 3.3 1.5 0.5 0.3 1.7 0.02 0 1.7 0.02 0 0 0 0 0 0 0 0 0 0 1.5 0 0.11
0 0 0 0 0 0 0 0 0 0 0 0 0 0 0 25 0 0 0 1250 0.5 0 3.3 0.5 0.03 3.3 1.5 0.5 0.3 1.7 0.02 0 1.7 0.02 0 0 0 0 0 0 0 0 0 0 1.5 0 0.11
0 0 0 0 0 0 0 0 0 0 0 0 0 0 0 25 0 0 0 1250 0.5 0 3.3 0.5 0.03 3.3 1.5 0.5 0.3 1.7 0.02 0 1.7 0.02 0 0 0 0 0 0 0 0 0 0 1.5 0 0.11
0 0 0 0 0 0 0 0 0 0 0 0 0 0 0 25 0 0 0 1250 0.5 0 3.3 0.5 0.03 3.3 1.5 0.5 0.3 1.7 0.02 0 1.7 0.02 0 0 0 0 0 0 0 0 0 0 1.5 0 0.11
0 0 0 0 0 0 0 0 0 0 0 0 0 0 0 25 0 0 0 1250 0.5 0 3.3 0.5 0.03 3.3 1.5 0.5 0.3 1.7 0.02 0 1.7 0.02 0 0 0 0 0 0 0 0 0 0 1.5 0 0.11
0 0 0 0 0 0 0 0 0 0 0 0 0 0 0 25 0 0 0 1250 0.5 0 3.3 0.5 0.03 3.3 1.5 0.5 0.3 1.7 0.02 0 1.7 0.02 0 0 0 0 0 0 0 0 0 0 1.5 0 0.11
0 0 0 0 0 0 0 0 0 0 0 0 0 0 0 25 0 0 0 1250 0.5 0 3.3 0.5 0.03 3.3 1.5 0.5 0.3 1.7 0.02 0 1.7 0.02 0 0 0 0 0 0 0 0 0 0 1.5 0 0.11
0 0 0 0 0 0 0 0 0 0 0 0 0 0 0 25 0 0 0 1250 0.5 0 3.3 0.5 0.03 3.3 1.5 0.5 0.3 1.7 0.02 0 1.7 0.02 0 0 0 0 0 0 0 0 0 0 1.5 0 0.11
0 0 0 0 0 0 0 0 0 0 0 0 0 0 0 25 0 0 0 1250 0.5 0 3.3 0.5 0.03 3.3 1.5 0.5 0.3 1.7 0.02 0 1.7 0.02 0 0 0 0 0 0 0 0 0 0 1.5 0 0.11
0 0 0 0 0 0 0 0 0 0 0 0 0 0 0 25 0 0 0 1250 0.5 0 3.3 0.5 0.03 3.3 1.5 0.5 0.3 1.7 0.02 0 1.7 0.02 0 0 0 0 0 0 0 0 0 0 1.5 0 0.11
0 0 0 0 0 0 0 0 0 0 0 0 0 0 0 25 0 0 0 1250 0.5 0 3.3 0.5 0.03 3.3 1.5 0.5 0.3 1.7 0.02 0 1.7 0.02 0 0 0 0 0 0 0 0 0 0 1.5 0 0.11
0 0 0 0 0 0 0 0 0 0 0 0 0 0 0 25 0 0 0 1250 0.5 0 3.3 0.5 0.03 3.3 1.5 0.5 0.3 1.7 0.02 0 1.7 0.02 0 0 0 0 0 0 0 0 0 0 1.5 0 0.11
0 0 0 0 0 0 0 0 0 0 0 0 0 0 0 25 0 0 0 1250 0.5 0 3.3 0.5 0.03 3.3 1.5 0.5 0.3 1.7 0.02 0 1.7 0.02 0 0 0 0 0 0 0 0 0 0 1.5 0 0.11
0 0 0 0 0 0 0 0 0 0 0 0 0 0 0 25 0 0 0 1250 0.5 0 3.3 0.5 0.03 3.3 1.5 0.5 0.3 1.7 0.02 0 1.7 0.02 0 0 0 0 0 0 0 0 0 0 1.5 0 0.11
0 0 0 0 0 0 0 0 0 0 0 0 0 0 0 25 0 0 0 1250 0.5 0 3.3 0.5 0.03 3.3 1.5 0.5 0.3 1.7 0.02 0 1.7 0.02 0 0 0 0 0 0 0 0 0 0 1.5 0 0.11
0 0 0 0 0 0 0 0 0 0 0 0 0 0 0 25 0 0 0 1250 0.5 0 3.3 0.5 0.03 3.3 1.5 0.5 0.3 1.7 0.02 0 1.7 0.02 0 0 0 0 0 0 0 0 0 0 1.5 0 0.11
0 0 0 0 0 0 0 0 0 0 0 0 0 0 0 25 0 0 0 1250 0.5 0 3.3 0.5 0.03 3.3 1.5 0.5 0.3 1.7 0.02 0 1.7 0.02 0 0 0 0 0 0 0 0 0 0 1.5 0 0.11
0 0 0 0 0 0 0 0 0 0 0 0 0 0 0 25 0 0 0 1250 0.5 0 3.3 0.5 0.03 3.3 1.5 0.5 0.3 1.7 0.02 0 1.7 0.02 0 0 0 0 0 0 0 0 0 0 1.5 0 0.11
0 0 0 0 0 0 0 0 0 0 0 0 0 0 0 25 0 0 0 1250 0.5 0 3.3 0.5 0.03 3.3 1.5 0.5 0.3 1.7 0.02 0 1.7 0.02 0 0 0 0 0 0 0 0 0 0 1.5 0 0.11
0 0 0 0 0 0 0 0 0 0 0 0 0 0 0 25 0 0 0 1250 0.5 0 3.3 0.5 0.03 3.3 1.5 0.5 0.3 1.7 0.02 0 1.7 0.02 0 0 0 0 0 0 0 0 0 0 1.5 0 0.11
0 0 0 0 0 0 0 0 0 0 0 0 0 0 0 25 0 0 0 1250 0.5 0 3.3 0.5 0.03 3.3 1.5 0.5 0.3 1.7 0.02 0 1.7 0.02 0 0 0 0 0 0 0 0 0 0 1.5 0 0.11
0 0 0 0 0 0 0 0 0 0 0 0 0 0 0 25 0 0 0 1250 0.5 0 3.3 0.5 0.03 3.3 1.5 0.5 0.3 1.7 0.02 0 1.7 0.02 0 0 0 0 0 0 0 0 0 0 1.5 0 0.11
0 0 0 0 0 0 0 0 0 0 0 0 0 0 0 25 0 0 0 1250 0.5 0 3.3 0.5 0.03 3.3 1.5 0.5 0.3 1.7 0.02 0 1.7 0.02 0 0 0 0 0 0 0 0 0 0 1.5 0 0.11
0 0 0 0 0 0 0 0 0 0 0 0 0 0 0 25 0 0 0 1250 0.5 0 3.3 0.5 0.03 3.3 1.5 0.5 0.3 1.7 0.02 0 1.7 0.02 0 0 0 0 0 0 0 0 0 0 1.5 0 0.11
0 0 0 0 0 0 0 0 0 0 0 0 0 0 0 25 0 0 0 1250 0.5 0 3.3 0.5 0.03 3.3 1.5 0.5 0.3 1.7 0.02 0 1.7 0.02 0 0 0 0 0 0 0 0 0 0 1.5 0 0.11
0 0 0 0 0 0 0 0 0 0 0 0 0 0 0 25 0 0 0 1250 0.5 0 3.3 0.5 0.03 3.3 1.5 0.5 0.3 1.7 0.02 0 1.7 0.02 0 0 0 0 0 0 0 0 0 0 1.5 0 0.11
0 0 0 0 0 0 0 0 0 0 0 0 0 0 0 25 0 0 0 1250 0.5 0 3.3 0.5 0.03 3.3 1.5 0.5 0.3 1.7 0.02 0 1.7 0.02 0 0 0 0 0 0 0 0 0 0 1.5 0 0.11
0 0 0 0 0 0 0 0 0 0 0 0 0 0 0 25 0 0 0 1250 0.5 0 3.3 0.5 0.03 3.3 1.5 0.5 0.3 1.7 0.02 0 1.7 0.02 0 0 0 0 0 0 0 0 0 0 1.5 0 0.11
0 0 0 0 0 0 0 0 0 0 0 0 0 0 0 25 0 0 0 1250 0.5 0 3.3 0.5 0.03 3.3 1.5 0.5 0.3 1.7 0.02 0 1.7 0.02 0 0 0 0 0 0 0 0 0 0 1.5 0 0.11
0 0 0 0 0 0 0 0 0 0 0 0 0 0 0 25 0 0 0 1250 0.5 0 3.3 0.5 0.03 3.3 1.5 0.5 0.3 1.7 0.02 0 1.7 0.02 0 0 0 0 0 0 0 0 0 0 1.5 0 0.11
0 0 0 0 0 0 0 0 0 0 0 0 0 0 0 25 0 0 0 1250 0.5 0 3.3 0.5 0.03 3.3 1.5 0.5 0.3 1.7 0.02 0 1.7 0.02 0 0 0 0 0 0 0 0 0 0 1.5 0 0.11
0 0 0 0 0 0 0 0 0 0 0 0 0 0 0 25 0 0 0 1250 0.5 0 3.3 0.5 0.03 3.3 1.5 0.5 0.3 1.7 0.02 0 1.7 0.02 0 0 0 0 0 0 0 0 0 0 1.5 0 0.11
0 0 0 0 0 0 0 0 0 0 0 0 0 0 0 25 0 0 0 1250 0.5 0 3.3 0.5 0.03 3.3 1.5 0.5 0.3 1.7 0.02 0 1.7 0.02 0 0 0 0 0 0 0 0 0 0 1.5 0 0.11
0 0 0 0 0 0 0 0 0 0 0 0 0 0 0 25 0 0 0 1250 0.5 0 3.3 0.5 0.03 3.3 1.5 0.5 0.3 1.7 0.02 0 1.7 0.02 0 0 0 0 0 0 0 0 0 0 1.5 0 0.11
0 0 0 0 0 0 0 0 0 0 0 0 0 0 0 25 0 0 0 1250 0.5 0 3.3 0.5 0.03 3.3 1.5 0.5 0.3 1.7 0.02 0 1.7 0.02 0 0 0 0 0 0 0 0 0 0 1.5 0 0.11
0 0 0 0 0 0 0 0 0 0 0 0 0 0 0 25 0 0 0 1250 0.5 0 3.3 0.5 0.03 3.3 1.5 0.5 0.3 1.7 0.02 0 1.7 0.02 0 0 0 0 0 0 0 0 0 0 1.5 0 0.11
0 0 0 0 0 0 0 0 0 0 0 0 0 0 0 25 0 0 0 1250 0.5 0 3.3 0.5 0.03 3.3 1.5 0.5 0.3 1.7 0.02 0 1.7 0.02 0 0 0 0 0 0 0 0 0 0 1.5 0 0.11
0 0 0 0 0 0 0 0 0 0 0 0 0 0 0 25 0 0 0 1250 0.5 0 3.3 0.5 0.03 3.3 1.5 0.5 0.3 1.7 0.02 0 1.7 0.02 0 0 0 0 0 0 0 0 0 0 1.5 0 0.11
0 0 0 0 0 0 0 0 0 0 0 0 0 0 0 25 0 0 0 1250 0.5 0 3.3 0.5 0.03 3.3 1.5 0.5 0.3 1.7 0.02 0 1.7 0.02 0 0 0 0 0 0 0 0 0 0 1.5 0 0.11
0 0 0 0 0 0 0 0 0 0 0 0 0 0 0 25 0 0 0 1250 0.5 0 3.3 0.5 0.03 3.3 1.5 0.5 0.3 1.7 0.02 0 1.7 0.02 0 0 0 0 0 0 0 0 0 0 1.5 0 0.11
0 0 0 0 0 0 0 0 0 0 0 0 0 0 0 25 0 0 0 1250 0.5 0 3.3 0.5 0.03 3.3 1.5 0.5 0.3 1.7 0.02 0 1.7 0.02 0 0 0 0 0 0 0 0 0 0 1.5 0 0.11
0 0 0 0 0 0 0 0 0 0 0 0 0 0 0 25 0 0 0 1250 0.5 0 3.3 0.5 0.03 3.3 1.5 0.5 0.3 1.7 0.02 0 1.7 0.02 0 0 0 0 0 0 0 0 0 0 1.5 0 0.11
0 0 0 0 0 0 0 0 0 0 0 0 0 0 0 25 0 0 0 1250 0.5 0 3.3 0.5 0.03 3.3 1.5 0.5 0.3 1.7 0.02 0 1.7 0.02 0 0 0 0 0 0 0 0 0 0 1.5 0 0.11
0 0 0 0 0 0 0 0 0 0 0 0 0 0 0 25 0 0 0 1250 0.5 0 3.3 0.5 0.03 3.3 1.5 0.5 0.3 1.7 0.02 0 1.7 0.02 0 0 0 0 0 0 0 0 0 0 1.5 0 0.11
0 0 0 0 0 0 0 0 0 0 0 0 0 0 0 25 0 0 0 1250 0.5 0 3.3 0.5 0.03 3.3 1.5 0.5 0.3 1.7 0.02 0 1.7 0.02 0 0 0 0 0 0 0 0 0 0 1.5 0 0.11
0 0 0 0 0 0 0 0 0 0 0 0 0 0 0 25 0 0 0 1250 0.5 0 3.3 0.5 0.03 3.3 1.5 0.5 0.3 1.7 0.02 0 1.7 0.02 0 0 0 0 0 0 0 0 0 0 1.5 0 0.11
0 0 0 0 0 0 0 0 0 0 0 0 0 0 0 25 0 0 0 1250 0.5 0 3.3 0.5 0.03 3.3 1.5 0.5 0.3 1.7 0.02 0 1.7 0.02 0 0 0 0 0 0 0 0 0 0 1.5 0 0.11
0 0 0 0 0 0 0 0 0 0 0 0 0 0 0 25 0 0 0 1250 0.5 0 3.3 0.5 0.03 3.3 1.5 0.5 0.3 1.7 0.02 0 1.7 0.02 0 0 0 0 0 0 0 0 0 0 1.5 0 0.11
0 0 0 0 0 0 0 0 0 0 0 0 0 0 0 25 0 0 0 1250 0.5 0 3.3 0.5 0.03 3.3 1.5 0.5 0.3 1.7 0.02 0 1.7 0.02 0 0 0 0 0 0 0 0 0 0 1.5 0 0.11
0 0 0 0 0 0 0 0 0 0 0 0 0 0 0 25 0 0 0 1250 0.5 0 3.3 0.5 0.03 3.3 1.5 0.5 0.3 1.7 0.02 0 1.7 0.02 0 0 0 0 0 0 0 0 0 0 1.5 0 0.11
0 0 0 0 0 0 0 0 0 0 0 0 0 0 0 25 0 0 0 1250 0.5 0 3.3 0.5 0.03 3.3 1.5 0.5 0.3 1.7 0.02 0 1.7 0.02 0 0 0 0 0 0 0 0 0 0 1.5 0 0.11
0 0 0 0 0 0 0 0 0 0 0 0 0 0 0 25 0 0 0 1250 0.5 0 3.3 0.5 0.03 3.3 1.5 0.5 0.3 1.7 0.02 0 1.7 0.02 0 0 0 0 0 0 0 0 0 0 1.5 0 0.11
0 0 0 0 0 0 0 0 0 0 0 0 0 0 0 25 0 0 0 1250 0.5 0 3.3 0.5 0.03 3.3 1.5 0.5 0.3 1.7 0.02 0 1.7 0.02 0 0 0 0 0 0 0 0 0 0 1.5 0 0.11
0 0 0 0 0 0 0 0 0 0 0 0 0 0 0 25 0 0 0 1250 0.5 0 3.3 0.5 0.03 3.3 1.5 0.5 0.3 1.7 0.02 0 1.7 0.02 0 0 0 0 0 0 0 0 0 0 1.5 0 0.11
0 0 0 0 0 0 0 0 0 0 0 0 0 0 0 25 0 0 0 1250 0.5 0 3.3 0.5 0.03 3.3 1.5 0.5 0.3 1.7 0.02 0 1.7 0.02 0 0 0 0 0 0 0 0 0 0 1.5 0 0.11
0 0 0 0 0 0 0 0 0 0 0 0 0 0 0 25 0 0 0 1250 0.5 0 3.3 0.5 0.03 3.3 1.5 0.5 0.3 1.7 0.02 0 1.7 0.02 0 0 0 0 0 0 0 0 0 0 1.5 0 0.11
0 0 0 0 0 0 0 0 0 0 0 0 0 0 0 25 0 0 0 1250 0.5 0 3.3 0.5 0.03 3.3 1.5 0.5 0.3 1.7 0.02 0 1.7 0.02 0 0 0 0 0 0 0 0 0 0 1.5 0 0.11
0 0 0 0 0 0 0 0 0 0 0 0 0 0 0 25 0 0 0 1250 0.5 0 3.3 0.5 0.03 3.3 1.5 0.5 0.3 1.7 0.02 0 1.7 0.02 0 0 0 0 0 0 0 0 0 0 1.5 0 0.11
0 0 0 0 0 0 0 0 0 0 0 0 0 0 0 25 0 0 0 1250 0.5 0 3.3 0.5 0.03 3.3 1.5 0.5 0.3 1.7 0.02 0 1.7 0.02 0 0 0 0 0 0 0 0 0 0 1.5 0 0.11
0 0 0 0 0 0 0 0 0 0 0 0 0 0 0 25 0 0 0 1250 0.5 0 3.3 0.5 0.03 3.3 1.5 0.5 0.3 1.7 0.02 0 1.7 0.02 0 0 0 0 0 0 0 0 0 0 1.5 0 0.11
0 0 0 0 0 0 0 0 0 0 0 0 0 0 0 25 0 0 0 1250 0.5 0 3.3 0.5 0.03 3.3 1.5 0.5 0.3 1.7 0.02 0 1.7 0.02 0 0 0 0 0 0 0 0 0 0 1.5 0 0.11
0 0 0 0 0 0 0 0 0 0 0 0 0 0 0 25 0 0 0 1250 0.5 0 3.3 0.5 0.03 3.3 1.5 0.5 0.3 1.7 0.02 0 1.7 0.02 0 0 0 0 0 0 0 0 0 0 1.5 0 0.11
0 0 0 0 0 0 0 0 0 0 0 0 0 0 0 25 0 0 0 1250 0.5 0 3.3 0.5 0.03 3.3 1.5 0.5 0.3 1.7 0.02 0 1.7 0.02 0 0 0 0 0 0 0 0 0 0 1.5 0 0.11
0 0 0 0 0 0 0 0 0 0 0 0 0 0 0 25 0 0 0 1250 0.5 0 3.3 0.5 0.03 3.3 1.5 0.5 0.3 1.7 0.02 0 1.7 0.02 0 0 0 0 0 0 0 0 0 0 1.5 0 0.11
0 0 0 0 0 0 0 0 0 0 0 0 0 0 0 25 0 0 0 1250 0.5 0 3.3 0.5 0.03 3.3 1.5 0.5 0.3 1.7 0.02 0 1.7 0.02 0 0 0 0 0 0 0 0 0 0 1.5 0 0.11
0 0 0 0 0 0 0 0 0 0 0 0 0 0 0 25 0 0 0 1250 0.5 0 3.3 0.5 0.03 3.3 1.5 0.5 0.3 1.7 0.02 0 1.7 0.02 0 0 0 0 0 0 0 0 0 0 1.5 0 0.11
0 0 0 0 0 0 0 0 0 0 0 0 0 0 0 25 0 0 0 1250 0.5 0 3.3 0.5 0.03 3.3 1.5 0.5 0.3 1.7 0.02 0 1.7 0.02 0 0 0 0 0 0 0 0 0 0 1.5 0 0.11
0 0 0 0 0 0 0 0 0 0 0 0 0 0 0 25 0 0 0 1250 0.5 0 3.3 0.5 0.03 3.3 1.5 0.5 0.3 1.7 0.02 0 1.7 0.02 0 0 0 0 0 0 0 0 0 0 1.5 0 0.11
0 0 0 0 0 0 0 0 0 0 0 0 0 0 0 25 0 0 0 1250 0.5 0 3.3 0.5 0.03 3.3 1.5 0.5 0.3 1.7 0.02 0 1.7 0.02 0 0 0 0 0 0 0 0 0 0 1.5 0 0.11
0 0 0 0 0 0 0 0 0 0 0 0 0 0 0 25 0 0 0 1250 0.5 0 3.3 0.5 0.03 3.3 1.5 0.5 0.3 1.7 0.02 0 1.7 0.02 0 0 0 0 0 0 0 0 0 0 1.5 0 0.11
0 0 0 0 0 0 0 0 0 0 0 0 0 0 0 25 0 0 0 1250 0.5 0 3.3 0.5 0.03 3.3 1.5 0.5 0.3 1.7 0.02 0 1.7 0.02 0 0 0 0 0 0 0 0 0 0 1.5 0 0.11
0 0 0 0 0 0 0 0 0 0 0 0 0 0 0 25 0 0 0 1250 0.5 0 3.3 0.5 0.03 3.3 1.5 0.5 0.3 1.7 0.02 0 1.7 0.02 0 0 0 0 0 0 0 0 0 0 1.5 0 0.11
0 0 0 0 0 0 0 0 0 0 0 0 0 0 0 25 0 0 0 1250 0.5 0 3.3 0.5 0.03 3.3 1.5 0.5 0.3 1.7 0.02 0 1.7 0.02 0 0 0 0 0 0 0 0 0 0 1.5 0 0.11
0 0 0 0 0 0 0 0 0 0 0 0 0 0 0 25 0 0 0 1250 0.5 0 3.3 0.5 0.03 3.3 1.5 0.5 0.3 1.7 0.02 0 1.7 0.02 0 0 0 0 0 0 0 0 0 0 1.5 0 0.11
0 0 0 0 0 0 0 0 0 0 0 0 0 0 0 25 0 0 0 1250 0.5 0 3.3 0.5 0.03 3.3 1.5 0.5 0.3 1.7 0.02 0 1.7 0.02 0 0 0 0 0 0 0 0 0 0 1.5 0 0.11
0 0 0 0 0 0 0 0 0 0 0 0 0 0 0 25 0 0 0 1250 0.5 0 3.3 0.5 0.03 3.3 1.5 0.5 0.3 1.7 0.02 0 1.7 0.02 0 0 0 0 0 0 0 0 0 0 1.5 0 0.11
0 0 0 0 0 0 0 0 0 0 0 0 0 0 0 25 0 0 0 1250 0.5 0 3.3 0.5 0.03 3.3 1.5 0.5 0.3 1.7 0.02 0 1.7 0.02 0 0 0 0 0 0 0 0 0 0 1.5 0 0.11
0 0 0 0 0 0 0 0 0 0 0 0 0 0 0 25 0 0 0 1250 0.5 0 3.3 0.5 0.03 3.3 1.5 0.5 0.3 1.7 0.02 0 1.7 0.02 0 0 0 0 0 0 0 0 0 0 1.5 0 0.11
0 0 0 0 0 0 0 0 0 0 0 0 0 0 0 25 0 0 0 1250 0.5 0 3.3 0.5 0.03 3.3 1.5 0.5 0.3 1.7 0.02 0 1.7 0.02 0 0 0 0 0 0 0 0 0 0 1.5 0 0.11
6.075 1.1 2.2 3.3 4.4 5.5 6.6 0 0 10 0 0 0 0 0 25 0 0 0 1250 0.5 0 3.3 0.5 0.03 3.3 1.5 0.5 0.3 1.7 0.02 0 1.7 0.02 0 0 0 0 0 0 0 0 0 0 1.5 0 0.11
6.194 1.3 0.24 -18.61 0.75 1.06 1.69 0 0 19 1 1 0 0 0 22 0 0 0 1374 0.5 0 3.3 0.5 0.03 3.3 1.5 0.5 0.3 1.7 0.02 0 1.7 0.02 0 0 0 0 0 0 0 0 0 0 1.5 0 0.11
6.194 1.3 0.24 -18.61 0.75 1.06 1.69 0 0 19 1 1 0 0 0 22 0 0 0 1374 0.5 0 3.3 0.5 0.03 3.3 1.5 0.5 0.3 1.7 0.02 0 1.7 0.02 0 0 0 0 0 0 0 0 0 0 1.5 0 0.11
6.512 1.26 0.22 -19.63 -4.06 -0.37 1.87 0 0 20 1 2 0 0 0 22 0 0 0 1353 0.5 0 3.3 0.5 0.03 3.3 1.5 0.5 0.3 1.7 0.02 0 1.7 0.02 0 0 0 0 0 0 0 0 0 0 1.5 0 0.11
6.612 1.25 0.22 -19.86 -1.56 0.81 0.88 0 0 20 1 1 0 0 0 22 0 0 0 1353 0.5 0 3.3 0.5 0.03 3.3 1.5 0.5 0.3 1.7 0.02 0 1.7 0.02 0 0 0 0 0 0 0 0 0 0 1.5 0 0.11
6.712 1.26 0.22 -20.26 -1 0.37 1.44 0 0 20 1 2 0 0 0 22 0 0 0 1352 0.5 0 3.3 0.5 0.03 3.3 1.5 0.5 0.3 1.7 0.02 0 1.7 0.02 0 0 0 0 0 0 0 0 0 0 1.5 0 0.11
6.812 1.26 0.21 -20.48 0.75 0.5 0.94 0 0 21 1 1 0 0 0 22 0 0 0 1352 0.5 0 3.3 0.5 0.03 3.3 1.5 0.5 0.3 1.7 0.02 0 1.7 0.02 0 0 0 0 0 0 0 0 0 0 1.5 0 0.11
6.912 1.26 0.21 -20.69 -0.62 0.31 0.75 0 0 19 1 1 0 0 0 22 0 0 0 1353 0.5 0 3.3 0.5 0.03 3.3 1.5 0.5 0.3 1.7 0.02 0 1.7 0.02 0 0 0 0 0 0 0 0 0 0 1.5 0 0.11
7.012 1.26 0.21 -21.08 0.13 0 0.37 0 0 21 1 1 0 0 0 22 0 0 0 1353 0.5 0 3.3 0.5 0.03 3.3 1.5 0.5 0.3 1.7 0.02 0 1.7 0.02 0 0 0 0 0 0 0 0 0 0 1.5 0 0.11
7.112 1.25 0.21 -21.27 -0.13 -0.25 1.94 0 0 21 1 1 0 0 0 22 0 0 0 1353 0.5 0 3.3 0.5 0.03 3.3 1.5 0.5 0.3 1.7 0.02 0 1.7 0.02 0 0 0 0 0 0 0 0 0 0 1.5 0 0.11
7.212 1.23 0.21 -21.59 -3.06 -0.69 1.81 0 0 20 1 2 0 0 0 22 0 0 0 1352 0.5 0 3.3 0.5 0.03 3.3 1.5 0.5 0.3 1.7 0.02 0 1.7 0.02 0 0 0 0 0 0 0 0 0 0 1.5 0 0.11
7.312 1.24 0.21 -21.79 0.31 -0.25 0.19 0 0 21 1 2 0 0 0 22 0 0 0 1353 0.5 0 3.3 0.5 0.03 3.3 1.5 0.5 0.3 1.7 0.02 0 1.7 0.02 0 0 0 0 0 0 0 0 0 0 1.5 0 0.11
7.412 1.23 0.21 -22.09 -0.19 0.06 1.31 0 0 20 1 1 0 0 0 22 0 0 0 1353 0.5 0 3.3 0.5 0.03 3.3 1.5 0.5 0.3 1.7 0.02 0 1.7 0.02 0 0 0 0 0 0 0 0 0 0 1.5 0 0.11
7.512 1.24 0.21 -22.28 -0.37 0.31 0.88 0 0 21 1 2 0 0 0 22 0 0 0 1354 0.5 0 3.3 0.5 0.03 3.3 1.5 0.5 0.3 1.7 0.02 0 1.7 0.02 0 0 0 0 0 0 0 0 0 0 1.5 0 0.11
7.612 1.24 0.21 -22.63 -0.5 0.25 0.94 0 0 20 1 1 0 0 0 22 0 0 0 1353 0.5 0 3.3 0.5 0.03 3.3 1.5 0.5 0.3 1.7 0.02 0 1.7 0.02 0 0 0 0 0 0 0 0 0 0 1.5 0 0.11
7.712 1.24 0.21 -22.82 -0.5 0.31 1 0 0 20 1 1 0 0 0 22 0 0 0 1352 0.5 0 3.3 0.5 0.03 3.3 1.5 0.5 0.3 1.7 0.02 0 1.7 0.02 0 0 0 0 0 0 0 0 0 0 1.5 0 0.11
7.812 1.24 0.21 -23.19 -0.31 0.31 0.94 0 0 21 1 1 0 0 0 22 0 0 0 1352 0.5 0 3.3 0.5 0.03 3.3 1.5 0.5 0.3 1.7 0.02 0 1.7 0.02 0 0 0 0 0 0 0 0 0 0 1.5 0 0.11
7.912 1.24 0.21 -23.39 -0.19 0.19 0.94 0 0 21 1 1 0 0 0 22 0 0 0 1352 0.5 0 3.3 0.5 0.03 3.3 1.5 0.5 0.3 1.7 0.02 0 1.7 0.02 0 0 0 0 0 0 0 0 0 0 1.5 0 0.11
8.012 1.24 0.21 -23.74 -0.13 0.19 0.94 0 0 19 1 2 0 0 0 22 0 0 0 1353 0.5 0 3.3 0.5 0.03 3.3 1.5 0.5 0.3 1.7 0.02 0 1.7 0.02 0 0 0 0 0 0 0 0 0 0 1.5 0 0.11
8.112 1.24 0.21 -23.9 0 0.19 0.94 0 0 21 1 1 0 0 0 22 0 0 0 1352 0.5 0 3.3 0.5 0.03 3.3 1.5 0.5 0.3 1.7 0.02 0 1.7 0.02 0 0 0 0 0 0 0 0 0 0 1.5 0 0.11
8.212 1.24 0.21 -24.22 -0.06 0.06 0.94 0 0 21 1 2 0 0 0 22 0 0 0 1352 0.5 0 3.3 0.5 0.03 3.3 1.5 0.5 0.3 1.7 0.02 0 1.7 0.02 0 0 0 0 0 0 0 0 0 0 1.5 0 0.11
8.312 1.24 0.21 -24.39 0 0.06 1 0 0 21 1 2 0 0 0 22 0 0 0 1352 0.5 0 3.3 0.5 0.03 3.3 1.5 0.5 0.3 1.7 0.02 0 1.7 0.02 0 0 0 0 0 0 0 0 0 0 1.5 0 0.11
8.412 1.24 0.22 -24.68 0 0 0.94 0 0 20 1 1 0 0 0 22 0 0 0 1352 0.5 0 3.3 0.5 0.03 3.3 1.5 0.5 0.3 1.7 0.02 0 1.7 0.02 0 0 0 0 0 0 0 0 0 0 1.5 0 0.11
8.512 1.24 0.22 -24.84 0 0.13 1 0 0 19 1 2 0 0 0 22 0 0 0 1352 0.5 0 3.3 0.5 0.03 3.3 1.5 0.5 0.3 1.7 0.02 0 1.7 0.02 0 0 0 0 0 0 0 0 0 0 1.5 0 0.11
8.612 1.24 0.22 -25.03 0 0.19 1 0 0 21 1 1 0 0 0 22 0 0 0 1353 0.5 0 3.3 0.5 0.03 3.3 1.5 0.5 0.3 1.7 0.02 0 1.7 0.02 0 0 0 0 0 0 0 0 0 0 1.5 0 0.11
8.712 1.24 0.22 -25.36 -0.06 0.13 1 0 0 19 1 2 0 0 0 22 0 0 0 1354 0.5 0 3.3 0.5 0.03 3.3 1.5 0.5 0.3 1.7 0.02 0 1.7 0.02 0 0 0 0 0 0 0 0 0 0 1.5 0 0.11
8.812 1.24 0.21 -25.55 0 0.06 1.12 0 0 20 1 2 0 0 0 22 0 0 0 1354 0.5 0 3.3 0.5 0.03 3.3 1.5 0.5 0.3 1.7 0.02 0 1.7 0.02 0 0 0 0 0 0 0 0 0 0 1.5 0 0.11
8.912 1.24 0.21 -25.86 0 0.13 1 0 0 20 1 1 0 0 0 22 0 0 0 1353 0.5 0 3.3 0.5 0.03 3.3 1.5 0.5 0.3 1.7 0.02 0 1.7 0.02 0 0 0 0 0 0 0 0 0 0 1.5 0 0.11
9.012 1.24 0.21 -26.03 -0.06 0.19 1 0 0 19 1 1 0 0 0 22 0 0 0 1353 0.5 0 3.3 0.5 0.03 3.3 1.5 0.5 0.3 1.7 0.02 0 1.7 0.02 0 0 0 0 0 0 0 0 0 0 1.5 0 0.11
9.112 1.24 0.21 -26.35 -0.06 0.31 0.94 0 0 19 1 1 0 0 0 22 0 0 0 1352 0.5 0 3.3 0.5 0.03 3.3 1.5 0.5 0.3 1.7 0.02 0 1.7 0.02 0 0 0 0 0 0 0 0 0 0 1.5 0 0.11
9.212 1.24 0.21 -26.49 0 0.19 0.94 0 0 20 1 2 0 0 0 22 0 0 0 1353 0.5 0 3.3 0.5 0.03 3.3 1.5 0.5 0.3 1.7 0.02 0 1.7 0.02 0 0 0 0 0 0 0 0 0 0 1.5 0 0.11
9.312 1.24 0.21 -26.77 0 0.13 1.06 0 0 19 1 1 0 0 0 22 0 0 0 1353 0.5 0 3.3 0.5 0.03 3.3 1.5 0.5 0.3 1.7 0.02 0 1.7 0.02 0 0 0 0 0 0 0 0 0 0 1.5 0 0.11
9.412 1.24 0.21 -26.93 0 0.19 1 0 0 19 1 1 0 0 0 22 0 0 0 1353 0.5 0 3.3 0.5 0.03 3.3 1.5 0.5 0.3 1.7 0.02 0 1.7 0.02 0 0 0 0 0 0 0 0 0 0 1.5 0 0.11
9.512 1.25 0.21 -27.22 -0.13 0.06 1.06 0 0 21 1 1 0 0 0 22 0 0 0 1353 0.5 0 3.3 0.5 0.03 3.3 1.5 0.5 0.3 1.7 0.02 0 1.7 0.02 0 0 0 0 0 0 0 0 0 0 1.5 0 0.11
9.612 1.25 0.21 -27.39 0 0.06 1 0 0 20 1 1 0 0 0 22 0 0 0 1353 0.5 0 3.3 0.5 0.03 3.3 1.5 0.5 0.3 1.7 0.02 0 1.7 0.02 0 0 0 0 0 0 0 0 0 0 1.5 0 0.11
9.712 1.25 0.21 -27.69 -0.19 0.13 0.88 0 0 19 1 2 0 0 0 22 0 0 0 1354 0.5 0 3.3 0.5 0.03 3.3 1.5 0.5 0.3 1.7 0.02 0 1.7 0.02 0 0 0 0 0 0 0 0 0 0 1.5 0 0.11
9.812 1.25 0.21 -27.83 -0.06 0.06 1.06 0 0 20 1 1 0 0 0 22 0 0 0 1353 0.5 0 3.3 0.5 0.03 3.3 1.5 0.5 0.3 1.7 0.02 0 1.7 0.02 0 0 0 0 0 0 0 0 0 0 1.5 0 0.11
9.912 1.25 0.21 -28.08 -0.06 0.19 1 0 0 20 1 2 0 0 0 22 0 0 0 1353 0.5 0 3.3 0.5 0.03 3.3 1.5 0.5 0.3 1.7 0.02 0 1.7 0.02 0 0 0 0 0 0 0 0 0 0 1.5 0 0.11
10.012 1.25 0.21 -28.26 -0.06 0.13 1 0 0 21 1 2 0 0 0 22 0 0 0 1352 0.5 0 3.3 0.5 0.03 3.3 1.5 0.5 0.3 1.7 0.02 0 1.7 0.02 0 0 0 0 0 0 0 0 0 0 1.5 0 0.11
10.112 1.25 0.22 -28.41 -0.13 0.06 1.06 0 0 21 1 2 0 0 0 22 0 0 0 1353 0.5 0 3.3 0.5 0.03 3.3 1.5 0.5 0.3 1.7 0.02 0 1.7 0.02 0 0 0 0 0 0 0 0 0 0 1.5 0 0.11
10.212 1.25 0.21 -28.67 -0.13 0.19 0.88 0 0 20 1 2 0 0 0 22 0 0 0 1353 0.5 0 3.3 0.5 0.03 3.3 1.5 0.5 0.3 1.7 0.02 0 1.7 0.02 0 0 0 0 0 0 0 0 0 0 1.5 0 0.11
10.312 1.25 0.21 -28.82 -0.13 0.13 0.94 0 0 20 1 1 0 0 0 22 0 0 0 1353 0.5 0 3.3 0.5 0.03 3.3 1.5 0.5 0.3 1.7 0.02 0 1.7 0.02 0 0 0 0 0 0 0 0 0 0 1.5 0 0.11
10.412 1.25 0.22 -29.08 -0.06 0.13 0.94 0 0 25 1 1 0 0 0 22 0 0 0 1353 0.5 0 3.3 0.5 0.03 3.3 1.5 0.5 0.3 1.7 0.02 0 1.7 0.02 0 0 0 0 0 0 0 0 0 0 1.5 0 0.11
10.512 1.25 0.21 -29.22 -0.13 0.06 0.94 0 0 21 1 1 0 0 0 22 0 0 0 1353 0.5 0 3.3 0.5 0.03 3.3 1.5 0.5 0.3 1.7 0.02 0 1.7 0.02 0 0 0 0 0 0 0 0 0 0 1.5 0 0.11
10.612 1.24 0.22 -29.51 -0.13 0.13 1.06 0 0 20 1 1 0 0 0 22 0 0 0 1353 0.5 0 3.3 0.5 0.03 3.3 1.5 0.5 0.3 1.7 0.02 0 1.7 0.02 0 0 0 0 0 0 0 0 0 0 1.5 0 0.11
10.712 1.25 0.22 -29.64 -0.13 0.13 1.06 0 0 21 1 1 0 0 0 22 0 0 0 1354 0.5 0 3.3 0.5 0.03 3.3 1.5 0.5 0.3 1.7 0.02 0 1.7 0.02 0 0 0 0 0 0 0 0 0 0 1.5 0 0.11
10.812 1.24 0.22 -29.88 -0.13 0.13 1 0 0 20 1 1 0 0 0 22 0 0 0 1354 0.5 0 3.3 0.5 0.03 3.3 1.5 0.5 0.3 1.7 0.02 0 1.7 0.02 0 0 0 0 0 0 0 0 0 0 1.5 0 0.11
10.912 1.24 0.22 -29.97 -0.13 0.06 1.06 0 0 20 1 1 0 0 0 22 0 0 0 1354 0.5 0 3.3 0.5 0.03 3.3 1.5 0.5 0.3 1.7 0.02 0 1.7 0.02 0 0 0 0 0 0 0 0 0 0 1.5 0 0.11
11.012 1.24 0.22 -30.21 -0.13 0.13 0.94 0 0 20 1 1 0 0 0 22 0 0 0 1354 0.5 0 3.3 0.5 0.03 3.3 1.5 0.5 0.3 1.7 0.02 0 1.7 0.02 0 0 0 0 0 0 0 0 0 0 1.5 0 0.11
11.113 1.24 0.21 -30.38 -0.19 0.13 1 0 0 21 1 1 0 0 0 22 0 0 0 1353 0.5 0 3.3 0.5 0.03 3.3 1.5 0.5 0.3 1.7 0.02 0 1.7 0.02 0 0 0 0 0 0 0 0 0 0 1.5 0 0.11
11.213 1.24 0.21 -30.6 0 0.25 1 0 0 20 1 2 0 0 0 22 0 0 0 1354 0.5 0 3.3 0.5 0.03 3.3 1.5 0.5 0.3 1.7 0.02 0 1.7 0.02 0 0 0 0 0 0 0 0 0 0 1.5 0 0.11
11.312 1.24 0.21 -30.72 -0.06 0.19 0.88 0 0 21 1 1 0 0 0 22 0 0 0 1354 0.5 0 3.3 0.5 0.03 3.3 1.5 0.5 0.3 1.7 0.02 0 1.7 0.02 0 0 0 0 0 0 0 0 0 0 1.5 0 0.11
11.412 1.24 0.22 -30.96 -0.06 0.13 0.94 0 0 21 1 1 0 0 0 22 0 0 0 1354 0.5 0 3.3 0.5 0.03 3.3 1.5 0.5 0.3 1.7 0.02 0 1.7 0.02 0 0 0 0 0 0 0 0 0 0 1.5 0 0.11
11.512 1.24 0.22 -31.07 -0.13 0.19 1 0 0 20 1 2 0 0 0 22 0 0 0 1353 0.5 0 3.3 0.5 0.03 3.3 1.5 0.5 0.3 1.7 0.02 0 1.7 0.02 0 0 0 0 0 0 0 0 0 0 1.5 0 0.11
11.613 1.24 0.22 -31.18 -0.13 0.13 1 0 0 20 1 2 0 0 0 22 0 0 0 1353 0.5 0 3.3 0.5 0.03 3.3 1.5 0.5 0.3 1.7 0.02 0 1.7 0.02 0 0 0 0 0 0 0 0 0 0 1.5 0 0.11
11.712 1.24 0.22 -31.43 -0.06 0 0.94 0 0 20 1 1 0 0 0 22 0 0 0 1353 0.5 0 3.3 0.5 0.03 3.3 1.5 0.5 0.3 1.7 0.02 0 1.7 0.02 0 0 0 0 0 0 0 0 0 0 1.5 0 0.11
11.813 1.24 0.22 -31.55 -0.06 0.13 0.94 0 0 20 1 1 0 0 0 22 0 0 0 1353 0.5 0 3.3 0.5 0.03 3.3 1.5 0.5 0.3 1.7 0.02 0 1.7 0.02 0 0 0 0 0 0 0 0 0 0 1.5 0 0.11
11.913 1.24 0.22 -31.81 0 0.13 0.94 0 0 20 1 1 0 0 0 22 0 0 0 1354 0.5 0 3.3 0.5 0.03 3.3 1.5 0.5 0.3 1.7 0.02 0 1.7 0.02 0 0 0 0 0 0 0 0 0 0 1.5 0 0.11
12.013 1.24 0.22 -31.92 0 0.13 0.94 0 0 21 1 1 0 0 0 22 0 0 0 1353 0.5 0 3.3 0.5 0.03 3.3 1.5 0.5 0.3 1.7 0.02 0 1.7 0.02 0 0 0 0 0 0 0 0 0 0 1.5 0 0.11
12.112 1.24 0.22 -32.11 -0.13 0.06 0.94 0 0 20 1 1 0 0 0 22 0 0 0 1354 0.5 0 3.3 0.5 0.03 3.3 1.5 0.5 0.3 1.7 0.02 0 1.7 0.02 0 0 0 0 0 0 0 0 0 0 1.5 0 0.11
12.212 1.24 0.23 -32.2 -0.13 0.13 1 0 0 20 1 1 0 0 0 22 0 0 0 1353 0.5 0 3.3 0.5 0.03 3.3 1.5 0.5 0.3 1.7 0.02 0 1.7 0.02 0 0 0 0 0 0 0 0 0 0 1.5 0 0.11
12.313 1.24 0.23 -32.43 -0.19 0.13 0.88 0 0 21 1 2 0 0 0 22 0 0 0 1353 0.5 0 3.3 0.5 0.03 3.3 1.5 0.5 0.3 1.7 0.02 0 1.7 0.02 0 0 0 0 0 0 0 0 0 0 1.5 0 0.11
12.412 1.24 0.23 -32.54 -0.06 0.06 1.06 0 0 20 1 1 0 0 0 22 0 0 0 1353 0.5 0 3.3 0.5 0.03 3.3 1.5 0.5 0.3 1.7 0.02 0 1.7 0.02 0 0 0 0 0 0 0 0 0 0 1.5 0 0.11
12.512 1.24 0.22 -32.74 -0.06 0.13 1 0 0 20 1 1 0 0 0 22 0 0 0 1350 0.5 0 3.3 0.5 0.03 3.3 1.5 0.5 0.3 1.7 0.02 0 1.7 0.02 0 0 0 0 0 0 0 0 0 0 1.5 0 0.11
12.612 1.24 0.22 -32.84 -0.13 0.19 0.94 0 0 20 1 1 0 0 0 22 0 0 0 1350 0.5 0 3.3 0.5 0.03 3.3 1.5 0.5 0.3 1.7 0.02 0 1.7 0.02 0 0 0 0 0 0 0 0 0 0 1.5 0 0.11
12.713 1.25 0.23 -33.01 -0.06 0.06 0.94 0 0 20 1 1 0 0 0 22 0 0 0 1350 0.5 0 3.3 0.5 0.03 3.3 1.5 0.5 0.3 1.7 0.02 0 1.7 0.02 0 0 0 0 0 0 0 0 0 0 1.5 0 0.11
12.813 1.25 0.23 -33.12 -0.13 0.19 1 0 0 21 1 1 0 0 0 22 0 0 0 1354 0.5 0 3.3 0.5 0.03 3.3 1.5 0.5 0.3 1.7 0.02 0 1.7 0.02 0 0 0 0 0 0 0 0 0 0 1.5 0 0.11
12.913 1.25 0.23 -33.31 0 0.13 0.94 0 0 20 1 2 0 0 0 22 0 0 0 1354 0.5 0 3.3 0.5 0.03 3.3 1.5 0.5 0.3 1.7 0.02 0 1.7 0.02 0 0 0 0 0 0 0 0 0 0 1.5 0 0.11
13.012 1.24 0.23 -33.41 0 0.06 1.06 0 0 21 1 1 0 0 0 22 0 0 0 1354 0.5 0 3.3 0.5 0.03 3.3 1.5 0.5 0.3 1.7 0.02 0 1.7 0.02 0 0 0 0 0 0 0 0 0 0 1.5 0 0.11
13.113 1.24 0.23 -33.5 -0.13 0.13 0.94 0 0 20 1 1 0 0 0 22 0 0 0 1354 0.5 0 3.3 0.5 0.03 3.3 1.5 0.5 0.3 1.7 0.02 0 1.7 0.02 0 0 0 0 0 0 0 0 0 0 1.5 0 0.11
13.212 1.24 0.23 -33.66 -0.13 0.19 1.06 0 0 20 1 1 0 0 0 22 0 0 0 1355 0.5 0 3.3 0.5 0.03 3.3 1.5 0.5 0.3 1.7 0.02 0 1.7 0.02 0 0 0 0 0 0 0 0 0 0 1.5 0 0.11
13.312 1.24 0.23 -33.72 -0.13 0.13 1.06 0 0 21 1 2 0 0 0 22 0 0 0 1354 0.5 0 3.3 0.5 0.03 3.3 1.5 0.5 0.3 1.7 0.02 0 1.7 0.02 0 0 0 0 0 0 0 0 0 0 1.5 0 0.11
13.412 1.24 0.23 -33.91 -0.06 0.13 1 0 0 20 1 2 0 0 0 22 0 0 0 1354 0.5 0 3.3 0.5 0.03 3.3 1.5 0.5 0.3 1.7 0.02 0 1.7 0.02 0 0 0 0 0 0 0 0 0 0 1.5 0 0.11
13.512 1.24 0.23 -33.99 -0.06 0.13 1 0 0 21 1 2 0 0 0 22 0 0 0 1355 0.5 0 3.3 0.5 0.03 3.3 1.5 0.5 0.3 1.7 0.02 0 1.7 0.02 0 0 0 0 0 0 0 0 0 0 1.5 0 0.11
13.613 1.24 0.23 -34.18 -0.06 0.13 1 0 0 21 1 1 0 0 0 22 0 0 0 1355 0.5 0 3.3 0.5 0.03 3.3 1.5 0.5 0.3 1.7 0.02 0 1.7 0.02 0 0 0 0 0 0 0 0 0 0 1.5 0 0.11
13.713 1.24 0.23 -34.26 -0.13 0.19 0.94 0 0 20 1 1 0 0 0 22 0 0 0 1354 0.5 0 3.3 0.5 0.03 3.3 1.5 0.5 0.3 1.7 0.02 0 1.7 0.02 0 0 0 0 0 0 0 0 0 0 1.5 0 0.11
13.813 1.24 0.23 -34.39 -0.13 0.19 0.94 0 0 20 1 1 0 0 0 22 0 0 0 1354 0.5 0 3.3 0.5 0.03 3.3 1.5 0.5 0.3 1.7 0.02 0 1.7 0.02 0 0 0 0 0 0 0 0 0 0 1.5 0 0.11
13.913 1.24 0.23 -34.49 -0.06 0.13 1 0 0 21 1 1 0 0 0 22 0 0 0 1354 0.5 0 3.3 0.5 0.03 3.3 1.5 0.5 0.3 1.7 0.02 0 1.7 0.02 0 0 0 0 0 0 0 0 0 0 1.5 0 0.11
14.013 1.24 0.23 -34.66 -0.13 0 0.94 0 0 20 1 1 0 0 0 22 0 0 0 1354 0.5 0 3.3 0.5 0.03 3.3 1.5 0.5 0.3 1.7 0.02 0 1.7 0.02 0 0 0 0 0 0 0 0 0 0 1.5 0 0.11
14.113 1.24 0.23 -34.73 -0.13 0.13 0.94 0 0 20 1 1 0 0 0 22 0 0 0 1353 0.5 0 3.3 0.5 0.03 3.3 1.5 0.5 0.3 1.7 0.02 0 1.7 0.02 0 0 0 0 0 0 0 0 0 0 1.5 0 0.11
14.213 1.24 0.23 -34.9 -0.13 0.19 0.94 0 0 20 1 1 0 0 0 22 0 0 0 1353 0.5 0 3.3 0.5 0.03 3.3 1.5 0.5 0.3 1.7 0.02 0 1.7 0.02 0 0 0 0 0 0 0 0 0 0 1.5 0 0.11
14.313 1.24 0.23 -34.97 -0.13 0.06 1.06 0 0 21 2 1 0 0 0 22 0 0 0 1353 0.5 0 3.3 0.5 0.03 3.3 1.5 0.5 0.3 1.7 0.02 0 1.7 0.02 0 0 0 0 0 0 0 0 0 0 1.5 0 0.11
14.413 1.24 0.23 -35.13 -0.13 0.19 0.94 0 0 20 1 1 0 0 0 22 0 0 0 1354 0.5 0 3.3 0.5 0.03 3.3 1.5 0.5 0.3 1.7 0.02 0 1.7 0.02 0 0 0 0 0 0 0 0 0 0 1.5 0 0.11
14.513 1.24 0.24 -35.2 -0.13 0.19 1 0 0 19 1 2 0 0 0 22 0 0 0 1354 0.5 0 3.3 0.5 0.03 3.3 1.5 0.5 0.3 1.7 0.02 0 1.7 0.02 0 0 0 0 0 0 0 0 0 0 1.5 0 0.11
14.613 1.24 0.24 -35.26 -0.06 0.13 1.06 0 0 19 1 1 0 0 0 22 0 0 0 1354 0.5 0 3.3 0.5 0.03 3.3 1.5 0.5 0.3 1.7 0.02 0 1.7 0.02 0 0 0 0 0 0 0 0 0 0 1.5 0 0.11
14.713 1.24 0.24 -35.38 -0.06 0.13 0.94 0 0 20 1 1 0 0 0 22 0 0 0 1353 0.5 0 3.3 0.5 0.03 3.3 1.5 0.5 0.3 1.7 0.02 0 1.7 0.02 0 0 0 0 0 0 0 0 0 0 1.5 0 0.11
14.813 1.24 0.24 -35.42 -0.13 0.25 1.06 0 0 20 1 1 0 0 0 22 0 0 0 1353 0.5 0 3.3 0.5 0.03 3.3 1.5 0.5 0.3 1.7 0.02 0 1.7 0.02 0 0 0 0 0 0 0 0 0 0 1.5 0 0.11
14.913 1.24 0.24 -35.56 -0.06 0.19 0.94 0 0 21 1 2 0 0 0 22 0 0 0 1354 0.5 0 3.3 0.5 0.03 3.3 1.5 0.5 0.3 1.7 0.02 0 1.7 0.02 0 0 0 0 0 0 0 0 0 0 1.5 0 0.11
15.013 1.24 0.24 -35.63 -0.13 0.19 1.12 0 0 20 1 1 0 0 0 22 0 0 0 1355 0.5 0 3.3 0.5 0.03 3.3 1.5 0.5 0.3 1.7 0.02 0 1.7 0.02 0 0 0 0 0 0 0 0 0 0 1.5 0 0.11
15.113 1.24 0.24 -35.74 -0.06 0.13 0.94 0 0 19 1 2 0 0 0 22 0 0 0 1356 0.5 0 3.3 0.5 0.03 3.3 1.5 0.5 0.3 1.7 0.02 0 1.7 0.02 0 0 0 0 0 0 0 0 0 0 1.5 0 0.11
15.213 1.24 0.23 -35.76 -0.06 0 0.94 0 0 21 1 1 0 0 0 22 0 0 0 1355 0.5 0 3.3 0.5 0.03 3.3 1.5 0.5 0.3 1.7 0.02 0 1.7 0.02 0 0 0 0 0 0 0 0 0 0 1.5 0 0.11
15.313 1.24 0.24 -35.9 -0.06 0.13 1 0 0 21 1 1 0 0 0 22 -0.26 -4.72 58.52 1355 0.5 0 3.3 0.5 0.03 3.3 1.5 0.5 0.3 1.7 0.02 0 1.7 0.02 0 0 0 0 0 0 0 0 0 0 1.5 0 0.11
15.413 1.25 0.23 -35.96 -0.06 0.13 0.94 0 0 20 1 1 0 0 0 22 -0.2 0.97 58.75 1355 0.5 0 3.3 0.5 0.03 3.3 1.5 0.5 0.3 1.7 0.02 0 1.7 0.02 0 0 0 0 0 0 0 0 0 0 1.5 0 0.11
15.513 1.25 0.23 -36.07 -0.06 0.13 0.94 0 0 21 1 1 0 0 0 22 -0.22 0.9 59.28 1355 0.5 0 3.3 0.5 0.03 3.3 1.5 0.5 0.3 1.7 0.02 0 1.7 0.02 0 0 0 0 0 0 0 0 0 0 1.5 0 0.11
15.613 1.25 0.23 -36.11 -0.06 0.13 1 0 0 20 1 1 0 0 0 22 -0.22 -4.67 58.26 1355 0.5 0 3.3 0.5 0.03 3.3 1.5 0.5 0.3 1.7 0.02 0 1.7 0.02 0 0 0 0 0 0 0 0 0 0 1.5 0 0.11
15.713 1.25 0.23 -36.2 -0.13 0.13 0.94 0 0 21 1 1 0 0 0 22 -0.21 1.02 58.88 1355 0.5 0 3.3 0.5 0.03 3.3 1.5 0.5 0.3 1.7 0.02 0 1.7 0.02 0 0 0 0 0 0 0 0 0 0 1.5 0 0.11
15.813 1.25 0.23 -36.25 -0.06 0.19 1.06 0 0 20 1 2 0 0 0 22 -0.2 7.42 58.72 1355 0.5 0 3.3 0.5 0.03 3.3 1.5 0.5 0.3 1.7 0.02 0 1.7 0.02 0 0 0 0 0 0 0 0 0 0 1.5 0 0.11
15.913 1.25 0.24 -36.39 0 0.19 1 0 0 20 1 1 0 0 0 22 -0.28 0.88 59.03 1355 0.5 0 3.3 0.5 0.03 3.3 1.5 0.5 0.3 1.7 0.02 0 1.7 0.02 0 0 0 0 0 0 0 0 0 0 1.5 0 0.11
16.013 1.25 0.24 -36.42 -0.06 0.25 1 0 0 21 1 2 0 0 0 22 -0.29 1.73 59.04 1355 0.5 0 3.3 0.5 0.03 3.3 1.5 0.5 0.3 1.7 0.02 0 1.7 0.02 0 0 0 0 0 0 0 0 0 0 1.5 0 0.11
16.113 1.25 0.23 -36.47 -0.13 0.13 1 0 0 20 1 1 0 0 0 22 -0.12 -4.62 60.49 1355 0.5 0 3.3 0.5 0.03 3.3 1.5 0.5 0.3 1.7 0.02 0 1.7 0.02 0 0 0 0 0 0 0 0 0 0 1.5 0 0.11
16.213 1.25 0.23 -36.47 0 0.19 1 0 0 20 1 1 0 0 0 22 -0.29 0.99 60.54 1356 0.5 0 3.3 0.5 0.03 3.3 1.5 0.5 0.3 1.7 0.02 0 1.7 0.02 0 0 0 0 0 0 0 0 0 0 1.5 0 0.11
16.313 1.25 0.23 -36.49 -0.06 0.13 0.94 0 0 20 1 1 0 0 0 22 -0.21 0.98 59.04 1356 0.5 0 3.3 0.5 0.03 3.3 1.5 0.5 0.3 1.7 0.02 0 1.7 0.02 0 0 0 0 0 0 0 0 0 0 1.5 0 0.11
16.413 1.25 0.24 -36.58 -0.06 0.19 1 0 0 20 1 1 0 0 0 22 -0.29 0.93 58.99 1355 0.5 0 3.3 0.5 0.03 3.3 1.5 0.5 0.3 1.7 0.02 0 1.7 0.02 0 0 0 0 0 0 0 0 0 0 1.5 0 0.11
16.513 1.25 0.24 -36.63 0 0.13 0.94 0 0 20 1 1 0 0 0 22 -0.36 1.03 59.12 1354 0.5 0 3.3 0.5 0.03 3.3 1.5 0.5 0.3 1.7 0.02 0 1.7 0.02 0 0 0 0 0 0 0 0 0 0 1.5 0 0.11
16.613 1.26 0.24 -36.71 0 0.13 0.94 0 0 21 1 1 0 0 0 22 -0.3 1.1 60.59 1353 0.5 0 3.3 0.5 0.03 3.3 1.5 0.5 0.3 1.7 0.02 0 1.7 0.02 0 0 0 0 0 0 0 0 0 0 1.5 0 0.11
16.713 1.26 0.24 -36.74 -0.13 0.19 1 0 0 21 1 1 0 0 0 22 -0.2 0.94 60.5 1354 0.5 0 3.3 0.5 0.03 3.3 1.5 0.5 0.3 1.7 0.02 0 1.7 0.02 0 0 0 0 0 0 0 0 0 0 1.5 0 0.11
16.813 1.25 0.24 -36.84 -0.13 0.13 0.94 0 0 20 1 2 0 0 0 22 -0.11 7.46 59 1355 0.5 0 3.3 0.5 0.03 3.3 1.5 0.5 0.3 1.7 0.02 0 1.7 0.02 0 0 0 0 0 0 0 0 0 0 1.5 0 0.11
16.913 1.26 0.24 -36.88 -0.06 0.13 0.94 0 0 20 1 1 0 0 0 22 -0.16 1.04 60.6 1355 0.5 0 3.3 0.5 0.03 3.3 1.5 0.5 0.3 1.7 0.02 0 1.7 0.02 0 0 0 0 0 0 0 0 0 0 1.5 0 0.11
17.013 1.26 0.24 -36.98 -0.13 0.19 1 0 0 20 1 1 0 0 0 22 -0.16 0.92 58.67 1355 0.5 0 3.3 0.5 0.03 3.3 1.5 0.5 0.3 1.7 0.02 0 1.7 0.02 0 0 0 0 0 0 0 0 0 0 1.5 0 0.11
17.113 1.26 0.24 -37.01 -0.13 0.06 0.94 0 0 21 1 1 0 0 0 22 -0.28 1.28 60.57 1355 0.5 0 3.3 0.5 0.03 3.3 1.5 0.5 0.3 1.7 0.02 0 1.7 0.02 0 0 0 0 0 0 0 0 0 0 1.5 0 0.11
17.213 1.26 0.23 -37.09 -0.06 0.25 1.06 0 0 20 1 1 0 0 0 22 -0.24 0.93 58.96 1355 0.5 0 3.3 0.5 0.03 3.3 1.5 0.5 0.3 1.7 0.02 0 1.7 0.02 0 0 0 0 0 0 0 0 0 0 1.5 0 0.11
17.313 1.26 0.24 -37.13 -0.13 0.13 0.88 0 0 21 1 2 0 0 0 22 -0.24 7.47 60.91 1355 0.5 0 3.3 0.5 0.03 3.3 1.5 0.5 0.3 1.7 0.02 0 1.7 0.02 0 0 0 0 0 0 0 0 0 0 1.5 0 0.11
17.413 1.26 0.24 -37.21 0 0.19 1.06 0 0 20 1 1 0 0 0 22 -0.36 0.96 58.94 1355 0.5 0 3.3 0.5 0.03 3.3 1.5 0.5 0.3 1.7 0.02 0 1.7 0.02 0 0 0 0 0 0 0 0 0 0 1.5 0 0.11
17.513 1.26 0.24 -37.22 -0.06 0.13 1.06 0 0 19 1 2 0 0 0 22 -0.25 1.17 60.49 1355 0.5 0 3.3 0.5 0.03 3.3 1.5 0.5 0.3 1.7 0.02 0 1.7 0.02 0 0 0 0 0 0 0 0 0 0 1.5 0 0.11
17.613 1.26 0.24 -37.27 -0.13 0.13 0.94 0 0 19 1 2 0 0 0 22 -0.14 2.03 59.09 1356 0.5 0 3.3 0.5 0.03 3.3 1.5 0.5 0.3 1.7 0.02 0 1.7 0.02 0 0 0 0 0 0 0 0 0 0 1.5 0 0.11
17.713 1.26 0.23 -37.31 -0.19 0.13 0.94 0 0 20 1 1 0 0 0 22 -0.05 1.15 60.61 1357 0.5 0 3.3 0.5 0.03 3.3 1.5 0.5 0.3 1.7 0.02 0 1.7 0.02 0 0 0 0 0 0 0 0 0 0 1.5 0 0.11
17.813 1.25 0.24 -37.32 -0.06 0.19 0.94 0 0 21 1 1 0 0 0 22 -0.29 1.12 60.57 1356 0.5 0 3.3 0.5 0.03 3.3 1.5 0.5 0.3 1.7 0.02 0 1.7 0.02 0 0 0 0 0 0 0 0 0 0 1.5 0 0.11
17.913 1.25 0.24 -37.44 -0.13 0.19 1 0 0 21 1 1 0 0 0 22 -0.06 1.11 60.53 1355 0.5 0 3.3 0.5 0.03 3.3 1.5 0.5 0.3 1.7 0.02 0 1.7 0.02 0 0 0 0 0 0 0 0 0 0 1.5 0 0.11
18.013 1.25 0.24 -37.47 -0.06 0.13 1 0 0 21 1 1 0 0 0 22 -0.29 1.22 59.06 1355 0.5 0 3.3 0.5 0.03 3.3 1.5 0.5 0.3 1.7 0.02 0 1.7 0.02 0 0 0 0 0 0 0 0 0 0 1.5 0 0.11
18.113 1.25 0.23 -37.52 -0.13 0.19 1.06 0 0 20 1 1 0 0 0 22 -0.16 1.09 58.99 1355 0.5 0 3.3 0.5 0.03 3.3 1.5 0.5 0.3 1.7 0.02 0 1.7 0.02 0 0 0 0 0 0 0 0 0 0 1.5 0 0.11
18.213 1.26 0.23 -37.53 -0.13 0.13 0.88 0 0 20 1 1 0 0 0 22 -0.16 1.19 60.56 1356 0.5 0 3.3 0.5 0.03 3.3 1.5 0.5 0.3 1.7 0.02 0 1.7 0.02 0 0 0 0 0 0 0 0 0 0 1.5 0 0.11
18.313 1.25 0.24 -37.62 -0.06 0.06 1 0 0 20 1 2 0 0 0 22 -0.29 7.72 59.03 1356 0.5 0 3.3 0.5 0.03 3.3 1.5 0.5 0.3 1.7 0.02 0 1.7 0.02 0 0 0 0 0 0 0 0 0 0 1.5 0 0.11
18.413 1.26 0.23 -37.61 -0.13 0.19 1 0 0 21 1 1 0 0 0 22 -0.21 1.12 60.53 1356 0.5 0 3.3 0.5 0.03 3.3 1.5 0.5 0.3 1.7 0.02 0 1.7 0.02 0 0 0 0 0 0 0 0 0 0 1.5 0 0.11
18.513 1.26 0.23 -37.58 -1.37 0.69 1.5 0 0 21 1 1 0 0 0 22 2.1 0.37 57.74 1355 0.5 0 3.3 0.5 0.03 3.3 1.5 0.5 0.3 1.7 0.02 0 1.7 0.02 0 0 0 0 0 0 0 0 0 0 1.5 0 0.11
18.613 1.26 0.22 -37.34 -1.06 0.56 0.69 0 0 21 1 1 0 0 0 22 2.22 0.62 60.34 1355 0.5 0 3.3 0.5 0.03 3.3 1.5 0.5 0.3 1.7 0.02 0 1.7 0.02 0 0 0 0 0 0 0 0 0 0 1.5 0 0.11
18.713 1.27 0.23 -36.94 1.19 1.12 1.87 0 0 21 1 1 0 0 0 22 -3.82 -2.09 57.26 1354 0.5 0 3.3 0.5 0.03 3.3 1.5 0.5 0.3 1.7 0.02 0 1.7 0.02 0 0 0 0 0 0 0 0 0 0 1.5 0 0.11
18.813 1.27 0.25 -36.5 2.25 1.37 0.19 0 0 20 1 1 0 0 0 22 -0.93 -0.06 60.71 1354 0.5 0 3.3 0.5 0.03 3.3 1.5 0.5 0.3 1.7 0.02 0 1.7 0.02 0 0 0 0 0 0 0 0 0 0 1.5 0 0.11
18.913 1.27 0.26 -36.04 -0.75 -0.44 0.31 0 0 19 1 1 0 0 0 22 0.52 2.54 59.94 1354 0.5 0 3.3 0.5 0.03 3.3 1.5 0.5 0.3 1.7 0.02 0 1.7 0.02 0 0 0 0 0 0 0 0 0 0 1.5 0 0.11
19.013 1.27 0.25 -35.78 1.12 1.25 0.19 0 0 20 1 1 0 0 0 22 -3.6 -0.04 59.03 1354 0.5 0 3.3 0.5 0.03 3.3 1.5 0.5 0.3 1.7 0.02 0 1.7 0.02 0 0 0 0 0 0 0 0 0 0 1.5 0 0.11
19.113 1.25 0.25 -35.68 0.94 1.25 1.62 0 0 20 1 1 0 0 0 22 -2.84 1.33 59.38 1354 0.5 0 3.3 0.5 0.03 3.3 1.5 0.5 0.3 1.7 0.02 0 1.7 0.02 0 0 0 0 0 0 0 0 0 0 1.5 0 0.11
19.213 1.3 0.21 -35.52 0.25 0.94 1.69 0 0 20 1 1 0 0 0 22 -1.28 -1.34 58.08 1355 0.5 0 3.3 0.5 0.03 3.3 1.5 0.5 0.3 1.7 0.02 0 1.7 0.02 0 0 0 0 0 0 0 0 0 0 1.5 0 0.11
19.313 1.42 0.16 -35.09 0.37 0.31 3 0 0 20 1 1 0 0 0 22 1.29 4.59 55.42 1354 0.5 0 3.3 0.5 0.03 3.3 1.5 0.5 0.3 1.7 0.02 0 1.7 0.02 0 0 0 0 0 0 0 0 0 0 1.5 0 0.11
19.413 1.78 -0.14 -34.93 5.56 -0.13 1.56 0 0 18 1 1 0 0 0 22 -5.81 -2.05 59.15 1355 0.5 0 3.3 0.5 0.03 3.3 1.5 0.5 0.3 1.7 0.02 0 1.7 0.02 0 0 0 0 0 0 0 0 0 0 1.5 0 0.11
19.513 1.98 -0.43 -34.67 0 1.12 3.31 0 0 19 1 1 0 0 0 22 9.56 6.96 57.47 1355 0.5 0 3.3 0.5 0.03 3.3 1.5 0.5 0.3 1.7 0.02 0 1.7 0.02 0 0 0 0 0 0 0 0 0 0 1.5 0 0.11
19.613 1.8 -0.32 -34.06 -6.12 -0.13 8 0 0 19 1 1 0 0 0 22 5.05 -0.54 49.15 1355 0.5 0 3.3 0.5 0.03 3.3 1.5 0.5 0.3 1.7 0.02 0 1.7 0.02 0 0 0 0 0 0 0 0 0 0 1.5 0 0.11
19.713 1.75 -0.29 -32.97 1.19 5 7.75 0 0 21 1 1 0 0 0 22 -2.32 10.04 38.97 1355 0.5 0 3.3 0.5 0.03 3.3 1.5 0.5 0.3 1.7 0.02 0 1.7 0.02 0 0 0 0 0 0 0 0 0 0 1.5 0 0.11
19.813 1.52 -0.07 -31.55 -6.56 1.81 25.44 0 0 20 1 1 0 0 0 22 5.52 -1.96 33.29 1355 0.5 0 3.3 0.5 0.03 3.3 1.5 0.5 0.3 1.7 0.02 0 1.7 0.02 0 0 0 0 0 0 0 0 0 0 1.5 0 0.11
19.913 1.08 0.45 -29.99 0.19 8.5 4.62 0 0 19 1 1 0 0 0 22 3.41 2.65 42.08 1356 0.5 0 3.3 0.5 0.03 3.3 1.5 0.5 0.3 1.7 0.02 0 1.7 0.02 0 0 0 0 0 0 0 0 0 0 1.5 0 0.11
20.013 1.1 0.45 -28.71 -4.87 2.31 12.44 0 0 21 1 1 0 0 0 22 2.18 4.38 39.76 1356 0.5 0 3.3 0.5 0.03 3.3 1.5 0.5 0.3 1.7 0.02 0 1.7 0.02 0 0 0 0 0 0 0 0 0 0 1.5 0 0.11
20.113 1.14 0.38 -27.59 4.12 -5.69 9.75 0 0 22 1 1 0 0 0 22 -1.79 -0.72 49.11 1356 0.5 0 3.3 0.5 0.03 3.3 1.5 0.5 0.3 1.7 0.02 0 1.7 0.02 0 0 0 0 0 0 0 0 0 0 1.5 0 0.11
20.213 1.11 0.41 -26.7 0.06 8.69 2.94 0 0 20 1 1 0 0 0 22 0.95 -8.84 48.59 1356 0.5 0 3.3 0.5 0.03 3.3 1.5 0.5 0.3 1.7 0.02 0 1.7 0.02 0 0 0 0 0 0 0 0 0 0 1.5 0 0.11
20.313 1.03 0.38 -25.84 -0.5 -11.38 13.25 0 0 19 1 1 0 0 0 22 -0.6 6.21 44.78 1356 0.5 0 3.3 0.5 0.03 3.3 1.5 0.5 0.3 1.7 0.02 0 1.7 0.02 0 0 0 0 0 0 0 0 0 0 1.5 0 0.11
20.413 1.15 0.26 -25.06 -0.19 11.31 -1.25 0 0 20 1 1 0 0 0 22 -1.08 -0.84 50.85 1356 0.5 0 3.3 0.5 0.03 3.3 1.5 0.5 0.3 1.7 0.02 0 1.7 0.02 0 0 0 0 0 0 0 0 0 0 1.5 0 0.11
20.513 0.97 0.26 -24.29 0.62 -9.81 14.44 0 0 22 1 1 0 0 0 22 -3.35 -2 50.09 1356 0.5 0 3.3 0.5 0.03 3.3 1.5 0.5 0.3 1.7 0.02 0 1.7 0.02 0 0 0 0 0 0 0 0 0 0 1.5 0 0.11
20.613 0.98 0.21 -23.59 -2.94 1.5 6.5 0 0 21 1 1 0 0 0 22 1.49 13.11 44.63 1356 0.5 0 3.3 0.5 0.03 3.3 1.5 0.5 0.3 1.7 0.02 0 1.7 0.02 0 0 0 0 0 0 0 0 0 0 1.5 0 0.11
20.713 0.82 0.27 -22.77 6.19 2.5 5.31 0 0 20 1 1 0 0 0 22 -2.4 -15.79 50.62 1356 0.5 0 3.3 0.5 0.03 3.3 1.5 0.5 0.3 1.7 0.02 0 1.7 0.02 0 0 0 0 0 0 0 0 0 0 1.5 0 0.11
20.813 1.05 0.21 -22.01 3.81 -2.87 10.94 0 0 21 1 1 0 0 0 22 -10.22 2.34 46.62 1355 0.5 0 3.3 0.5 0.03 3.3 1.5 0.5 0.3 1.7 0.02 0 1.7 0.02 0 0 0 0 0 0 0 0 0 0 1.5 0 0.11
20.913 1.18 0.02 -21.19 -8.75 8 -0.19 0 0 21 1 1 0 0 0 22 10.47 -17.49 50.54 1354 0.5 0 3.3 0.5 0.03 3.3 1.5 0.5 0.3 1.7 0.02 0 1.7 0.02 0 0 0 0 0 0 0 0 0 0 1.5 0 0.11
21.013 0.8 0.31 -20.67 -4.5 -7.81 10.19 0 0 20 1 1 0 0 0 22 4.18 9.57 51.72 1351 0.5 0 3.3 0.5 0.03 3.3 1.5 0.5 0.3 1.7 0.02 0 1.7 0.02 0 0 0 0 0 0 0 0 0 0 1.5 0 0.11
21.113 0.97 0.08 -20.1 4.12 -1 9 0 0 21 1 1 0 0 0 22 -7.6 -4.64 49.24 1351 0.5 0 3.3 0.5 0.03 3.3 1.5 0.5 0.3 1.7 0.02 0 1.7 0.02 0 0 0 0 0 0 0 0 0 0 1.5 0 0.11
21.213 0.83 0.1 -19.49 -3.44 -10.5 9.75 0 0 21 1 2 0 0 0 22 3.88 17.71 47.45 1351 0.5 0 3.3 0.5 0.03 3.3 1.5 0.5 0.3 1.7 0.02 0 1.7 0.02 0 0 0 0 0 0 0 0 0 0 1.5 0 0.11
21.313 0.96 -0.11 -18.83 0.31 -7.75 1.06 0 0 21 1 1 0 0 0 22 7.58 9.17 53.04 1353 0.5 0 3.3 0.5 0.03 3.3 1.5 0.5 0.3 1.7 0.02 0 1.7 0.02 0 0 0 0 0 0 0 0 0 0 1.5 0 0.11
21.413 1.07 -0.15 -18.35 -1.31 4.94 2.31 0 0 22 1 1 0 0 0 22 0.21 9.97 48.06 1353 0.5 0 3.3 0.5 0.03 3.3 1.5 0.5 0.3 1.7 0.02 0 1.7 0.02 0 0 0 0 0 0 0 0 0 0 1.5 0 0.11
21.513 0.88 -0.05 -17.76 6.87 -2 6.31 0 0 21 1 2 0 0 0 22 -2.12 2.42 54.19 1354 0.5 0 3.3 0.5 0.03 3.3 1.5 0.5 0.3 1.7 0.02 0 1.7 0.02 0 0 0 0 0 0 0 0 0 0 1.5 0 0.11
21.613 0.87 -0.18 -17.24 5.06 0.44 8.69 0 0 22 1 2 0 0 0 22 -8.86 14.9 48.04 1354 0.5 0 3.3 0.5 0.03 3.3 1.5 0.5 0.3 1.7 0.02 0 1.7 0.02 0 0 0 0 0 0 0 0 0 0 1.5 0 0.11
21.713 0.62 0.04 -16.71 2 4.06 -0.25 0 0 22 1 2 0 0 0 22 -6.6 -4.03 51.63 1354 0.5 0 3.3 0.5 0.03 3.3 1.5 0.5 0.3 1.7 0.02 0 1.7 0.02 0 0 0 0 0 0 0 0 0 0 1.5 0 0.11
21.813 0.65 -0.05 -16 -0.25 -15.19 17.19 0 0 20 1 2 0 0 0 22 -9.74 14.27 49.04 1354 0.5 0 3.3 0.5 0.03 3.3 1.5 0.5 0.3 1.7 0.02 0 1.7 0.02 0 0 0 0 0 0 0 0 0 0 1.5 0 0.11
21.913 0.7 -0.08 -15.28 -14.25 6.62 -1 0 0 20 1 2 0 0 0 22 5.37 5.99 52.34 1355 0.5 0 3.3 0.5 0.03 3.3 1.5 0.5 0.3 1.7 0.02 0 1.7 0.02 0 0 0 0 0 0 0 0 0 0 1.5 0 0.11
22.013 0.64 -0.02 -14.61 5.56 -7.31 7.37 0 0 18 1 2 0 0 0 22 -6.6 -2.28 53.92 1356 0.5 0 3.3 0.5 0.03 3.3 1.5 0.5 0.3 1.7 0.02 0 1.7 0.02 0 0 0 0 0 0 0 0 0 0 1.5 0 0.11
22.113 0.77 -0.11 -13.9 10.75 -7.19 14.69 0 0 21 1 2 0 0 0 22 -11.49 19.16 50.35 1356 0.5 0 3.3 0.5 0.03 3.3 1.5 0.5 0.3 1.7 0.02 0 1.7 0.02 0 0 0 0 0 0 0 0 0 0 1.5 0 0.11
22.213 0.58 0.11 -13.17 -1.94 14.5 6.56 0 0 21 1 -4 0 0 0 22 -6.5 -30.79 47.79 1356 0.5 0 3.3 0.5 0.03 3.3 1.5 0.5 0.3 1.7 0.02 0 1.7 0.02 0 0 0 0 0 0 0 0 0 0 1.5 0 0.11
22.314 0.85 -0.23 -12.35 5 -18.62 14.25 0 0 20 1 -27 0 0 0 22 -1.03 -14.57 47.23 1356 0.5 0 3.3 0.5 0.03 3.3 1.5 0.5 0.3 1.7 0.02 0 1.7 0.02 0 0 0 0 0 0 0 0 0 0 1.5 0 0.11
22.413 2 -1.45 -11.5 7 -4.12 4.44 0 0 22 1 -43 0 0 0 22 1.31 -30.89 46.95 1356 0.5 0 3.3 0.5 0.03 3.3 1.5 0.5 0.3 1.7 0.02 0 1.7 0.02 0 0 0 0 0 0 0 0 0 0 1.5 0 0.11
22.513 1.82 -1.88 -10.51 -7.37 1.69 1.25 0 0 24 1 -39 0 0 0 22 -3.84 -33.68 48.23 1353 0.5 0 3.3 0.5 0.03 3.3 1.5 0.5 0.3 1.7 0.02 0 1.7 0.02 0 0 0 0 0 0 0 0 0 0 1.5 0 0.11
22.613 2.14 -2.8 -9.59 1.87 -8.19 6.81 0 0 31 1 2 0 0 0 22 -2.75 6.54 43.39 1351 0.5 0 3.3 0.5 0.03 3.3 1.5 0.5 0.3 1.7 0.02 0 1.7 0.02 0 0 0 0 0 0 0 0 0 0 1.5 0 0.11
22.713 1.85 -3.97 -8.75 -8.06 -6.81 8.06 0 0 25 1 11 0 0 0 22 5.53 11.71 46.61 1345 0.5 0 3.3 0.5 0.03 3.3 1.5 0.5 0.3 1.7 0.02 0 1.7 0.02 0 0 0 0 0 0 0 0 0 0 1.5 0 0.11
22.814 1.93 -3.53 -7.9 1.75 5.69 16.25 0 0 21 2 10 0 0 0 22 8 13.39 44.04 1347 0.5 0 3.3 0.5 0.03 3.3 1.5 0.5 0.3 1.7 0.02 0 1.7 0.02 0 0 0 0 0 0 0 0 0 0 1.5 0 0.11
22.913 1.42 -0.2 -6.51 -33.31 29.81 3.87 0 0 23 1 1 0 0 0 22 53.92 17.3 37.02 1348 0.5 0 3.3 0.5 0.03 3.3 1.5 0.5 0.3 1.7 0.02 0 1.7 0.02 0 0 0 0 0 0 0 0 0 0 1.5 0 0.11
23.013 0.78 0.08 -5.05 12.19 8 10.63 0 0 22 1 5 0 0 0 22 -8.18 11.09 38.51 1353 0.5 0 3.3 0.5 0.03 3.3 1.5 0.5 0.3 1.7 0.02 0 1.7 0.02 0 0 0 0 0 0 0 0 0 0 1.5 0 0.11
23.113 0.96 -0.66 -3.85 -4.31 7.81 3.94 0 0 22 1 11 0 0 0 22 -6.21 -2.54 46.01 1354 0.5 0 3.3 0.5 0.03 3.3 1.5 0.5 0.3 1.7 0.02 0 1.7 0.02 0 0 0 0 0 0 0 0 0 0 1.5 0 0.11
23.213 0.64 -0.18 -3.1 -1.62 11.75 18.94 0 0 23 1 1 0 0 0 22 0.69 -12.71 47.01 1354 0.5 0 3.3 0.5 0.03 3.3 1.5 0.5 0.3 1.7 0.02 0 1.7 0.02 0 0 0 0 0 0 0 0 0 0 1.5 0 0.11
23.313 0.98 -0.38 -2.33 5 -11.63 0.06 0 0 22 1 1 0 0 0 22 -1.25 -0.01 50.15 1354 0.5 0 3.3 0.5 0.03 3.3 1.5 0.5 0.3 1.7 0.02 0 1.7 0.02 0 0 0 0 0 0 0 0 0 0 1.5 0 0.11
23.413 1.75 -1.04 -1.69 -4.75 3.44 1.75 0 0 22 2 2 0 0 0 22 8.7 4.09 51.82 1353 0.5 0 3.3 0.5 0.03 3.3 1.5 0.5 0.3 1.7 0.02 0 1.7 0.02 0 0 0 0 0 0 0 0 0 0 1.5 0 0.11
23.513 1.65 -0.83 -1.01 2.12 -0.62 13.81 0 0 22 2 2 0 0 0 22 0.77 -6.13 48.28 1353 0.5 0 3.3 0.5 0.03 3.3 1.5 0.5 0.3 1.7 0.02 0 1.7 0.02 0 0 0 0 0 0 0 0 0 0 1.5 0 0.11
23.613 1.44 -0.64 -0.41 -8.75 1.69 5.56 0 0 22 1 1 0 0 0 22 2.51 6.07 43.71 1353 0.5 0 3.3 0.5 0.03 3.3 1.5 0.5 0.3 1.7 0.02 0 1.7 0.02 0 0 0 0 0 0 0 0 0 0 1.5 0 0.11
23.714 1.42 -0.62 0.11 0.88 -4 6 0 0 21 1 1 0 0 0 22 3.58 0.32 56.18 1353 0.5 0 3.3 0.5 0.03 3.3 1.5 0.5 0.3 1.7 0.02 0 1.7 0.02 0 0 0 0 0 0 0 0 0 0 1.5 0 0.11
23.814 1.09 -0.33 0.47 1.69 9.25 -4 0 0 21 1 2 0 0 0 22 1.66 1.81 53.15 1353 0.5 0 3.3 0.5 0.03 3.3 1.5 0.5 0.3 1.7 0.02 0 1.7 0.02 0 0 0 0 0 0 0 0 0 0 1.5 0 0.11
23.914 1.1 -0.32 0.9 3.75 -6.62 8 0 0 23 1 2 0 0 0 22 4.58 7.7 54.86 1353 0.5 0 3.3 0.5 0.03 3.3 1.5 0.5 0.3 1.7 0.02 0 1.7 0.02 0 0 0 0 0 0 0 0 0 0 1.5 0 0.11
24.013 1.1 -0.26 1.35 3.25 15.88 0.69 0 0 22 1 2 0 0 0 24 -0.82 -23.15 58.92 1355 0.5 0 3.3 0.5 0.03 3.3 1.5 0.5 0.3 1.7 0.02 0 1.7 0.02 0 0 0 0 0 0 0 0 0 0 1.5 0 0.11
24.113 0.76 -0.08 1.75 -4.37 -11.38 11.75 0 0 21 1 2 0 0 0 24 10.5 9.62 52.62 1355 0.5 0 3.3 0.5 0.03 3.3 1.5 0.5 0.3 1.7 0.02 0 1.7 0.02 0 0 0 0 0 0 0 0 0 0 1.5 0 0.11
24.213 1.09 -0.34 2.3 15.81 6.31 -0.88 0 0 22 1 1 0 0 0 25 -9.67 -1.97 53.47 1357 0.5 0 3.3 0.5 0.03 3.3 1.5 0.5 0.3 1.7 0.02 0 1.7 0.02 0 0 0 0 0 0 0 0 0 0 1.5 0 0.11
24.313 1.46 -0.76 2.94 7 -9.13 19.06 0 0 21 1 2 0 0 0 25 -13.57 -5.48 46.03 1358 0.5 0 3.3 0.5 0.03 3.3 1.5 0.5 0.3 1.7 0.02 0 1.7 0.02 0 0 0 0 0 0 0 0 0 0 1.5 0 0.11
24.413 1.15 -0.37 3.49 -12.19 12.81 7.06 0 0 22 1 2 0 0 0 25 -2.2 7.33 48.8 1358 0.5 0 3.3 0.5 0.03 3.3 1.5 0.5 0.3 1.7 0.02 0 1.7 0.02 0 0 0 0 0 0 0 0 0 0 1.5 0 0.11
24.514 0.53 0.25 4.04 2.56 4.25 -1.19 0 0 22 1 1 0 0 0 25 3.87 -1.4 50.92 1358 0.5 0 3.3 0.5 0.03 3.3 1.5 0.5 0.3 1.7 0.02 0 1.7 0.02 0 0 0 0 0 0 0 0 0 0 1.5 0 0.11
24.613 0.94 -0.05 4.86 12.31 -12.38 23.06 0 0 21 1 1 0 0 0 25 -20.52 18.4 45.06 1358 0.5 0 3.3 0.5 0.03 3.3 1.5 0.5 0.3 1.7 0.02 0 1.7 0.02 0 0 0 0 0 0 0 0 0 0 1.5 0 0.11
24.713 0.67 0.2 5.61 -10.19 1.94 7.81 0 0 21 1 2 0 0 0 27 -9.08 16.49 41.96 1361 0.5 0 3.3 0.5 0.03 3.3 1.5 0.5 0.3 1.7 0.02 0 1.7 0.02 0 0 0 0 0 0 0 0 0 0 1.5 0 0.11
24.813 0.33 0.38 6.39 -6.62 13.69 1.37 0 0 21 1 2 0 0 0 28 17.67 6.76 49.06 1363 0.5 0 3.3 0.5 0.03 3.3 1.5 0.5 0.3 1.7 0.02 0 1.7 0.02 0 0 0 0 0 0 0 0 0 0 1.5 0 0.11
24.914 0.69 0.25 7.31 3.25 -3.12 7.12 0 0 20 1 2 0 0 0 28 -2.81 -15.15 46.71 1364 0.5 0 3.3 0.5 0.03 3.3 1.5 0.5 0.3 1.7 0.02 0 1.7 0.02 0 0 0 0 0 0 0 0 0 0 1.5 0 0.11
25.014 0.71 0.27 8.13 5.94 -5 19 0 0 21 1 2 0 0 0 28 -12.07 17.22 44.31 1365 0.5 0 3.3 0.5 0.03 3.3 1.5 0.5 0.3 1.7 0.02 0 1.7 0.02 0 0 0 0 0 0 0 0 0 0 1.5 0 0.11
25.114 0.54 0.36 8.98 -2.87 13.69 0.31 0 0 22 1 2 0 0 0 29 -6 -5.12 53.79 1365 0.5 0 3.3 0.5 0.03 3.3 1.5 0.5 0.3 1.7 0.02 0 1.7 0.02 0 0 0 0 0 0 0 0 0 0 1.5 0 0.11
25.213 0.42 0.27 9.81 2.75 -6.87 7.56 0 0 21 1 2 0 0 0 29 3.31 -1.87 49.24 1365 0.5 0 3.3 0.5 0.03 3.3 1.5 0.5 0.3 1.7 0.02 0 1.7 0.02 0 0 0 0 0 0 0 0 0 0 1.5 0 0.11
25.313 0.6 0.3 10.69 3.94 -14.56 15.69 0 0 21 1 2 0 0 0 31 1.25 8.72 43.65 1368 0.5 0 3.3 0.5 0.03 3.3 1.5 0.5 0.3 1.7 0.02 0 1.7 0.02 0 0 0 0 0 0 0 0 0 0 1.5 0 0.11
25.413 0.47 0.51 11.43 -1.62 -0.56 11.63 0 0 21 1 2 0 0 0 32 -5.46 8.44 48.47 1370 0.5 0 3.3 0.5 0.03 3.3 1.5 0.5 0.3 1.7 0.02 0 1.7 0.02 0 0 0 0 0 0 0 0 0 0 1.5 0 0.11
25.513 0.48 0.45 12.27 -6.19 7.19 3.69 0 0 20 1 2 0 0 0 32 3.28 11.95 46.4 1371 0.5 0 3.3 0.5 0.03 3.3 1.5 0.5 0.3 1.7 0.02 0 1.7 0.02 0 0 0 0 0 0 0 0 0 0 1.5 0 0.11
25.614 0.66 0.23 13.25 -4.19 7.19 1.81 0 0 20 1 2 0 0 0 35 9.19 -5.88 48.67 1375 0.5 0 3.3 0.5 0.03 3.3 1.5 0.5 0.3 1.7 0.02 0 1.7 0.02 0 0 0 0 0 0 0 0 0 0 1.5 0 0.11
25.714 0.82 0.14 14.17 6.81 -5.06 11.88 0 0 22 1 3 0 0 0 36 -1.38 1.05 43.57 1377 0.5 0 3.3 0.5 0.03 3.3 1.5 0.5 0.3 1.7 0.02 0 1.7 0.02 0 0 0 0 0 0 0 0 0 0 1.5 0 0.11
25.814 1.27 -0.32 15.07 8.94 -10 15.25 0 0 20 1 3 0 0 0 38 -15.5 15.08 43.59 1380 0.5 0 3.3 0.5 0.03 3.3 1.5 0.5 0.3 1.7 0.02 0 1.7 0.02 0 0 0 0 0 0 0 0 0 0 1.5 0 0.11
25.914 1.63 -0.79 16.22 9.63 -6.81 17.5 0 0 23 1 4 0 0 0 40 -4.84 26.94 38.73 1383 0.5 0 3.3 0.5 0.03 3.3 1.5 0.5 0.3 1.7 0.02 0 1.7 0.02 0 0 0 0 0 0 0 0 0 0 1.5 0 0.11
26.014 0.92 0.12 17.69 -5.5 9 23.81 0 0 28 1 3 0 0 0 39 -1.51 5.85 27.52 1378 0.5 0 3.3 0.5 0.03 3.3 1.5 0.5 0.3 1.7 0.02 0 1.7 0.02 0 0 0 0 0 0 0 0 0 0 1.5 0 0.11
26.114 0.65 0.67 19.38 -1.87 10.44 16.56 0 0 21 1 2 0 0 0 37 1.36 -3.97 30.26 1375 0.5 0 3.3 0.5 0.03 3.3 1.5 0.5 0.3 1.7 0.02 0 1.7 0.02 0 0 0 0 0 0 0 0 0 0 1.5 0 0.11
26.214 0.99 1.13 21.06 -12.69 7.37 8.31 0 0 20 1 2 0 0 0 33 10.9 5.1 33.97 1370 0.5 0 3.3 0.5 0.03 3.3 1.5 0.5 0.3 1.7 0.02 0 1.7 0.02 0 0 0 0 0 0 0 0 0 0 1.5 0 0.11
26.314 1.07 0.88 22.8 2.87 -11.94 23.87 0 0 19 1 2 0 0 0 31 2.82 9.81 30.3 1371 0.5 0 3.3 0.5 0.03 3.3 1.5 0.5 0.3 1.7 0.02 0 1.7 0.02 0 0 0 0 0 0 0 0 0 0 1.5 0 0.11
26.414 0.81 -0.23 24.31 -1.25 -8.25 14.56 0 0 21 1 2 0 0 0 27 -7.97 19.88 33.2 1368 0.5 0 3.3 0.5 0.03 3.3 1.5 0.5 0.3 1.7 0.02 0 1.7 0.02 0 0 0 0 0 0 0 0 0 0 1.5 0 0.11
26.514 1.3 -0.46 25.57 -14.88 12.25 0.62 0 0 21 1 2 0 0 0 22 22.45 1.47 40.35 1358 0.5 0 3.3 0.5 0.03 3.3 1.5 0.5 0.3 1.7 0.02 0 1.7 0.02 0 0 0 0 0 0 0 0 0 0 1.5 0 0.11
26.614 0.71 0.07 26.47 -5.06 -14.38 15.31 0 0 21 1 2 0 0 0 22 12.8 10.97 40.48 1358 0.5 0 3.3 0.5 0.03 3.3 1.5 0.5 0.3 1.7 0.02 0 1.7 0.02 0 0 0 0 0 0 0 0 0 0 1.5 0 0.11
26.714 0.92 -0.04 27.11 8.75 8.75 -0.94 0 0 21 2 2 0 0 0 22 -0.19 0.47 45.93 1357 0.5 0 3.3 0.5 0.03 3.3 1.5 0.5 0.3 1.7 0.02 0 1.7 0.02 0 0 0 0 0 0 0 0 0 0 1.5 0 0.11
26.814 0.93 -0.07 27.58 -2.56 -8.63 9.25 0 0 20 2 1 0 0 0 22 1.89 13.32 47.34 1357 0.5 0 3.3 0.5 0.03 3.3 1.5 0.5 0.3 1.7 0.02 0 1.7 0.02 0 0 0 0 0 0 0 0 0 0 1.5 0 0.11
26.914 0.87 0.08 27.92 3.56 14.63 -3.56 0 0 21 2 1 0 0 0 22 1.86 -13.15 56.13 1358 0.5 0 3.3 0.5 0.03 3.3 1.5 0.5 0.3 1.7 0.02 0 1.7 0.02 0 0 0 0 0 0 0 0 0 0 1.5 0 0.11
27.014 0.75 0.14 28.22 -2 4.75 5.19 0 0 21 1 1 0 0 0 22 -8.95 -5.25 50.85 1358 0.5 0 3.3 0.5 0.03 3.3 1.5 0.5 0.3 1.7 0.02 0 1.7 0.02 0 0 0 0 0 0 0 0 0 0 1.5 0 0.11
27.114 0.75 0.13 28.6 3.75 8 -5.44 0 0 21 2 1 0 0 0 22 1.66 7.08 58.32 1358 0.5 0 3.3 0.5 0.03 3.3 1.5 0.5 0.3 1.7 0.02 0 1.7 0.02 0 0 0 0 0 0 0 0 0 0 1.5 0 0.11
27.214 0.71 0.25 28.89 6.44 -6.19 11.94 0 0 20 2 1 0 0 0 22 -8.28 20.44 52.58 1358 0.5 0 3.3 0.5 0.03 3.3 1.5 0.5 0.3 1.7 0.02 0 1.7 0.02 0 0 0 0 0 0 0 0 0 0 1.5 0 0.11
27.314 0.57 0.44 29.25 1.44 7.69 4.25 0 0 20 1 1 0 0 0 22 -16.7 10.25 50.49 1358 0.5 0 3.3 0.5 0.03 3.3 1.5 0.5 0.3 1.7 0.02 0 1.7 0.02 0 0 0 0 0 0 0 0 0 0 1.5 0 0.11
27.414 0.6 0.26 29.65 -5.69 8.88 -10.69 0 0 20 1 1 0 0 0 22 13.72 -21.28 54 1358 0.5 0 3.3 0.5 0.03 3.3 1.5 0.5 0.3 1.7 0.02 0 1.7 0.02 0 0 0 0 0 0 0 0 0 0 1.5 0 0.11
27.514 0.79 0.08 30.07 5.87 -9.25 17.69 0 0 21 1 1 0 0 0 22 -10.04 2.16 50.18 1358 0.5 0 3.3 0.5 0.03 3.3 1.5 0.5 0.3 1.7 0.02 0 1.7 0.02 0 0 0 0 0 0 0 0 0 0 1.5 0 0.11
27.614 1.19 -0.27 30.42 -5.81 3.25 -2.94 0 0 20 1 1 0 0 0 22 11.82 0.35 49.04 1358 0.5 0 3.3 0.5 0.03 3.3 1.5 0.5 0.3 1.7 0.02 0 1.7 0.02 0 0 0 0 0 0 0 0 0 0 1.5 0 0.11
27.714 0.92 0 30.09 -9 0.62 13.63 0 0 23 1 1 0 0 0 22 3.93 1.02 60.32 1358 0.5 0 3.3 0.5 0.03 3.3 1.5 0.5 0.3 1.7 0.02 0 1.7 0.02 0 0 0 0 0 0 0 0 0 0 1.5 0 0.11
27.814 0.93 -0.09 29.76 7 -5.5 0.44 0 0 20 1 1 0 0 0 22 0.11 9.15 57.31 1358 0.5 0 3.3 0.5 0.03 3.3 1.5 0.5 0.3 1.7 0.02 0 1.7 0.02 0 0 0 0 0 0 0 0 0 0 1.5 0 0.11
27.914 1.27 -0.46 29.97 2.19 -7.25 -1.44 0 0 19 1 1 0 0 0 22 3.29 9.78 60.56 1359 0.5 0 3.3 0.5 0.03 3.3 1.5 0.5 0.3 1.7 0.02 0 1.7 0.02 0 0 0 0 0 0 0 0 0 0 1.5 0 0.11
28.014 1.34 -0.56 30.18 -3.06 1.31 0.81 0 0 20 1 1 0 0 0 22 -0.23 0.18 58.6 1359 0.5 0 3.3 0.5 0.03 3.3 1.5 0.5 0.3 1.7 0.02 0 1.7 0.02 0 0 0 0 0 0 0 0 0 0 1.5 0 0.11
28.114 1.38 -0.54 30.64 -2.75 -0.13 -1.19 0 0 19 1 1 0 0 0 22 3.13 4.41 59.78 1359 0.5 0 3.3 0.5 0.03 3.3 1.5 0.5 0.3 1.7 0.02 0 1.7 0.02 0 0 0 0 0 0 0 0 0 0 1.5 0 0.11
28.214 1.38 -0.49 31.03 0.44 1 3.87 0 0 19 1 1 0 0 0 22 -0.48 1.92 57.78 1359 0.5 0 3.3 0.5 0.03 3.3 1.5 0.5 0.3 1.7 0.02 0 1.7 0.02 0 0 0 0 0 0 0 0 0 0 1.5 0 0.11
28.314 1.36 -0.47 31.53 -1 1.19 1.19 0 0 20 2 1 0 0 0 22 2.72 1.5 60.24 1359 0.5 0 3.3 0.5 0.03 3.3 1.5 0.5 0.3 1.7 0.02 0 1.7 0.02 0 0 0 0 0 0 0 0 0 0 1.5 0 0.11
28.414 1.35 -0.44 31.9 0 0.06 1.69 0 0 20 1 1 0 0 0 22 -0.8 2.48 57.89 1361 0.5 0 3.3 0.5 0.03 3.3 1.5 0.5 0.3 1.7 0.02 0 1.7 0.02 0 0 0 0 0 0 0 0 0 0 1.5 0 0.11
28.514 1.34 -0.41 32.21 0.06 0.13 0.5 0 0 20 1 1 0 0 0 22 -0.63 2.44 61.36 1360 0.5 0 3.3 0.5 0.03 3.3 1.5 0.5 0.3 1.7 0.02 0 1.7 0.02 0 0 0 0 0 0 0 0 0 0 1.5 0 0.11
28.614 1.33 -0.38 32.74 -0.94 0.25 1.69 0 0 20 1 1 0 0 0 22 0.34 1.95 57.4 1361 0.5 0 3.3 0.5 0.03 3.3 1.5 0.5 0.3 1.7 0.02 0 1.7 0.02 0 0 0 0 0 0 0 0 0 0 1.5 0 0.11
28.714 1.31 -0.35 33.07 -1.81 0.13 -0.31 0 0 20 1 1 0 0 0 22 -1.12 2.46 59.68 1227 0.5 0 3.3 0.5 0.03 3.3 1.5 0.5 0.3 1.7 0.02 0 1.7 0.02 0 0 0 0 0 0 0 0 0 0 1.5 0 0.11
28.814 1.31 -0.33 33.51 -0.25 0.37 1.5 0 0 20 2 1 0 0 0 22 1.62 2.3 59.14 1227 0.5 0 3.3 0.5 0.03 3.3 1.5 0.5 0.3 1.7 0.02 0 1.7 0.02 0 0 0 0 0 0 0 0 0 0 1.5 0 0.11
