time roll pitch yaw roll_d pitch_d yaw_d longitude latitude height roll_t pitch_t yaw_t longitude_t latitude_t height_t roll_signal pitch_signal yaw_signal throttle Kp_r_d Ki_r_d Kd_r_d Kp_p_d Ki_p_d Kd_p_d Kp_y_d Ki_y_d Kd_y_d Kp_r Ki_r Kd_r Kp_p Ki_p Kd_p Kp_y Ki_y Kd_y Kp_lon Ki_lon Kd_lon Kp_lat Ki_lat Kd_lat Kp_h Ki_h Kd_h
0 0 0 0 0 0 0 0 0 0 0 0 0 0 0 25 0 0 0 1250 0.5 0.1 0.3 0.5 0.1 0.3 1.5 0.5 0.3 1.7 0 0 1.7 0 0 0 0 0 0 0 0 0 0 0 1.5 0 0.11
0 0 0 0 0 0 0 0 0 0 0 0 0 0 0 25 0 0 0 1250 0.5 0.1 0.3 0.5 0.1 0.3 1.5 0.5 0.3 1.7 0 0 1.7 0 0 0 0 0 0 0 0 0 0 0 1.5 0 0.11
0 0 0 0 0 0 0 0 0 0 0 0 0 0 0 25 0 0 0 1250 0.5 0.1 0.3 0.5 0.1 0.3 1.5 0.5 0.3 1.7 0 0 1.7 0 0 0 0 0 0 0 0 0 0 0 1.5 0 0.11
0 0 0 0 0 0 0 0 0 0 0 0 0 0 0 25 0 0 0 1250 0.5 0.1 0.3 0.5 0.1 0.3 1.5 0.5 0.3 1.7 0 0 1.7 0 0 0 0 0 0 0 0 0 0 0 1.5 0 0.11
0 0 0 0 0 0 0 0 0 0 0 0 0 0 0 25 0 0 0 1250 0.5 0.1 0.3 0.5 0.1 0.3 1.5 0.5 0.3 1.7 0 0 1.7 0 0 0 0 0 0 0 0 0 0 0 1.5 0 0.11
0 0 0 0 0 0 0 0 0 0 0 0 0 0 0 25 0 0 0 1250 0.5 0.1 0.3 0.5 0.1 0.3 1.5 0.5 0.3 1.7 0 0 1.7 0 0 0 0 0 0 0 0 0 0 0 1.5 0 0.11
0 0 0 0 0 0 0 0 0 0 0 0 0 0 0 25 0 0 0 1250 0.5 0.1 0.3 0.5 0.1 0.3 1.5 0.5 0.3 1.7 0 0 1.7 0 0 0 0 0 0 0 0 0 0 0 1.5 0 0.11
0 0 0 0 0 0 0 0 0 0 0 0 0 0 0 25 0 0 0 1250 0.5 0.1 0.3 0.5 0.1 0.3 1.5 0.5 0.3 1.7 0 0 1.7 0 0 0 0 0 0 0 0 0 0 0 1.5 0 0.11
0 0 0 0 0 0 0 0 0 0 0 0 0 0 0 25 0 0 0 1250 0.5 0.1 0.3 0.5 0.1 0.3 1.5 0.5 0.3 1.7 0 0 1.7 0 0 0 0 0 0 0 0 0 0 0 1.5 0 0.11
0 0 0 0 0 0 0 0 0 0 0 0 0 0 0 25 0 0 0 1250 0.5 0.1 0.3 0.5 0.1 0.3 1.5 0.5 0.3 1.7 0 0 1.7 0 0 0 0 0 0 0 0 0 0 0 1.5 0 0.11
0 0 0 0 0 0 0 0 0 0 0 0 0 0 0 25 0 0 0 1250 0.5 0.1 0.3 0.5 0.1 0.3 1.5 0.5 0.3 1.7 0 0 1.7 0 0 0 0 0 0 0 0 0 0 0 1.5 0 0.11
0 0 0 0 0 0 0 0 0 0 0 0 0 0 0 25 0 0 0 1250 0.5 0.1 0.3 0.5 0.1 0.3 1.5 0.5 0.3 1.7 0 0 1.7 0 0 0 0 0 0 0 0 0 0 0 1.5 0 0.11
0 0 0 0 0 0 0 0 0 0 0 0 0 0 0 25 0 0 0 1250 0.5 0.1 0.3 0.5 0.1 0.3 1.5 0.5 0.3 1.7 0 0 1.7 0 0 0 0 0 0 0 0 0 0 0 1.5 0 0.11
0 0 0 0 0 0 0 0 0 0 0 0 0 0 0 25 0 0 0 1250 0.5 0.1 0.3 0.5 0.1 0.3 1.5 0.5 0.3 1.7 0 0 1.7 0 0 0 0 0 0 0 0 0 0 0 1.5 0 0.11
0 0 0 0 0 0 0 0 0 0 0 0 0 0 0 25 0 0 0 1250 0.5 0.1 0.3 0.5 0.1 0.3 1.5 0.5 0.3 1.7 0 0 1.7 0 0 0 0 0 0 0 0 0 0 0 1.5 0 0.11
0 0 0 0 0 0 0 0 0 0 0 0 0 0 0 25 0 0 0 1250 0.5 0.1 0.3 0.5 0.1 0.3 1.5 0.5 0.3 1.7 0 0 1.7 0 0 0 0 0 0 0 0 0 0 0 1.5 0 0.11
0 0 0 0 0 0 0 0 0 0 0 0 0 0 0 25 0 0 0 1250 0.5 0.1 0.3 0.5 0.1 0.3 1.5 0.5 0.3 1.7 0 0 1.7 0 0 0 0 0 0 0 0 0 0 0 1.5 0 0.11
0 0 0 0 0 0 0 0 0 0 0 0 0 0 0 25 0 0 0 1250 0.5 0.1 0.3 0.5 0.1 0.3 1.5 0.5 0.3 1.7 0 0 1.7 0 0 0 0 0 0 0 0 0 0 0 1.5 0 0.11
0 0 0 0 0 0 0 0 0 0 0 0 0 0 0 25 0 0 0 1250 0.5 0.1 0.3 0.5 0.1 0.3 1.5 0.5 0.3 1.7 0 0 1.7 0 0 0 0 0 0 0 0 0 0 0 1.5 0 0.11
0 0 0 0 0 0 0 0 0 0 0 0 0 0 0 25 0 0 0 1250 0.5 0.1 0.3 0.5 0.1 0.3 1.5 0.5 0.3 1.7 0 0 1.7 0 0 0 0 0 0 0 0 0 0 0 1.5 0 0.11
0 0 0 0 0 0 0 0 0 0 0 0 0 0 0 25 0 0 0 1250 0.5 0.1 0.3 0.5 0.1 0.3 1.5 0.5 0.3 1.7 0 0 1.7 0 0 0 0 0 0 0 0 0 0 0 1.5 0 0.11
0 0 0 0 0 0 0 0 0 0 0 0 0 0 0 25 0 0 0 1250 0.5 0.1 0.3 0.5 0.1 0.3 1.5 0.5 0.3 1.7 0 0 1.7 0 0 0 0 0 0 0 0 0 0 0 1.5 0 0.11
0 0 0 0 0 0 0 0 0 0 0 0 0 0 0 25 0 0 0 1250 0.5 0.1 0.3 0.5 0.1 0.3 1.5 0.5 0.3 1.7 0 0 1.7 0 0 0 0 0 0 0 0 0 0 0 1.5 0 0.11
0 0 0 0 0 0 0 0 0 0 0 0 0 0 0 25 0 0 0 1250 0.5 0.1 0.3 0.5 0.1 0.3 1.5 0.5 0.3 1.7 0 0 1.7 0 0 0 0 0 0 0 0 0 0 0 1.5 0 0.11
0 0 0 0 0 0 0 0 0 0 0 0 0 0 0 25 0 0 0 1250 0.5 0.1 0.3 0.5 0.1 0.3 1.5 0.5 0.3 1.7 0 0 1.7 0 0 0 0 0 0 0 0 0 0 0 1.5 0 0.11
0 0 0 0 0 0 0 0 0 0 0 0 0 0 0 25 0 0 0 1250 0.5 0.1 0.3 0.5 0.1 0.3 1.5 0.5 0.3 1.7 0 0 1.7 0 0 0 0 0 0 0 0 0 0 0 1.5 0 0.11
0 0 0 0 0 0 0 0 0 0 0 0 0 0 0 25 0 0 0 1250 0.5 0.1 0.3 0.5 0.1 0.3 1.5 0.5 0.3 1.7 0 0 1.7 0 0 0 0 0 0 0 0 0 0 0 1.5 0 0.11
0 0 0 0 0 0 0 0 0 0 0 0 0 0 0 25 0 0 0 1250 0.5 0.1 0.3 0.5 0.1 0.3 1.5 0.5 0.3 1.7 0 0 1.7 0 0 0 0 0 0 0 0 0 0 0 1.5 0 0.11
0 0 0 0 0 0 0 0 0 0 0 0 0 0 0 25 0 0 0 1250 0.5 0.1 0.3 0.5 0.1 0.3 1.5 0.5 0.3 1.7 0 0 1.7 0 0 0 0 0 0 0 0 0 0 0 1.5 0 0.11
0 0 0 0 0 0 0 0 0 0 0 0 0 0 0 25 0 0 0 1250 0.5 0.1 0.3 0.5 0.1 0.3 1.5 0.5 0.3 1.7 0 0 1.7 0 0 0 0 0 0 0 0 0 0 0 1.5 0 0.11
0 0 0 0 0 0 0 0 0 0 0 0 0 0 0 25 0 0 0 1250 0.5 0.1 0.3 0.5 0.1 0.3 1.5 0.5 0.3 1.7 0 0 1.7 0 0 0 0 0 0 0 0 0 0 0 1.5 0 0.11
0 0 0 0 0 0 0 0 0 0 0 0 0 0 0 25 0 0 0 1250 0.5 0.1 0.3 0.5 0.1 0.3 1.5 0.5 0.3 1.7 0 0 1.7 0 0 0 0 0 0 0 0 0 0 0 1.5 0 0.11
0 0 0 0 0 0 0 0 0 0 0 0 0 0 0 25 0 0 0 1250 0.5 0.1 0.3 0.5 0.1 0.3 1.5 0.5 0.3 1.7 0 0 1.7 0 0 0 0 0 0 0 0 0 0 0 1.5 0 0.11
0 0 0 0 0 0 0 0 0 0 0 0 0 0 0 25 0 0 0 1250 0.5 0.1 0.3 0.5 0.1 0.3 1.5 0.5 0.3 1.7 0 0 1.7 0 0 0 0 0 0 0 0 0 0 0 1.5 0 0.11
0 0 0 0 0 0 0 0 0 0 0 0 0 0 0 25 0 0 0 1250 0.5 0.1 0.3 0.5 0.1 0.3 1.5 0.5 0.3 1.7 0 0 1.7 0 0 0 0 0 0 0 0 0 0 0 1.5 0 0.11
0 0 0 0 0 0 0 0 0 0 0 0 0 0 0 25 0 0 0 1250 0.5 0.1 0.3 0.5 0.1 0.3 1.5 0.5 0.3 1.7 0 0 1.7 0 0 0 0 0 0 0 0 0 0 0 1.5 0 0.11
0 0 0 0 0 0 0 0 0 0 0 0 0 0 0 25 0 0 0 1250 0.5 0.1 0.3 0.5 0.1 0.3 1.5 0.5 0.3 1.7 0 0 1.7 0 0 0 0 0 0 0 0 0 0 0 1.5 0 0.11
0 0 0 0 0 0 0 0 0 0 0 0 0 0 0 25 0 0 0 1250 0.5 0.1 0.3 0.5 0.1 0.3 1.5 0.5 0.3 1.7 0 0 1.7 0 0 0 0 0 0 0 0 0 0 0 1.5 0 0.11
0 0 0 0 0 0 0 0 0 0 0 0 0 0 0 25 0 0 0 1250 0.5 0.1 0.3 0.5 0.1 0.3 1.5 0.5 0.3 1.7 0 0 1.7 0 0 0 0 0 0 0 0 0 0 0 1.5 0 0.11
0 0 0 0 0 0 0 0 0 0 0 0 0 0 0 25 0 0 0 1250 0.5 0.1 0.3 0.5 0.1 0.3 1.5 0.5 0.3 1.7 0 0 1.7 0 0 0 0 0 0 0 0 0 0 0 1.5 0 0.11
0 0 0 0 0 0 0 0 0 0 0 0 0 0 0 25 0 0 0 1250 0.5 0.1 0.3 0.5 0.1 0.3 1.5 0.5 0.3 1.7 0 0 1.7 0 0 0 0 0 0 0 0 0 0 0 1.5 0 0.11
0 0 0 0 0 0 0 0 0 0 0 0 0 0 0 25 0 0 0 1250 0.5 0.1 0.3 0.5 0.1 0.3 1.5 0.5 0.3 1.7 0 0 1.7 0 0 0 0 0 0 0 0 0 0 0 1.5 0 0.11
0 0 0 0 0 0 0 0 0 0 0 0 0 0 0 25 0 0 0 1250 0.5 0.1 0.3 0.5 0.1 0.3 1.5 0.5 0.3 1.7 0 0 1.7 0 0 0 0 0 0 0 0 0 0 0 1.5 0 0.11
0 0 0 0 0 0 0 0 0 0 0 0 0 0 0 25 0 0 0 1250 0.5 0.1 0.3 0.5 0.1 0.3 1.5 0.5 0.3 1.7 0 0 1.7 0 0 0 0 0 0 0 0 0 0 0 1.5 0 0.11
0 0 0 0 0 0 0 0 0 0 0 0 0 0 0 25 0 0 0 1250 0.5 0.1 0.3 0.5 0.1 0.3 1.5 0.5 0.3 1.7 0 0 1.7 0 0 0 0 0 0 0 0 0 0 0 1.5 0 0.11
0 0 0 0 0 0 0 0 0 0 0 0 0 0 0 25 0 0 0 1250 0.5 0.1 0.3 0.5 0.1 0.3 1.5 0.5 0.3 1.7 0 0 1.7 0 0 0 0 0 0 0 0 0 0 0 1.5 0 0.11
0 0 0 0 0 0 0 0 0 0 0 0 0 0 0 25 0 0 0 1250 0.5 0.1 0.3 0.5 0.1 0.3 1.5 0.5 0.3 1.7 0 0 1.7 0 0 0 0 0 0 0 0 0 0 0 1.5 0 0.11
0 0 0 0 0 0 0 0 0 0 0 0 0 0 0 25 0 0 0 1250 0.5 0.1 0.3 0.5 0.1 0.3 1.5 0.5 0.3 1.7 0 0 1.7 0 0 0 0 0 0 0 0 0 0 0 1.5 0 0.11
0 0 0 0 0 0 0 0 0 0 0 0 0 0 0 25 0 0 0 1250 0.5 0.1 0.3 0.5 0.1 0.3 1.5 0.5 0.3 1.7 0 0 1.7 0 0 0 0 0 0 0 0 0 0 0 1.5 0 0.11
0 0 0 0 0 0 0 0 0 0 0 0 0 0 0 25 0 0 0 1250 0.5 0.1 0.3 0.5 0.1 0.3 1.5 0.5 0.3 1.7 0 0 1.7 0 0 0 0 0 0 0 0 0 0 0 1.5 0 0.11
0 0 0 0 0 0 0 0 0 0 0 0 0 0 0 25 0 0 0 1250 0.5 0.1 0.3 0.5 0.1 0.3 1.5 0.5 0.3 1.7 0 0 1.7 0 0 0 0 0 0 0 0 0 0 0 1.5 0 0.11
0 0 0 0 0 0 0 0 0 0 0 0 0 0 0 25 0 0 0 1250 0.5 0.1 0.3 0.5 0.1 0.3 1.5 0.5 0.3 1.7 0 0 1.7 0 0 0 0 0 0 0 0 0 0 0 1.5 0 0.11
0 0 0 0 0 0 0 0 0 0 0 0 0 0 0 25 0 0 0 1250 0.5 0.1 0.3 0.5 0.1 0.3 1.5 0.5 0.3 1.7 0 0 1.7 0 0 0 0 0 0 0 0 0 0 0 1.5 0 0.11
0 0 0 0 0 0 0 0 0 0 0 0 0 0 0 25 0 0 0 1250 0.5 0.1 0.3 0.5 0.1 0.3 1.5 0.5 0.3 1.7 0 0 1.7 0 0 0 0 0 0 0 0 0 0 0 1.5 0 0.11
0 0 0 0 0 0 0 0 0 0 0 0 0 0 0 25 0 0 0 1250 0.5 0.1 0.3 0.5 0.1 0.3 1.5 0.5 0.3 1.7 0 0 1.7 0 0 0 0 0 0 0 0 0 0 0 1.5 0 0.11
0 0 0 0 0 0 0 0 0 0 0 0 0 0 0 25 0 0 0 1250 0.5 0.1 0.3 0.5 0.1 0.3 1.5 0.5 0.3 1.7 0 0 1.7 0 0 0 0 0 0 0 0 0 0 0 1.5 0 0.11
0 0 0 0 0 0 0 0 0 0 0 0 0 0 0 25 0 0 0 1250 0.5 0.1 0.3 0.5 0.1 0.3 1.5 0.5 0.3 1.7 0 0 1.7 0 0 0 0 0 0 0 0 0 0 0 1.5 0 0.11
0 0 0 0 0 0 0 0 0 0 0 0 0 0 0 25 0 0 0 1250 0.5 0.1 0.3 0.5 0.1 0.3 1.5 0.5 0.3 1.7 0 0 1.7 0 0 0 0 0 0 0 0 0 0 0 1.5 0 0.11
0 0 0 0 0 0 0 0 0 0 0 0 0 0 0 25 0 0 0 1250 0.5 0.1 0.3 0.5 0.1 0.3 1.5 0.5 0.3 1.7 0 0 1.7 0 0 0 0 0 0 0 0 0 0 0 1.5 0 0.11
0 0 0 0 0 0 0 0 0 0 0 0 0 0 0 25 0 0 0 1250 0.5 0.1 0.3 0.5 0.1 0.3 1.5 0.5 0.3 1.7 0 0 1.7 0 0 0 0 0 0 0 0 0 0 0 1.5 0 0.11
0 0 0 0 0 0 0 0 0 0 0 0 0 0 0 25 0 0 0 1250 0.5 0.1 0.3 0.5 0.1 0.3 1.5 0.5 0.3 1.7 0 0 1.7 0 0 0 0 0 0 0 0 0 0 0 1.5 0 0.11
0 0 0 0 0 0 0 0 0 0 0 0 0 0 0 25 0 0 0 1250 0 0 0 0 0 0 0 0 0 1.7 0 0 1.7 0 0 0 0 0 0 0 0 0 0 0 1.5 0 0.11
0 0 0 0 0 0 0 0 0 0 0 0 0 0 0 25 0 0 0 1250 0 0 0 0 0 0 0 0 0 1.7 0 0 1.7 0 0 0 0 0 0 0 0 0 0 0 1.5 0 0.11
0 0 0 0 0 0 0 0 0 0 0 0 0 0 0 25 0 0 0 1250 0 0 0 0 0 0 0 0 0 1.7 0 0 1.7 0 0 0 0 0 0 0 0 0 0 0 1.5 0 0.11
0 0 0 0 0 0 0 0 0 0 0 0 0 0 0 25 0 0 0 1250 0 0 0 0 0 0 0 0 0 1.7 0 0 1.7 0 0 0 0 0 0 0 0 0 0 0 1.5 0 0.11
0 0 0 0 0 0 0 0 0 0 0 0 0 0 0 25 0 0 0 1250 0 0 0 0 0 0 0 0 0 1.7 0 0 1.7 0 0 0 0 0 0 0 0 0 0 0 1.5 0 0.11
0 0 0 0 0 0 0 0 0 0 0 0 0 0 0 25 0 0 0 1250 0 0 0 0 0 0 0 0 0 1.7 0 0 1.7 0 0 0 0 0 0 0 0 0 0 0 1.5 0 0.11
0 0 0 0 0 0 0 0 0 0 0 0 0 0 0 25 0 0 0 1250 0 0 0 0 0 0 0 0 0 1.7 0 0 1.7 0 0 0 0 0 0 0 0 0 0 0 1.5 0 0.11
0 0 0 0 0 0 0 0 0 0 0 0 0 0 0 25 0 0 0 1250 0 0 0 0 0 0 0 0 0 1.7 0 0 1.7 0 0 0 0 0 0 0 0 0 0 0 1.5 0 0.11
0 0 0 0 0 0 0 0 0 0 0 0 0 0 0 25 0 0 0 1250 0 0 0 0 0 0 0 0 0 1.7 0 0 1.7 0 0 0 0 0 0 0 0 0 0 0 1.5 0 0.11
0 0 0 0 0 0 0 0 0 0 0 0 0 0 0 25 0 0 0 1250 0 0 0 0 0 0 0 0 0 1.7 0 0 1.7 0 0 0 0 0 0 0 0 0 0 0 1.5 0 0.11
0 0 0 0 0 0 0 0 0 0 0 0 0 0 0 25 0 0 0 1250 0 0 0 0 0 0 0 0 0 1.7 0 0 1.7 0 0 0 0 0 0 0 0 0 0 0 1.5 0 0.11
0 0 0 0 0 0 0 0 0 0 0 0 0 0 0 25 0 0 0 1250 0 0 0 0 0 0 0 0 0 1.7 0 0 1.7 0 0 0 0 0 0 0 0 0 0 0 1.5 0 0.11
0 0 0 0 0 0 0 0 0 0 0 0 0 0 0 25 0 0 0 1250 0 0 0 0 0 0 0 0 0 1.7 0 0 1.7 0 0 0 0 0 0 0 0 0 0 0 1.5 0 0.11
0 0 0 0 0 0 0 0 0 0 0 0 0 0 0 25 0 0 0 1250 0 0 0 0 0 0 0 0 0 1.7 0 0 1.7 0 0 0 0 0 0 0 0 0 0 0 1.5 0 0.11
0 0 0 0 0 0 0 0 0 0 0 0 0 0 0 25 0 0 0 1250 0 0 0 0 0 0 0 0 0 0 0 0 0 0 0 0 0 0 0 0 0 0 0 0 1.5 0 0.11
0 0 0 0 0 0 0 0 0 0 0 0 0 0 0 25 0 0 0 1250 0 0 0 0 0 0 0 0 0 0 0 0 0 0 0 0 0 0 0 0 0 0 0 0 1.5 0 0.11
0 0 0 0 0 0 0 0 0 0 0 0 0 0 0 25 0 0 0 1250 0 0 0 0 0 0 0 0 0 0 0 0 0 0 0 0 0 0 0 0 0 0 0 0 1.5 0 0.11
0 0 0 0 0 0 0 0 0 0 0 0 0 0 0 25 0 0 0 1250 0 0 0 0 0 0 0 0 0 0 0 0 0 0 0 0 0 0 0 0 0 0 0 0 1.5 0 0.11
6.265 1.26 0 14.35 3.94 0.31 -0.62 0 0 19 2 -1 0 0 0 20 0 0 0 1209 0 0 0 0 0 0 0 0 0 0 0 0 0 0 0 0 0 0 0 0 0 0 0 0 1.5 0 0.11
6.362 1.25 0 14.74 1.12 1.44 0.5 0 0 20 2 -1 0 0 0 21 0 0 0 1210 0 0 0 0 0 0 0 0 0 0 0 0 0 0 0 0 0 0 0 0 0 0 0 0 1.5 0 0.11
6.462 1.25 0 15.08 1 1.12 1.87 0 0 20 1 -1 0 0 0 21 0 0 0 1211 0 0 0 0 0 0 0 0 0 0 0 0 0 0 0 0 0 0 0 0 0 0 0 0 1.5 0 0.11
6.562 1.25 0 15.53 -0.25 0.69 0.69 0 0 20 2 -1 0 0 0 20 0 0 0 1206 0 0 0 0 0 0 0 0 0 0 0 0 0 0 0 0 0 0 0 0 0 0 0 0 1.5 0 0.11
6.662 1.26 0 15.84 -0.56 0.44 0.37 0 0 20 2 -1 0 0 0 20 0 0 0 1207 0 0 0 0 0 0 0 0 0 0 0 0 0 0 0 0 0 0 0 0 0 0 0 0 1.5 0 0.11
6.762 1.26 -0.01 16.3 -0.25 -0.5 0.56 0 0 20 2 -2 0 0 0 21 0 0 0 1213 0 0 0 0 0 0 0 0 0 0 0 0 0 0 0 0 0 0 0 0 0 0 0 0 1.5 0 0.11
6.862 1.26 0 16.62 -0.37 0.19 1.06 0 0 21 2 -1 0 0 0 20 0 0 0 1203 0 0 0 0 0 0 0 0 0 0 0 0 0 0 0 0 0 0 0 0 0 0 0 0 1.5 0 0.11
6.962 1.26 0 17.08 0.13 0.13 1.44 0 0 21 1 -2 0 0 0 21 0 0 0 1212 0 0 0 0 0 0 0 0 0 0 0 0 0 0 0 0 0 0 0 0 0 0 0 0 1.5 0 0.11
7.062 1.26 0 17.41 -0.19 0 1.37 0 0 21 2 0 0 0 0 20 0 0 0 1208 0 0 0 0 0 0 0 0 0 0 0 0 0 0 0 0 0 0 0 0 0 0 0 0 1.5 0 0.11
7.162 1.26 -0.01 17.89 -0.5 -0.06 1.69 0 0 20 2 -1 0 0 0 20 0 0 0 1203 0 0 0 0 0 0 0 0 0 0 0 0 0 0 0 0 0 0 0 0 0 0 0 0 1.5 0 0.11
7.262 1.25 -0.02 18.25 -0.37 -0.37 0.94 0 0 20 1 -1 0 0 0 21 0 0 0 1212 0 0 0 0 0 0 0 0 0 0 0 0 0 0 0 0 0 0 0 0 0 0 0 0 1.5 0 0.11
7.362 1.26 -0.03 18.69 -0.69 -1.12 0.56 0 0 21 1 -2 0 0 0 21 0 0 0 1213 0 0 0 0 0 0 0 0 0 0 0 0 0 0 0 0 0 0 0 0 0 0 0 0 1.5 0 0.11
7.462 1.26 -0.03 19 -0.37 0.06 1.19 0 0 23 2 -1 0 0 0 20 0 0 0 1209 0 0 0 0 0 0 0 0 0 0 0 0 0 0 0 0 0 0 0 0 0 0 0 0 1.5 0 0.11
7.562 1.26 -0.03 19.43 0 0.06 1.06 0 0 21 2 -2 0 0 0 21 0 0 0 1215 0 0 0 0 0 0 0 0 0 0 0 0 0 0 0 0 0 0 0 0 0 0 0 0 1.5 0 0.11
7.662 1.26 -0.03 19.78 -0.44 -0.06 0.94 0 0 21 1 -2 0 0 0 21 0 0 0 1214 0 0 0 0 0 0 0 0 0 0 0 0 0 0 0 0 0 0 0 0 0 0 0 0 1.5 0 0.11
7.762 1.26 -0.03 20.15 0 -0.06 0.94 0 0 20 1 -1 0 0 0 20 0 0 0 1209 0 0 0 0 0 0 0 0 0 0 0 0 0 0 0 0 0 0 0 0 0 0 0 0 1.5 0 0.11
7.873 1.27 -0.03 20.61 -0.31 0.19 0.94 0 0 20 1 -1 0 0 0 21 0 0 0 1216 0 0 0 0 0 0 0 0 0 0 0 0 0 0 0 0 0 0 0 0 0 0 0 0 1.5 0 0.11
7.962 1.27 -0.03 20.95 -0.13 0 1.12 0 0 20 2 -2 0 0 0 21 0 0 0 1213 0 0 0 0 0 0 0 0 0 0 0 0 0 0 0 0 0 0 0 0 0 0 0 0 1.5 0 0.11
8.062 1.27 -0.03 21.38 -0.19 0.06 0.94 0 0 21 2 -1 0 0 0 20 0 0 0 1209 0 0 0 0 0 0 0 0 0 0 0 0 0 0 0 0 0 0 0 0 0 0 0 0 1.5 0 0.11
8.162 1.27 -0.03 21.71 -0.19 0.13 0.81 0 0 21 1 -1 0 0 0 21 0 0 0 1212 0 0 0 0 0 0 0 0 0 0 0 0 0 0 0 0 0 0 0 0 0 0 0 0 1.5 0 0.11
8.262 1.27 -0.03 22.08 -0.25 0.19 0.94 0 0 20 2 -1 0 0 0 21 0 0 0 1211 0 0 0 0 0 0 0 0 0 0 0 0 0 0 0 0 0 0 0 0 0 0 0 0 1.5 0 0.11
8.362 1.27 -0.03 22.38 -0.13 0.13 0.88 0 0 20 2 -1 0 0 0 20 0 0 0 1209 0 0 0 0 0 0 0 0 0 0 0 0 0 0 0 0 0 0 0 0 0 0 0 0 1.5 0 0.11
8.462 1.27 -0.03 22.82 -0.19 0.25 1 0 0 20 2 -1 0 0 0 20 0 0 0 1207 0 0 0 0 0 0 0 0 0 0 0 0 0 0 0 0 0 0 0 0 0 0 0 0 1.5 0 0.11
8.563 1.27 -0.03 23.15 -0.13 0.25 0.94 0 0 21 1 -1 0 0 0 21 0 0 0 1210 0 0 0 0 0 0 0 0 0 0 0 0 0 0 0 0 0 0 0 0 0 0 0 0 1.5 0 0.11
8.663 1.29 -0.03 23.55 -0.19 0.25 1 0 0 21 1 -1 0 0 0 21 0 0 0 1213 0 0 0 0 0 0 0 0 0 0 0 0 0 0 0 0 0 0 0 0 0 0 0 0 1.5 0 0.11
8.763 1.29 -0.03 23.88 -0.06 0.25 0.88 0 0 20 2 0 0 0 0 20 0 0 0 1205 0 0 0 0 0 0 0 0 0 0 0 0 0 0 0 0 0 0 0 0 0 0 0 0 1.5 0 0.11
8.863 1.29 -0.03 24.31 -0.13 0.19 1.06 0 0 20 2 -1 0 0 0 20 0 0 0 1207 0 0 0 0 0 0 0 0 0 0 0 0 0 0 0 0 0 0 0 0 0 0 0 0 1.5 0 0.11
8.963 1.27 -0.04 24.64 -0.25 0.25 1 0 0 20 2 -1 0 0 0 20 0 0 0 1208 0 0 0 0 0 0 0 0 0 0 0 0 0 0 0 0 0 0 0 0 0 0 0 0 1.5 0 0.11
9.063 1.27 -0.04 25.06 -0.13 0.25 1 0 0 21 1 -1 0 0 0 21 0 0 0 1211 0 0 0 0 0 0 0 0 0 0 0 0 0 0 0 0 0 0 0 0 0 0 0 0 1.5 0 0.11
9.163 1.27 -0.04 25.42 -0.13 0.25 0.94 0 0 21 2 -2 0 0 0 21 0 0 0 1219 0 0 0 0 0 0 0 0 0 0 0 0 0 0 0 0 0 0 0 0 0 0 0 0 1.5 0 0.11
9.263 1.27 -0.04 25.85 -0.19 0.25 0.94 0 0 20 1 1 0 0 0 20 0 0 0 1200 0 0 0 0 0 0 0 0 0 0 0 0 0 0 0 0 0 0 0 0 0 0 0 0 1.5 0 0.11
9.363 1.27 -0.04 26.15 -0.13 0.13 0.94 0 0 21 1 -3 0 0 0 22 0 0 0 1222 0 0 0 0 0 0 0 0 0 0 0 0 0 0 0 0 0 0 0 0 0 0 0 0 1.5 0 0.11
9.463 1.27 -0.04 26.48 -0.13 0.19 0.94 0 0 20 1 -1 0 0 0 20 0 0 0 1209 0 0 0 0 0 0 0 0 0 0 0 0 0 0 0 0 0 0 0 0 0 0 0 0 1.5 0 0.11
9.578 1.27 -0.03 26.89 -0.13 0.19 0.94 0 0 20 3 -2 0 0 0 20 0 0 0 1203 0 0 0 0 0 0 0 0 0 0 0 0 0 0 0 0 0 0 0 0 0 0 0 0 1.5 0 0.11
9.663 1.27 -0.03 27.24 -0.13 0.19 0.94 0 0 21 3 1 0 0 0 20 0 0 0 1206 0 0 0 0 0 0 0 0 0 0 0 0 0 0 0 0 0 0 0 0 0 0 0 0 1.5 0 0.11
9.763 1.27 -0.03 27.62 -0.19 0.13 0.94 0 0 21 1 0 0 0 0 20 0 0 0 1204 0 0 0 0 0 0 0 0 0 0 0 0 0 0 0 0 0 0 0 0 0 0 0 0 1.5 0 0.11
9.863 1.27 -0.03 27.93 -0.13 0.19 1.06 0 0 20 2 0 0 0 0 20 0 0 0 1209 0 0 0 0 0 0 0 0 0 0 0 0 0 0 0 0 0 0 0 0 0 0 0 0 1.5 0 0.11
9.963 1.27 -0.03 28.34 -0.06 0.19 1.06 0 0 20 1 -1 0 0 0 21 0 0 0 1210 0 0 0 0 0 0 0 0 0 0 0 0 0 0 0 0 0 0 0 0 0 0 0 0 1.5 0 0.11
10.063 1.27 -0.03 28.65 0 0.13 1 0 0 20 1 -1 0 0 0 20 0 0 0 1209 0 0 0 0 0 0 0 0 0 0 0 0 0 0 0 0 0 0 0 0 0 0 0 0 1.5 0 0.11
10.163 1.27 -0.03 29.09 -0.06 0.25 0.94 0 0 21 1 -1 0 0 0 21 0 0 0 1211 0 0 0 0 0 0 0 0 0 0 0 0 0 0 0 0 0 0 0 0 0 0 0 0 1.5 0 0.11
10.263 1.27 -0.03 29.39 -0.06 0.13 1 0 0 20 2 -2 0 0 0 21 0 0 0 1212 0 0 0 0 0 0 0 0 0 0 0 0 0 0 0 0 0 0 0 0 0 0 0 0 1.5 0 0.11
10.363 1.27 -0.03 29.77 -0.13 0.13 1 0 0 20 1 0 0 0 0 20 0 0 0 1208 0 0 0 0 0 0 0 0 0 0 0 0 0 0 0 0 0 0 0 0 0 0 0 0 1.5 0 0.11
10.463 1.27 -0.03 30.09 -0.13 0.13 0.94 0 0 21 2 -1 0 0 0 21 0 0 0 1210 0 0 0 0 0 0 0 0 0 0 0 0 0 0 0 0 0 0 0 0 0 0 0 0 1.5 0 0.11
10.563 1.27 -0.03 30.44 -0.13 0.13 0.88 0 0 21 2 -2 0 0 0 20 0 0 0 1208 0 0 0 0 0 0 0 0 0 0 0 0 0 0 0 0 0 0 0 0 0 0 0 0 1.5 0 0.11
10.663 1.27 -0.03 30.74 -0.13 0.13 1.06 0 0 21 2 0 0 0 0 20 0 0 0 1207 0 0 0 0 0 0 0 0 0 0 0 0 0 0 0 0 0 0 0 0 0 0 0 0 1.5 0 0.11
10.763 1.29 -0.03 31.16 -0.06 0.19 1 0 0 20 2 -1 0 0 0 21 0 0 0 1211 0 0 0 0 0 0 0 0 0 0 0 0 0 0 0 0 0 0 0 0 0 0 0 0 1.5 0 0.11
10.863 1.29 -0.03 31.48 0 0.25 0.94 0 0 20 2 -2 0 0 0 21 0 0 0 1210 0 0 0 0 0 0 0 0 0 0 0 0 0 0 0 0 0 0 0 0 0 0 0 0 1.5 0 0.11
10.963 1.29 -0.03 31.79 -0.06 0.19 1.06 0 0 20 1 -1 0 0 0 21 0 0 0 1215 0 0 0 0 0 0 0 0 0 0 0 0 0 0 0 0 0 0 0 0 0 0 0 0 1.5 0 0.11
11.063 1.29 -0.03 32.21 -0.06 0.19 0.94 0 0 21 2 0 0 0 0 20 0 0 0 1208 0 0 0 0 0 0 0 0 0 0 0 0 0 0 0 0 0 0 0 0 0 0 0 0 1.5 0 0.11
11.163 1.29 -0.03 32.53 -0.06 0.13 1 0 0 20 2 -2 0 0 0 21 0 0 0 1213 0 0 0 0 0 0 0 0 0 0 0 0 0 0 0 0 0 0 0 0 0 0 0 0 1.5 0 0.11
11.263 1.29 -0.03 32.87 -0.13 0.25 0.94 0 0 20 2 -2 0 0 0 20 0 0 0 1207 0 0 0 0 0 0 0 0 0 0 0 0 0 0 0 0 0 0 0 0 0 0 0 0 1.5 0 0.11
11.363 1.29 -0.03 33.13 -0.06 0.19 0.94 0 0 20 2 -1 0 0 0 20 0 0 0 1205 0 0 0 0 0 0 0 0 0 0 0 0 0 0 0 0 0 0 0 0 0 0 0 0 1.5 0 0.11
11.463 1.29 -0.03 33.45 -0.06 0.13 1.06 0 0 20 2 -1 0 0 0 21 0 0 0 1211 0 0 0 0 0 0 0 0 0 0 0 0 0 0 0 0 0 0 0 0 0 0 0 0 1.5 0 0.11
11.563 1.29 -0.03 33.74 0 0.06 0.94 0 0 20 2 -1 0 0 0 20 0 0 0 1209 0 0 0 0 0 0 0 0 0 0 0 0 0 0 0 0 0 0 0 0 0 0 0 0 1.5 0 0.11
11.663 1.29 -0.03 34.09 -0.13 0.19 0.94 0 0 21 2 -1 0 0 0 20 0 0 0 1208 0 0 0 0 0 0 0 0 0 0 0 0 0 0 0 0 0 0 0 0 0 0 0 0 1.5 0 0.11
11.763 1.29 -0.03 34.37 -0.06 0.13 1.06 0 0 21 2 -1 0 0 0 20 0 0 0 1207 0 0 0 0 0 0 0 0 0 0 0 0 0 0 0 0 0 0 0 0 0 0 0 0 1.5 0 0.11
11.863 1.29 -0.03 34.66 -0.06 0.13 0.94 0 0 20 2 -1 0 0 0 21 0 0 0 1212 0 0 0 0 0 0 0 0 0 0 0 0 0 0 0 0 0 0 0 0 0 0 0 0 1.5 0 0.11
11.963 1.29 -0.03 34.9 -0.06 0.19 1 0 0 20 2 0 0 0 0 20 0 0 0 1204 0 0 0 0 0 0 0 0 0 0 0 0 0 0 0 0 0 0 0 0 0 0 0 0 1.5 0 0.11
12.063 1.29 -0.02 35.29 -0.06 0.13 1 0 0 20 2 -2 0 0 0 21 0 0 0 1211 0 0 0 0 0 0 0 0 0 0 0 0 0 0 0 0 0 0 0 0 0 0 0 0 1.5 0 0.11
12.163 1.29 -0.02 35.57 -0.19 0.19 1 0 0 21 2 -1 0 0 0 21 0 0 0 1210 0 0 0 0 0 0 0 0 0 0 0 0 0 0 0 0 0 0 0 0 0 0 0 0 1.5 0 0.11
12.263 1.29 -0.02 35.88 0 0.19 0.94 0 0 21 1 -1 0 0 0 20 0 0 0 1207 0 0 0 0 0 0 0 0 0 0 0 0 0 0 0 0 0 0 0 0 0 0 0 0 1.5 0 0.11
12.363 1.29 -0.02 36.1 0 0.19 1 0 0 21 2 -2 0 0 0 21 0 0 0 1211 0 0 0 0 0 0 0 0 0 0 0 0 0 0 0 0 0 0 0 0 0 0 0 0 1.5 0 0.11
12.463 1.29 -0.02 36.35 -0.13 0.19 1 0 0 20 2 -1 0 0 0 21 0 0 0 1210 0 0 0 0 0 0 0 0 0 0 0 0 0 0 0 0 0 0 0 0 0 0 0 0 1.5 0 0.11
12.563 1.29 -0.02 36.68 -0.06 0.19 1 0 0 21 2 -2 0 0 0 21 0 0 0 1213 0 0 0 0 0 0 0 0 0 0 0 0 0 0 0 0 0 0 0 0 0 0 0 0 1.5 0 0.11
12.663 1.29 -0.02 36.97 -0.06 0.13 1 0 0 21 2 -1 0 0 0 20 0 0 0 1205 0 0 0 0 0 0 0 0 0 0 0 0 0 0 0 0 0 0 0 0 0 0 0 0 1.5 0 0.11
12.763 1.29 -0.02 37.24 -0.06 0.19 1 0 0 20 2 -2 0 0 0 20 0 0 0 1209 0 0 0 0 0 0 0 0 0 0 0 0 0 0 0 0 0 0 0 0 0 0 0 0 1.5 0 0.11
12.863 1.29 -0.02 37.44 -0.13 0.19 0.88 0 0 20 2 -1 0 0 0 20 0 0 0 1209 0 0 0 0 0 0 0 0 0 0 0 0 0 0 0 0 0 0 0 0 0 0 0 0 1.5 0 0.11
12.963 1.29 -0.03 37.68 -0.06 0.19 1.06 0 0 20 1 -1 0 0 0 21 0 0 0 1212 0 0 0 0 0 0 0 0 0 0 0 0 0 0 0 0 0 0 0 0 0 0 0 0 1.5 0 0.11
13.063 1.29 -0.03 37.86 -0.06 0.06 0.94 0 0 21 1 -1 0 0 0 20 0 0 0 1208 0 0 0 0 0 0 0 0 0 0 0 0 0 0 0 0 0 0 0 0 0 0 0 0 1.5 0 0.11
13.163 1.29 -0.03 38.17 -0.13 0.06 1 0 0 20 1 -1 0 0 0 21 0 0 0 1215 0 0 0 0 0 0 0 0 0 0 0 0 0 0 0 0 0 0 0 0 0 0 0 0 1.5 0 0.11
13.263 1.29 -0.03 38.35 -0.06 0.13 1 0 0 20 1 -1 0 0 0 21 0 0 0 1213 0 0 0 0 0 0 0 0 0 0 0 0 0 0 0 0 0 0 0 0 0 0 0 0 1.5 0 0.11
13.363 1.29 -0.02 38.57 -0.06 0.19 1 0 0 20 2 -1 0 0 0 20 0 0 0 1209 0 0 0 0 0 0 0 0 0 0 0 0 0 0 0 0 0 0 0 0 0 0 0 0 1.5 0 0.11
13.463 1.29 -0.02 38.79 -0.06 0.13 1 0 0 21 1 -1 0 0 0 21 0 0 0 1211 0 0 0 0 0 0 0 0 0 0 0 0 0 0 0 0 0 0 0 0 0 0 0 0 1.5 0 0.11
13.563 1.29 -0.02 39.02 -0.06 0.13 0.94 0 0 21 1 -1 0 0 0 21 0 0 0 1214 0 0 0 0 0 0 0 0 0 0 0 0 0 0 0 0 0 0 0 0 0 0 0 0 1.5 0 0.11
13.663 1.29 -0.02 39.21 0 0.19 0.94 0 0 21 1 -1 0 0 0 20 0 0 0 1208 0 0 0 0 0 0 0 0 0 0 0 0 0 0 0 0 0 0 0 0 0 0 0 0 1.5 0 0.11
13.764 1.29 -0.02 39.47 0 0.19 1.06 0 0 20 1 -1 0 0 0 21 0 0 0 1211 0 0 0 0 0 0 0 0 0 0 0 0 0 0 0 0 0 0 0 0 0 0 0 0 1.5 0 0.11
13.863 1.27 -0.02 39.68 -0.13 0.19 1.06 0 0 19 2 -2 0 0 0 21 0 0 0 1212 0 0 0 0 0 0 0 0 0 0 0 0 0 0 0 0 0 0 0 0 0 0 0 0 1.5 0 0.11
13.963 1.29 -0.02 39.84 -0.06 0.13 1 0 0 21 2 -1 0 0 0 20 0 0 0 1209 0 0 0 0 0 0 0 0 0 0 0 0 0 0 0 0 0 0 0 0 0 0 0 0 1.5 0 0.11
14.063 1.29 -0.02 40.07 -0.13 0.19 1 0 0 20 2 -1 0 0 0 21 0 0 0 1211 0 0 0 0 0 0 1 0 0 0 0 0 0 0 0 0 0 0 0 0 0 0 0 0 1.5 0 0.11
14.163 1.29 -0.03 40.24 -0.13 0.19 0.94 0 0 20 2 -1 0 0 0 20 0 0 0 1209 0 0 0 0 0 0 1 0 0 0 0 0 0 0 0 0 0 0 0 0 0 0 0 0 1.5 0 0.11
14.263 1.27 -0.02 40.46 -0.06 0.19 0.88 0 0 20 1 -2 0 0 0 21 0 0 0 1212 0 0 0 0 0 0 1 0 0 0 0 0 0 0 0 0 0 0 0 0 0 0 0 0 1.5 0 0.11
14.363 1.27 -0.02 40.66 -0.13 0.25 0.94 0 0 21 1 -1 0 0 0 20 0 0 0 1209 0 0 0 0 0 0 1 0 0 0 0 0 0 0 0 0 0 0 0 0 0 0 0 0 1.5 0 0.11
14.463 1.29 -0.02 40.77 -0.06 0.19 1.06 0 0 21 2 -1 0 0 0 21 0 0 0 1210 0 0 0 0 0 0 1 0 0 0 0 0 0 0 0 0 0 0 0 0 0 0 0 0 1.5 0 0.11
14.563 1.29 -0.02 40.9 0 0.19 0.94 0 0 21 2 -1 0 0 0 20 0 0 0 1209 0 0 0 0 0 0 1 0 0 0 0 0 0 0 0 0 0 0 0 0 0 0 0 0 1.5 0 0.11
14.663 1.27 -0.02 41.01 -0.06 0.19 0.94 0 0 20 2 -1 0 0 0 21 0 0 0 1210 0 0 0 0 0 0 1 0 0 0 0 0 0 0 0 0 0 0 0 0 0 0 0 0 1.5 0 0.11
14.763 1.29 -0.02 41.18 -0.19 0.13 1.06 0 0 21 1 -1 0 0 0 20 0 0 0 1209 0 0 0 0 0 0 1 0 0 0 0 0 0 0 0 0 0 0 0 0 0 0 0 0 1.5 0 0.11
14.864 1.29 -0.02 41.34 0 0.13 0.94 0 0 20 2 -1 0 0 0 20 0 0 0 1208 0 0 0 0 0 0 1 0 0 0 0 0 0 0 0 0 0 0 0 0 0 0 0 0 1.5 0 0.11
14.963 1.29 -0.01 41.5 -0.13 0.13 0.94 0 0 20 2 -1 0 0 0 20 0 0 0 1209 0 0 0 0 0 0 1 0 0 0 0 0 0 0 0 0 0 0 0 0 0 0 0 0 1.5 0 0.11
15.063 1.29 -0.01 41.66 -0.13 0.13 1.06 0 0 20 2 -1 0 0 0 20 0 0 0 1208 0 0 0 0 0 0 1.5 0 0 0 0 0 0 0 0 0 0 0 0 0 0 0 0 0 1.5 0 0.11
15.163 1.29 -0.02 41.81 -0.06 0.25 1 0 0 20 2 -1 0 0 0 20 0 0 0 1209 0 0 0 0 0 0 1.5 0 0 0 0 0 0 0 0 0 0 0 0 0 0 0 0 0 1.5 0 0.11
15.263 1.29 -0.02 41.99 0 0.25 1 0 0 21 2 -1 0 0 0 20 0 0 0 1205 0 0 0 0 0 0 1.5 0 0 0 0 0 0 0 0 0 0 0 0 0 0 0 0 0 1.5 0 0.11
15.363 1.29 -0.01 42.12 -0.06 0.13 0.94 0 0 21 1 -1 0 0 0 21 0 0 0 1213 0 0 0 0 0 0 1.5 0 0 0 0 0 0 0 0 0 0 0 0 0 0 0 0 0 1.5 0 0.11
15.463 1.29 -0.02 42.23 -0.06 0.19 1 0 0 20 2 -1 0 0 0 20 0 0 0 1209 0 0 0 0 0 0 1.5 0 0 0 0 0 0 0 0 0 0 0 0 0 0 0 0 0 1.5 0 0.11
15.563 1.29 -0.01 42.28 -0.06 0.19 1 0 0 20 2 -2 0 0 0 20 0 0 0 1209 0 0 0 0 0 0 1.5 0 0 0 0 0 0 0 0 0 0 0 0 0 0 0 0 0 1.5 0 0.11
15.664 1.29 -0.02 42.39 -0.06 0.13 1 0 0 20 2 0 0 0 0 20 0 0 0 1205 0 0 0 0 0 0 1.5 0 0 0 0 0 0 0 0 0 0 0 0 0 0 0 0 0 1.5 0 0.11
15.763 1.29 -0.02 42.55 0 0.19 1 0 0 20 2 0 0 0 0 20 0 0 0 1207 0 0 0 0 0 0 1.5 0 0 0 0 0 0 0 0 0 0 0 0 0 0 0 0 0 1.5 0 0.11
15.864 1.29 -0.02 42.67 -0.06 0.19 0.94 0 0 21 3 -1 0 0 0 20 0 0 0 1203 0 0 0 0 0 0 1.5 0 0 0 0 0 0 0 0 0 0 0 0 0 0 0 0 0 1.5 0 0.11
15.964 1.29 -0.01 42.82 -0.13 0.19 1 0 0 21 1 -1 0 0 0 20 0 0 0 1207 0 0 0 0 0 0 1.5 0 0 0 0 0 0 0 0 0 0 0 0 0 0 0 0 0 1.5 0 0.11
16.063 1.29 -0.01 42.98 -0.06 0.19 1.06 0 0 20 2 -1 0 0 0 20 0 0 0 1206 0 0 0 0 0 0 1.5 0 0 0 0 0 0 0 0 0 0 0 0 0 0 0 0 0 1.5 0 0.11
16.164 1.29 -0.01 43.12 0 0.13 1 0 0 20 1 -1 0 0 0 20 0 0 0 1209 0 0 0 0 0 0 1.5 0 0 0 0 0 0 0 0 0 0 0 0 0 0 0 0 0 1.5 0 0.11
16.264 1.29 -0.01 43.26 -0.13 0.13 1.06 0 0 20 1 -1 0 0 0 21 0 0 0 1212 0 0 0 0 0 0 1.5 0 0 0 0 0 0 0 0 0 0 0 0 0 0 0 0 0 1.5 0 0.11
16.363 1.29 -0.01 43.34 0 0.19 1 0 0 21 2 1 0 0 0 20 0 0 0 1206 0 0 0 0 0 0 1.5 0 0 0 0 0 0 0 0 0 0 0 0 0 0 0 0 0 1.5 0 0.11
16.464 1.29 -0.01 43.47 -0.13 0.19 1 0 0 20 -33 -2 0 0 0 20 0 0 0 1205 0 0 0 0 0 0 1.5 0 0 0 0 0 0 0 0 0 0 0 0 0 0 0 0 0 1.5 0 0.11
16.564 1.29 -0.01 43.6 -0.13 0.19 1 0 0 20 2 -3 0 0 0 22 0 0 0 1220 0 0 0 0 0 0 1.5 0 0 0 0 0 0 0 0 0 0 0 0 0 0 0 0 0 1.5 0 0.11
16.663 1.29 -0.01 43.73 -0.06 0.19 1 0 0 20 3 -2 0 0 0 21 0 0 0 1216 0 0 0 0 0 0 1.5 0 0 0 0 0 0 0 0 0 0 0 0 0 0 0 0 0 1.5 0 0.11
16.764 1.29 -0.01 43.86 0 0.19 1 0 0 20 2 5 0 0 0 19 0 0 0 1183 0.38 0 0.45 0.38 0 0.45 1.5 0.5 0.3 0 0 0 0 0 0 0 0 0 0 0 0 0 0 0 1.5 0 0.11
16.864 1.29 -0.01 43.99 -0.06 0.19 0.94 0 0 20 4 -2 0 0 0 20 0 0 0 1207 0.38 0 0.45 0.38 0 0.45 1.5 0.5 0.3 0 0 0 0 0 0 0 0 0 0 0 0 0 0 0 1.5 0 0.11
16.964 1.29 -0.01 44.13 -0.06 0.19 1 0 0 21 2 -2 0 0 0 20 0 0 0 1209 0.38 0 0.45 0.38 0 0.45 1.5 0.5 0.3 0 0 0 0 0 0 0 0 0 0 0 0 0 0 0 1.5 0 0.11
17.064 1.29 -0.01 44.18 -0.06 0.19 0.94 0 0 21 4 -3 0 0 0 20 0 0 0 1209 0.38 0 0.45 0.38 0 0.45 1.5 0.5 0.3 0 0 0 0 0 0 0 0 0 0 0 0 0 0 0 1.5 0 0.11
17.163 1.29 -0.01 44.25 0 0.13 1 0 0 21 0 2 0 0 0 20 0 0 0 1196 0.38 0 0.45 0.38 0 0.45 1.5 0.5 0.3 0 0 0 0 0 0 0 0 0 0 0 0 0 0 0 1.5 0 0.11
17.264 1.29 -0.01 44.31 -0.06 0.19 1 0 0 20 -1 -3 0 0 0 23 0 0 0 1232 0.38 0 0.45 0.38 0 0.45 1.5 0.5 0.3 0 0 0 0 0 0 0 0 0 0 0 0 0 0 0 1.5 0 0.11
17.364 1.29 -0.01 44.4 -0.13 0.13 0.88 0 0 21 2 -4 0 0 0 21 0 0 0 1213 0.38 0 0.45 0.38 0 0.45 1.5 0.5 0.3 0 0 0 0 0 0 0 0 0 0 0 0 0 0 0 1.5 0 0.11
17.464 1.29 -0.01 44.51 -0.13 0.19 1.06 0 0 20 5 -9 0 0 0 21 0 0 0 1215 0.38 0 0.45 0.38 0 0.45 1.5 0.5 0.3 0 0 0 0 0 0 0 0 0 0 0 0 0 0 0 1.5 0 0.11
17.564 1.29 -0.01 44.64 0 0.25 1.06 0 0 20 3 2 0 0 0 20 0 0 0 1199 0.38 0 0.45 0.38 0 0.45 1.5 0.5 0.3 0 0 0 0 0 0 0 0 0 0 0 0 0 0 0 1.5 0 0.11
17.663 1.3 -0.01 44.77 0 0.19 1 0 0 21 3 1 0 0 0 20 0 0 0 1200 0.38 0 0.45 0.38 0 0.45 1.5 0.5 0.3 0 0 0 0 0 0 0 0 0 0 0 0 0 0 0 1.5 0 0.11
17.764 1.3 -0.01 44.9 -0.13 0.13 1 0 0 21 -27 -4 0 0 0 41 0 0 0 1419 0.38 0 0.45 0.38 0 0.45 1.5 0.5 0.3 0 0 0 0 0 0 0 0 0 0 0 0 0 0 0 1.5 0 0.11
17.864 1.3 -0.01 44.98 -0.06 0.13 1 0 0 21 3 0 0 0 0 20 0 0 0 1208 0.38 0 0.45 0.38 0 0.45 1.5 0.5 0.3 0 0 0 0 0 0 0 0 0 0 0 0 0 0 0 1.5 0 0.11
17.964 1.3 -0.02 45.12 -0.13 0.19 0.94 0 0 20 5 -10 0 0 0 20 0 0 0 1191 0.38 0 0.45 0.38 0 0.45 1.5 0.5 0.3 0 0 0 0 0 0 0 0 0 0 0 0 0 0 0 1.5 0 0.11
18.064 1.29 -0.02 45.31 -0.13 0.13 1 0 0 21 3 -3 0 0 0 21 0 0 0 1216 0.38 0 0.45 0.38 0 0.45 1.5 0.5 0.3 0 0 0 0 0 0 0 0 0 0 0 0 0 0 0 1.5 0 0.11
18.164 1.29 -0.02 45.45 -0.13 0.25 0.94 0 0 21 5 -1 0 0 0 20 0 0 0 1200 0.38 0 0.45 0.38 0 0.45 1.5 0.5 0.3 0 0 0 0 0 0 0 0 0 0 0 0 0 0 0 1.5 0 0.11
18.264 1.29 -0.02 45.56 -0.13 0.19 1.06 0 0 21 10 -4 0 0 0 21 0 0 0 1212 0.38 0 0.45 0.38 0 0.45 1.5 0.5 0.3 0 0 0 0 0 0 0 0 0 0 0 0 0 0 0 1.5 0 0.11
18.364 1.29 -0.03 45.66 -0.06 0.13 1 0 0 21 2 -4 0 0 0 21 0 0 0 1210 0.38 0 0.45 0.38 0 0.45 1.5 0.5 0.3 0 0 0 0 0 0 0 0 0 0 0 0 0 0 0 1.5 0 0.11
18.464 1.29 -0.03 45.74 -0.13 0.19 1 0 0 21 -34 -18 0 0 0 30 0 0 0 1305 0.38 0 0.45 0.38 0 0.45 1.5 0.5 0.3 0 0 0 0 0 0 0 0 0 0 0 0 0 0 0 1.5 0 0.11
18.563 1.29 -0.03 45.82 -0.13 0.19 1.12 0 0 21 0 -3 0 0 0 21 0 0 0 1214 0.38 0 0.45 0.38 0 0.45 1.5 0.5 0.3 0 0 0 0 0 0 0 0 0 0 0 0 0 0 0 1.5 0 0.11
18.664 1.29 -0.03 45.91 -0.06 0.13 0.94 0 0 20 -2 0 0 0 0 22 0 0 0 1228 0.38 0 0.45 0.38 0 0.45 1.5 0.5 0.3 0 0 0 0 0 0 0 0 0 0 0 0 0 0 0 1.5 0 0.11
18.764 1.29 -0.02 45.96 0 0.19 0.94 0 0 20 -25 -29 0 0 0 36 0 0 0 1366 0.38 0 0.45 0.38 0 0.45 1.5 0.5 0.3 0 0 0 0 0 0 0 0 0 0 0 0 0 0 0 1.5 0 0.11
18.864 1.29 -0.02 46.04 -0.13 0.13 1 0 0 21 4 -4 0 0 0 41 0 0 0 1416 0.38 0 0.45 0.38 0 0.45 1.5 0.5 0.3 0 0 0 0 0 0 0 0 0 0 0 0 0 0 0 1.5 0 0.11
18.964 1.29 -0.03 46.13 -0.31 0 0.81 0 0 21 2 -2 0 0 0 20 0 0 0 1209 0.38 0 0.45 0.38 0 0.45 1.5 0.5 0.3 0 0 0 0 0 0 0 0 0 0 0 0 0 0 0 1.5 0 0.11
19.064 1.29 -0.02 46.1 -1.94 -1.5 1.5 0 0 23 1 -1 0 0 0 21 0 0 0 1214 0.38 0 0.45 0.38 0 0.45 1.5 0.5 0.3 0 0 0 0 0 0 0 0 0 0 0 0 0 0 0 1.5 0 0.11
19.164 1.29 -0.02 45.79 1 0.5 1.25 0 0 21 -2 1 0 0 0 23 0 0 0 1233 0.38 0 0.45 0.38 0 0.45 1.5 0.5 0.3 0 0 0 0 0 0 0 0 0 0 0 0 0 0 0 1.5 0 0.11
19.264 1.27 -0.02 45.83 -0.19 0.69 0.19 0 0 20 4 0 0 0 0 20 0 0 0 1201 0.38 0 0.45 0.38 0 0.45 1.5 0.5 0.3 0 0 0 0 0 0 0 0 0 0 0 0 0 0 0 1.5 0 0.11
19.364 1.27 -0.02 45.89 0.62 -0.13 1.44 0 0 21 -1 -3 0 0 0 22 0 0 0 1225 0.38 0 0.45 0.38 0 0.45 1.5 0.5 0.3 0 0 0 0 0 0 0 0 0 0 0 0 0 0 0 1.5 0 0.11
19.464 1.27 -0.01 45.93 -1.25 0.25 0.75 0 0 21 1 0 0 0 0 20 0 0 0 1202 0 0 0 0 0 0 0 0 0 0 0 0 0 0 0 0 0 0 0 0 0 0 0 0 1.5 0 0.11
19.564 1.27 -0.01 45.98 -1.44 -1.12 1.87 0 0 21 0 -3 0 0 0 22 0 0 0 1226 0 0 0 0 0 0 0 0 0 0 0 0 0 0 0 0 0 0 0 0 0 0 0 0 1.5 0 0.11
19.664 1.27 -0.01 46.07 0.5 0 1.12 0 0 21 1 1 0 0 0 21 0 0 0 1214 0 0 0 0 0 0 0 0 0 0 0 0 0 0 0 0 0 0 0 0 0 0 0 0 1.5 0 0.11
19.764 1.27 -0.01 46.16 0.44 0.75 0.13 0 0 21 1 0 0 0 0 20 0 0 0 1200 0 0 0 0 0 0 0 0 0 0 0 0 0 0 0 0 0 0 0 0 0 0 0 0 1.5 0 0.11
19.864 1.27 -0.02 46.25 0.69 0.37 1.31 0 0 20 1 -2 0 0 0 20 0 0 0 1202 0 0 0 0 0 0 0 0 0 0 0 0 0 0 0 0 0 0 0 0 0 0 0 0 1.5 0 0.11
19.964 1.27 -0.02 46.3 -0.88 -0.37 1.06 0 0 20 -4 0 0 0 0 23 0 0 0 1234 0 0 0 0 0 0 0 0 0 0 0 0 0 0 0 0 0 0 0 0 0 0 0 0 1.5 0 0.11
20.064 1.27 -0.02 46.37 0 -0.19 0.19 0 0 21 0 -2 0 0 0 21 0 0 0 1214 0 0 0 0 0 0 0 0 0 0 0 0 0 0 0 0 0 0 0 0 0 0 0 0 1.5 0 0.11
20.164 1.27 -0.01 46.48 -0.31 0.81 1 0 0 21 1 -7 0 0 0 21 0 0 0 1216 0 0 0 0 0 0 0 0 0 0 0 0 0 0 0 0 0 0 0 0 0 0 0 0 1.5 0 0.11
20.264 1.27 -0.01 46.56 -0.06 0.06 0.81 0 0 21 -35 -33 0 0 0 40 0 0 0 1405 0 0 0 0 0 0 0 0 0 0 0 0 0 0 0 0 0 0 0 0 0 0 0 0 1.5 0 0.11
20.364 1.27 -0.01 46.59 -0.19 0 1 0 0 20 1 6 0 0 0 21 0 0 0 1212 0 0 0 0 0 0 0 0 0 0 0 0 0 0 0 0 0 0 0 0 0 0 0 0 1.5 0 0.11
20.464 1.27 -0.01 46.63 0 0.37 1 0 0 21 -15 -12 0 0 0 20 0 0 0 1202 0 0 0 0 0 0 0 0 0 0 0 0 0 0 0 0 0 0 0 0 0 0 0 0 1.5 0 0.11
20.564 1.27 -0.01 46.68 -0.13 0.5 1.06 0 0 21 2 0 0 0 0 22 0 0 0 1220 0 0 0 0 0 0 0 0 0 0 0 0 0 0 0 0 0 0 0 0 0 0 0 0 1.5 0 0.11
20.664 1.27 -0.01 46.72 0 0.37 1 0 0 21 -45 10 0 0 0 30 0 0 0 1300 0 0 0 0 0 0 0 0 0 0 0 0 0 0 0 0 0 0 0 0 0 0 0 0 1.5 0 0.11
20.764 1.29 -0.01 46.78 0.81 1.87 0.81 0 0 21 -44 -1 0 0 0 36 0 0 0 1360 0 0 0 0 0 0 0 0 0 0 0 0 0 0 0 0 0 0 0 0 0 0 0 0 1.5 0 0.11
20.864 1.27 -0.01 46.63 1.44 0.13 0.31 0 0 21 1 -1 0 0 0 20 0 0 0 1209 0 0 0 0 0 0 0 0 0 0 0 0 0 0 0 0 0 0 0 0 0 0 0 0 1.5 0 0.11
20.964 1.27 -0.01 46.68 -1.69 -0.5 1.25 0 0 20 2 -1 0 0 0 20 0 0 0 1209 0 0 0 0 0 0 0 0 0 0 0 0 0 0 0 0 0 0 0 0 0 0 0 0 1.5 0 0.11
21.064 1.29 -0.02 46.68 1.75 2.12 0.62 0 0 21 1 -1 0 0 0 20 0 0 0 1209 0 0 0 0 0 0 0 0 0 0 0 0 0 0 0 0 0 0 0 0 0 0 0 0 1.5 0 0.11
21.164 1.27 -0.02 46.75 1.06 0.5 1.06 0 0 20 2 -1 0 0 0 20 0 0 0 1208 0 0 0 0 0 0 1 0 0 0 0 0 0 0 0 0 0 0 0 0 0 0 0 0 1.5 0 0.11
21.264 1.27 -0.02 46.72 -0.06 -0.75 0.37 0 0 21 2 -1 0 0 0 21 0 0 0 1211 0 0 0 0 0 0 1 0 0 0 0 0 0 0 0 0 0 0 0 0 0 0 0 0 1.5 0 0.11
21.364 1.29 -0.01 46.8 -0.31 0.75 0.37 0 0 21 2 -1 0 0 0 20 0 0 0 1208 0 0 0 0 0 0 1 0 0 0 0 0 0 0 0 0 0 0 0 0 0 0 0 0 1.5 0 0.11
21.464 1.29 -0.02 46.91 1.37 -0.31 1.19 0 0 21 2 -1 0 0 0 20 0 0 0 1208 0 0 0 0 0 0 1 0 0 0 0 0 0 0 0 0 0 0 0 0 0 0 0 0 1.5 0 0.11
21.564 1.29 -0.02 46.92 -0.88 0.13 0.44 0 0 20 2 -1 0 0 0 21 0 0 0 1210 0 0 0 0 0 0 1 0 0 0 0 0 0 0 0 0 0 0 0 0 0 0 0 0 1.5 0 0.11
21.664 1.29 -0.01 46.93 -0.25 0.25 1.12 0 0 21 2 -1 0 0 0 20 0 0 0 1209 0 0 0 0 0 0 1 0 0 0 0 0 0 0 0 0 0 0 0 0 0 0 0 0 1.5 0 0.11
21.764 1.29 -0.01 46.97 0.19 0.06 1 0 0 21 2 -1 0 0 0 21 0 0 0 1211 0 0 0 0 0 0 1 0 0 0 0 0 0 0 0 0 0 0 0 0 0 0 0 0 1.5 0 0.11
21.864 1.29 -0.01 47.07 0.37 -0.19 1.25 0 0 21 2 -1 0 0 0 21 0 0 0 1211 0 0 0 0 0 0 1 0 0 0 0 0 0 0 0 0 0 0 0 0 0 0 0 0 1.5 0 0.11
21.964 1.29 -0.01 47.07 -0.13 0.44 0.88 0 0 20 2 -1 0 0 0 20 0 0 0 1209 0 0 0 0 0 0 1 0 0 0 0 0 0 0 0 0 0 0 0 0 0 0 0 0 1.5 0 0.11
22.064 1.29 -0.01 47.12 -0.13 0.5 1.12 0 0 20 2 -1 0 0 0 20 0 0 0 1208 0 0 0 0 0 0 1 0 0 0 0 0 0 0 0 0 0 0 0 0 0 0 0 0 1.5 0 0.11
22.164 1.29 -0.01 47.15 0.19 0.19 1.19 0 0 21 2 -1 0 0 0 20 0 0 0 1209 0 0 0 0 0 0 1.5 0 0 0 0 0 0 0 0 0 0 0 0 0 0 0 0 0 1.5 0 0.11
22.264 1.29 -0.01 47.23 0 0.44 1.06 0 0 20 2 -1 0 0 0 21 0 0 0 1210 0 0 0 0 0 0 1.5 0 0 0 0 0 0 0 0 0 0 0 0 0 0 0 0 0 1.5 0 0.11
22.364 1.29 -0.01 47.29 0 0.44 0.88 0 0 20 2 -1 0 0 0 20 0 0 0 1209 0 0 0 0 0 0 1.5 0 0 0 0 0 0 0 0 0 0 0 0 0 0 0 0 0 1.5 0 0.11
22.464 1.29 -0.02 47.32 0 0.25 1.12 0 0 20 2 -2 0 0 0 20 0 0 0 1208 0 0 0 0 0 0 1.5 0 0 0 0 0 0 0 0 0 0 0 0 0 0 0 0 0 1.5 0 0.11
22.564 1.29 -0.02 47.26 0 0.37 1 0 0 20 2 -1 0 0 0 21 0 0 0 1212 0 0 0 0 0 0 1.5 0 0 0 0 0 0 0 0 0 0 0 0 0 0 0 0 0 1.5 0 0.11
22.664 1.29 -0.02 47.31 -0.06 0.56 1.06 0 0 20 2 -1 0 0 0 21 0 0 0 1211 0 0 0 0 0 0 1.5 0 0 0 0 0 0 0 0 0 0 0 0 0 0 0 0 0 1.5 0 0.11
22.764 1.29 -0.02 47.34 -0.06 0.37 0.94 0 0 20 2 -1 0 0 0 20 0 0 0 1204 0 0 0 0 0 0 1.5 0 0 0 0 0 0 0 0 0 0 0 0 0 0 0 0 0 1.5 0 0.11
22.864 1.29 -0.02 47.36 -0.13 0.37 0.94 0 0 20 3 -1 0 0 0 20 0 0 0 1203 0 0 0 0 0 0 1.5 0 0 0 0 0 0 0 0 0 0 0 0 0 0 0 0 0 1.5 0 0.11
22.964 1.29 -0.02 47.44 -0.13 0.31 1 0 0 21 1 -2 0 0 0 21 0 0 0 1218 0 0 0 0 0 0 1.5 0 0 0 0 0 0 0 0 0 0 0 0 0 0 0 0 0 1.5 0 0.11
23.064 1.29 -0.03 47.52 -0.06 0.31 1.06 0 0 20 2 -1 0 0 0 21 0 0 0 1212 0 0 0 0 0 0 1.5 0 0 0 0 0 0 0 0 0 0 0 0 0 0 0 0 0 1.5 0 0.11
23.164 1.3 -0.03 47.54 0 0.31 1.06 0 0 20 2 -2 0 0 0 20 0 0 0 1207 0 0 0 0 0 0 1.5 0 0 0 0 0 0 0 0 0 0 0 0 0 0 0 0 0 1.5 0 0.11
23.264 1.3 -0.03 47.53 -0.13 0.25 1 0 0 21 3 -2 0 0 0 20 0 0 0 1204 0 0 0 0 0 0 1.5 0 0 0 0 0 0 0 0 0 0 0 0 0 0 0 0 0 1.5 0 0.11
23.364 1.3 -0.03 47.56 -0.06 0.31 1.06 0 0 21 -1 2 0 0 0 21 0 0 0 1213 0 0 0 0 0 0 1.5 0 0 0 0 0 0 0 0 0 0 0 0 0 0 0 0 0 1.5 0 0.11
23.464 1.3 -0.03 47.55 -0.06 0.25 1 0 0 21 3 -1 0 0 0 20 0 0 0 1198 0 0 0 0 0 0 1.5 0 0 0 0 0 0 0 0 0 0 0 0 0 0 0 0 0 1.5 0 0.11
23.564 1.3 -0.03 47.59 0 0.25 1 0 0 21 1 -3 0 0 0 23 0 0 0 1231 0 0 0 0 0 0 1.5 0 0 0 0 0 0 0 0 0 0 0 0 0 0 0 0 0 1.5 0 0.11
23.664 1.31 -0.03 47.61 -0.06 0.19 1 0 0 21 1 1 0 0 0 21 0 0 0 1210 0 0 0 0 0 0 1.5 0 0 0 0 0 0 0 0 0 0 0 0 0 0 0 0 0 1.5 0 0.11
23.764 1.31 -0.03 47.68 -0.06 0.25 1 0 0 21 1 -1 0 0 0 21 0 0 0 1219 0 0 0 0 0 0 1.5 0 0 0 0 0 0 0 0 0 0 0 0 0 0 0 0 0 1.5 0 0.11
23.864 1.3 -0.03 47.67 -0.19 0.19 0.94 0 0 21 1 -3 0 0 0 22 0 0 0 1222 0 0 0 0 0 0 1.5 0 0 0 0 0 0 0 0 0 0 0 0 0 0 0 0 0 1.5 0 0.11
23.964 1.3 -0.03 47.66 0 0.25 0.81 0 0 21 2 2 0 0 0 20 0 0 0 1200 0 0 0 0 0 0 1.5 0 0 0 0 0 0 0 0 0 0 0 0 0 0 0 0 0 1.5 0 0.11
24.064 1.3 -0.02 47.64 -0.06 0.19 1 0 0 21 1 1 0 0 0 21 0 0 0 1210 0 0 0 0 0 0 1.5 0 0 0 0 0 0 0 0 0 0 0 0 0 0 0 0 0 1.5 0 0.11
24.164 1.3 -0.03 47.69 -0.13 0.19 0.94 0 0 21 0 0 0 0 0 20 0 0 0 1204 0 0 0 0 0 0 1.5 0 0 0 0 0 0 0 0 0 0 0 0 0 0 0 0 0 1.5 0 0.11
24.264 1.3 -0.03 47.7 -0.13 0.19 1 0 0 20 1 -4 0 0 0 21 0 0 0 1219 0 0 0 0 0 0 1.5 0 0 0 0 0 0 0 0 0 0 0 0 0 0 0 0 0 1.5 0 0.11
24.364 1.3 -0.03 47.76 -0.06 0.13 1 0 0 21 3 1 0 0 0 21 0 0 0 1210 0 0 0 0 0 0 1.5 0 0 0 0 0 0 0 0 0 0 0 0 0 0 0 0 0 1.5 0 0.11
24.464 1.3 -0.03 47.82 -0.06 0.13 0.94 0 0 21 0 -1 0 0 0 21 0 0 0 1218 0 0 0 0 0 0 1.5 0 0 0 0 0 0 0 0 0 0 0 0 0 0 0 0 0 1.5 0 0.11
24.564 1.3 -0.03 47.87 0 0.19 0.94 0 0 21 2 -2 0 0 0 21 0 0 0 1211 0 0 0 0 0 0 1.5 0 0 0 0 0 0 0 0 0 0 0 0 0 0 0 0 0 1.5 0 0.11
24.664 1.3 -0.03 47.94 0 0.19 0.94 0 0 21 1 0 0 0 0 22 0 0 0 1220 0 0 0 0 0 0 1.5 0 0 0 0 0 0 0 0 0 0 0 0 0 0 0 0 0 1.5 0 0.11
24.764 1.3 -0.03 47.92 0 0.19 1 0 0 21 2 0 0 0 0 19 0 0 0 1189 0 0 0 0 0 0 1.5 0 0 0 0 0 0 0 0 0 0 0 0 0 0 0 0 0 1.5 0 0.11
24.864 1.3 -0.03 47.91 -0.06 0.13 1.06 0 0 21 -1 -3 0 0 0 23 0 0 0 1233 0 0 0 0 0 0 1.5 0 0 0 0 0 0 0 0 0 0 0 0 0 0 0 0 0 1.5 0 0.11
24.964 1.3 -0.02 47.82 -0.13 0.19 1 0 0 21 2 -1 0 0 0 20 0 0 0 1208 0 0 0 0 0 0 1.5 0 0 0 0 0 0 0 0 0 0 0 0 0 0 0 0 0 1.5 0 0.11
25.064 1.3 -0.02 47.8 -0.13 0.19 1 0 0 21 1 -2 0 0 0 20 0 0 0 1203 0 0 0 0 0 0 1.5 0 0 0 0 0 0 0 0 0 0 0 0 0 0 0 0 0 1.5 0 0.11
25.164 1.3 -0.02 47.8 -0.13 0.13 1.06 0 0 21 1 -1 0 0 0 20 0 0 0 1208 0 0 0 0 0 0 1.5 0 0 0 0 0 0 0 0 0 0 0 0 0 0 0 0 0 1.5 0 0.11
25.264 1.3 -0.02 47.85 -0.06 0.19 1.06 0 0 21 2 -1 0 0 0 20 0 0 0 1205 0 0 0 0 0 0 1.5 0 0 0 0 0 0 0 0 0 0 0 0 0 0 0 0 0 1.5 0 0.11
25.364 1.3 -0.01 47.9 -0.06 0.19 0.94 0 0 21 2 -1 0 0 0 20 0 0 0 1206 0 0 0 0 0 0 1.5 0 0 0 0 0 0 0 0 0 0 0 0 0 0 0 0 0 1.5 0 0.11
25.464 1.29 -0.01 47.96 -0.13 0.19 1 0 0 21 2 -1 0 0 0 20 0 0 0 1208 0 0 0 0 0 0 1.5 0 0 0 0 0 0 0 0 0 0 0 0 0 0 0 0 0 1.5 0 0.11
25.564 1.29 -0.01 47.97 -0.06 0.19 1 0 0 21 2 -1 0 0 0 20 0 0 0 1208 0 0 0 0 0 0 1.5 0 0 0 0 0 0 0 0 0 0 0 0 0 0 0 0 0 1.5 0 0.11
25.664 1.29 -0.01 48 -0.06 0.13 1 0 0 20 1 -1 0 0 0 20 0 0 0 1209 0 0 0 0 0 0 1.5 0 0.3 0 0 0 0 0 0 0 0 0 0 0 0 0 0 0 1.5 0 0.11
25.764 1.29 -0.01 48 -0.13 0.13 1 0 0 21 2 -1 0 0 0 20 0 0 0 1208 0 0 0 0 0 0 1.5 0 0.3 0 0 0 0 0 0 0 0 0 0 0 0 0 0 0 1.5 0 0.11
25.864 1.29 -0.01 48.05 -0.06 0.13 1 0 0 21 1 -1 0 0 0 20 0 0 0 1206 0 0 0 0 0 0 1.5 0 0.3 0 0 0 0 0 0 0 0 0 0 0 0 0 0 0 1.5 0 0.11
25.964 1.3 -0.02 48.03 0 0.19 1 0 0 20 2 -1 0 0 0 21 0 0 0 1210 0 0 0 0 0 0 1.5 0 0.3 0 0 0 0 0 0 0 0 0 0 0 0 0 0 0 1.5 0 0.11
26.064 1.3 -0.02 48.07 -0.06 0.19 0.94 0 0 20 -1 -6 0 0 0 40 0 0 0 1380 0 0 0 0 0 0 1.5 0 0.3 0 0 0 0 0 0 0 0 0 0 0 0 0 0 0 1.5 0 0.11
26.164 1.3 -0.02 48.04 -0.06 0.19 0.94 0 0 21 3 0 0 0 0 20 0 0 0 1205 0 0 0 0 0 0 1.5 0 0.3 0 0 0 0 0 0 0 0 0 0 0 0 0 0 0 1.5 0 0.11
26.264 1.3 -0.02 48.07 0 0.19 0.88 0 0 20 3 -2 0 0 0 20 0 0 0 1205 0 0 0 0 0 0 1.5 0 0.3 0 0 0 0 0 0 0 0 0 0 0 0 0 0 0 1.5 0 0.11
26.364 1.3 -0.02 48.1 -0.13 0.19 0.94 0 0 20 2 -1 0 0 0 20 0 0 0 1204 0 0 0 0 0 0 1.5 0 0.3 0 0 0 0 0 0 0 0 0 0 0 0 0 0 0 1.5 0 0.11
26.464 1.3 -0.02 48.09 -0.06 0.19 1 0 0 21 4 -2 0 0 0 20 0 0 0 1204 0 0 0 0 0 0 1.5 0 0.3 0 0 0 0 0 0 0 0 0 0 0 0 0 0 0 1.5 0 0.11
26.565 1.31 -0.02 48.09 -0.06 0.19 0.94 0 0 20 1 1 0 0 0 20 0 0 0 1209 0 0 0 0 0 0 1.5 0 0.3 0 0 0 0 0 0 0 0 0 0 0 0 0 0 0 1.5 0 0.11
26.664 1.3 -0.02 48.12 -0.06 0.19 1 0 0 20 3 -1 0 0 0 20 0 0 0 1202 0 0 0 0 0 0 1.5 0 0.3 0 0 0 0 0 0 0 0 0 0 0 0 0 0 0 1.5 0 0.11
26.767 1.31 -0.02 48.26 -0.06 0.25 1 0 0 20 1 -1 0 0 0 21 0 0 0 1212 0 0 0 0 0 0 1.5 0 0.3 0 0 0 0 0 0 0 0 0 0 0 0 0 0 0 1.5 0 0.11
26.866 1.31 -0.02 48.24 -0.13 0.13 0.94 0 0 21 3 -1 0 0 0 20 0 0 0 1207 0 0 0 0 0 0 1.5 0 0.3 0 0 0 0 0 0 0 0 0 0 0 0 0 0 0 1.5 0 0.11
26.966 1.31 -0.02 48.27 -0.13 0.19 1 0 0 21 1 -1 0 0 0 21 0 0 0 1214 0 0 0 0 0 0 1.5 0 0.3 0 0 0 0 0 0 0 0 0 0 0 0 0 0 0 1.5 0 0.11
27.066 1.3 -0.02 48.3 -0.13 0.19 1 0 0 20 2 -1 0 0 0 21 0 0 0 1210 0 0 0 0 0 0 1.5 0 0.3 0 0 0 0 0 0 0 0 0 0 0 0 0 0 0 1.5 0 0.11
27.167 1.31 -0.02 48.35 -0.06 0.19 1 0 0 20 2 -1 0 0 0 20 0 0 0 1204 0 0 0 0 0 0 1.5 0 0.3 0 0 0 0 0 0 0 0 0 0 0 0 0 0 0 1.5 0 0.11
27.266 1.3 -0.02 48.39 -0.13 0.13 0.94 0 0 21 2 -1 0 0 0 21 0 0 0 1211 0 0 0 0 0 0 1.5 0 0.3 0 0 0 0 0 0 0 0 0 0 0 0 0 0 0 1.5 0 0.11
27.366 1.3 -0.02 48.52 -0.06 0.19 0.88 0 0 20 0 -2 0 0 0 21 0 0 0 1214 0 0 0 0 0 0 1.5 0 0.3 0 0 0 0 0 0 0 0 0 0 0 0 0 0 0 1.5 0 0.11
27.466 1.3 -0.01 48.57 -0.06 0.19 1 0 0 20 2 0 0 0 0 21 0 0 0 1210 0 0 0 0 0 0 1.5 0 0.3 0 0 0 0 0 0 0 0 0 0 0 0 0 0 0 1.5 0 0.11
27.566 1.3 -0.02 48.63 -0.13 0.25 1 0 0 21 2 -2 0 0 0 20 0 0 0 1209 0 0 0 0 0 0 1.5 0 0.3 0 0 0 0 0 0 0 0 0 0 0 0 0 0 0 1.5 0 0.11
27.666 1.3 -0.01 48.61 -0.06 0.19 0.94 0 0 20 2 -1 0 0 0 21 0 0 0 1210 0 0 0 0 0 0 1.5 0 0.3 0 0 0 0 0 0 0 0 0 0 0 0 0 0 0 1.5 0 0.11
27.766 1.3 -0.01 48.67 -0.13 0.25 0.88 0 0 20 2 0 0 0 0 20 0 0 0 1207 0 0 0 0 0 0 1.5 0 0.3 0 0 0 0 0 0 0 0 0 0 0 0 0 0 0 1.5 0 0.11
27.867 1.3 -0.01 48.7 0 0.19 1.06 0 0 20 2 -1 0 0 0 20 0 0 0 1208 0 0 0 0 0 0 1.5 0 0.3 0 0 0 0 0 0 0 0 0 0 0 0 0 0 0 1.5 0 0.11
27.968 1.3 -0.01 48.67 0 0.25 0.94 0 0 21 1 -1 0 0 0 21 0 0 0 1210 0 0 0 0 0 0 1.5 0.5 0.3 0 0 0 0 0 0 0 0 0 0 0 0 0 0 0 1.5 0 0.11
28.067 1.3 0 48.7 -0.06 0.19 1 0 0 21 1 -1 0 0 0 21 0 0 0 1214 0 0 0 0 0 0 1.5 0.5 0.3 0 0 0 0 0 0 0 0 0 0 0 0 0 0 0 1.5 0 0.11
28.168 1.3 -0.01 48.74 -0.13 0.19 0.94 0 0 20 2 -1 0 0 0 20 0 0 0 1208 0 0 0 0 0 0 1.5 0.5 0.3 0 0 0 0 0 0 0 0 0 0 0 0 0 0 0 1.5 0 0.11
28.267 1.3 -0.01 48.77 -0.06 0.13 0.94 0 0 20 2 -1 0 0 0 20 0 0 0 1206 0 0 0 0 0 0 1.5 0.5 0.3 0 0 0 0 0 0 0 0 0 0 0 0 0 0 0 1.5 0 0.11
28.367 1.3 -0.01 48.75 -0.13 0.25 1.06 0 0 21 3 0 0 0 0 20 0 0 0 1195 0 0 0 0 0 0 1.5 0.5 0.3 0 0 0 0 0 0 0 0 0 0 0 0 0 0 0 1.5 0 0.11
28.468 1.3 0 48.85 -0.06 0.25 0.94 0 0 20 -15 -9 0 0 0 34 0 0 0 1342 0 0 0 0 0 0 1.5 0.5 0.3 0 0 0 0 0 0 0 0 0 0 0 0 0 0 0 1.5 0 0.11
28.567 1.3 -0.01 48.87 -0.13 0.25 0.94 0 0 21 -11 0 0 0 0 39 0 0 0 1395 0 0 0 0 0 0 1.5 0.5 0.3 0 0 0 0 0 0 0 0 0 0 0 0 0 0 0 1.5 0 0.11
28.667 1.3 -0.01 48.91 -0.19 0.5 0.69 0 0 21 3 0 0 0 0 20 0 0 0 1194 0 0 0 0 0 0 1.5 0.5 0.3 0 0 0 0 0 0 0 0 0 0 0 0 0 0 0 1.5 0 0.11
28.768 1.3 -0.01 48.64 0.13 0.06 0.88 0 0 20 2 -2 0 0 0 20 0 0 0 1209 0 0 0 0 0 0 1.5 0.5 0.3 0 0 0 0 0 0 0 0 0 0 0 0 0 0 0 1.5 0 0.11
28.868 1.3 0 48.75 -0.44 1.06 1.12 0 0 20 3 0 0 0 0 20 0 0 0 1197 0 0 0 0 0 0 1.5 0.5 0.3 0 0 0 0 0 0 0 0 0 0 0 0 0 0 0 1.5 0 0.11
28.968 1.3 0 48.85 1.94 1.87 1 0 0 21 1 -1 0 0 0 21 0 0 0 1212 0 0 0 0 0 0 1.5 0.5 0.3 0 0 0 0 0 0 0 0 0 0 0 0 0 0 0 1.5 0 0.11
29.068 1.3 0 48.91 2.31 -0.06 1.12 0 0 20 -2 -2 0 0 0 24 0 0 0 1245 0 0 0 0 0 0 1.5 0.5 0.3 0 0 0 0 0 0 0 0 0 0 0 0 0 0 0 1.5 0 0.11
29.168 1.29 0 48.89 -2 0 1 0 0 20 -1 -2 0 0 0 23 0 0 0 1235 0 0 0 0 0 0 1.5 0.5 0.3 0 0 0 0 0 0 0 0 0 0 0 0 0 0 0 1.5 0 0.11
29.268 1.3 0 48.94 -0.75 1 0.94 0 0 21 3 -1 0 0 0 20 0 0 0 1203 0 0 0 0 0 0 1.5 0.5 0.3 0 0 0 0 0 0 0 0 0 0 0 0 0 0 0 1.5 0 0.11
29.368 1.3 0 48.87 0.37 0.31 1.19 0 0 21 3 0 0 0 0 20 0 0 0 1203 0 0 0 0 0 0 1.5 0.5 0.3 0 0 0 0 0 0 0 0 0 0 0 0 0 0 0 1.5 0 0.11
29.468 1.3 -0.01 48.9 -0.13 -0.37 1 0 0 21 4 2 0 0 0 19 0 0 0 1190 0 0 0 0 0 0 1.5 0.5 0.3 0 0 0 0 0 0 0 0 0 0 0 0 0 0 0 1.5 0 0.11
29.568 1.3 -0.01 48.93 -0.37 0.37 0.69 0 0 20 2 1 0 0 0 20 0 0 0 1204 0 0 0 0 0 0 1.5 0.5 0.3 0 0 0 0 0 0 0 0 0 0 0 0 0 0 0 1.5 0 0.11
29.668 1.3 -0.01 48.93 0 0.25 1.25 0 0 21 3 1 0 0 0 20 0 0 0 1199 0 0 0 0 0 0 1.5 0.5 0.3 0 0 0 0 0 0 0 0 0 0 0 0 0 0 0 1.5 0 0.11
29.768 1.3 -0.01 48.95 -0.13 -0.19 0.88 0 0 21 0 -1 0 0 0 21 0 0 0 1211 0 0 0 0 0 0 1.5 0.5 0.3 0 0 0 0 0 0 0 0 0 0 0 0 0 0 0 1.5 0 0.11
29.868 1.3 -0.01 48.94 -0.19 -0.13 0.94 0 0 21 3 0 0 0 0 20 0 0 0 1202 0 0 0 0 0 0 1.5 0.5 0.3 0 0 0 0 0 0 0 0 0 0 0 0 0 0 0 1.5 0 0.11
29.968 1.3 -0.01 48.91 -0.13 -0.13 0.94 0 0 21 4 0 0 0 0 20 0 0 0 1195 0 0 0 0 0 0 1.5 0.5 0.3 0 0 0 0 0 0 0 0 0 0 0 0 0 0 0 1.5 0 0.11
30.068 1.29 -0.01 48.85 0.06 -0.19 1.12 0 0 20 0 -3 0 0 0 22 0 0 0 1220 0 0 0 0 0 0 1.5 0.5 0.3 0 0 0 0 0 0 0 0 0 0 0 0 0 0 0 1.5 0 0.11
30.168 1.29 -0.01 48.87 -0.19 -0.06 0.75 0 0 21 0 -2 0 0 0 21 0 0 0 1211 0 0 0 0 0 0 1.5 0.5 0.3 0 0 0 0 0 0 0 0 0 0 0 0 0 0 0 1.5 0 0.11
30.268 1.3 -0.01 48.89 -0.19 0 1 0 0 21 0 0 0 0 0 21 0 0 0 1210 0 0 0 0 0 0 1.5 0.5 0.3 0 0 0 0 0 0 0 0 0 0 0 0 0 0 0 1.5 0 0.11
30.368 1.29 -0.01 48.88 0 -0.13 0.88 0 0 21 4 -1 0 0 0 20 0 0 0 1198 0 0 0 0 0 0 1.5 0.5 0.3 0 0 0 0 0 0 0 0 0 0 0 0 0 0 0 1.5 0 0.11
30.467 1.29 -0.01 48.87 -0.13 0 0.94 0 0 20 3 -1 0 0 0 21 0 0 0 1210 0 0 0 0 0 0 1.5 0.5 0.3 0 0 0 0 0 0 0 0 0 0 0 0 0 0 0 1.5 0 0.11
30.568 1.3 -0.01 48.92 -0.06 0.06 0.94 0 0 21 2 -1 0 0 0 21 0 0 0 1212 0 0 0 0 0 0 1.5 0.5 0.3 0 0 0 0 0 0 0 0 0 0 0 0 0 0 0 1.5 0 0.11
30.668 1.3 -0.01 49 -0.06 0 0.94 0 0 21 1 -1 0 0 0 21 0 0 0 1212 0 0 0 0 0 0 1.5 0.5 0.3 0 0 0 0 0 0 0 0 0 0 0 0 0 0 0 1.5 0 0.11
30.768 1.3 -0.01 49.03 -0.13 0 1 0 0 20 0 -2 0 0 0 21 0 0 0 1217 0 0 0 0 0 0 1.5 0.5 0.3 0 0 0 0 0 0 0 0 0 0 0 0 0 0 0 1.5 0 0.11
30.868 1.29 -0.01 49.03 -0.06 0 0.94 0 0 21 2 0 0 0 0 21 0 0 0 1210 0 0 0 0 0 0 1.5 0.5 0.3 0 0 0 0 0 0 0 0 0 0 0 0 0 0 0 1.5 0 0.11
30.968 1.29 -0.01 49.14 -0.13 0.06 0.94 0 0 21 2 -2 0 0 0 21 0 0 0 1211 0 0 0 0 0 0 1.5 0.5 0.3 0 0 0 0 0 0 0 0 0 0 0 0 0 0 0 1.5 0 0.11
31.068 1.3 -0.01 49.22 -0.06 0.06 1 0 0 20 -4 -1 0 0 0 23 0 0 0 1232 0 0 0 0 0 0 1.5 0.5 0.3 0 0 0 0 0 0 0 0 0 0 0 0 0 0 0 1.5 0 0.11
31.168 1.3 -0.01 49.33 -0.06 0.19 0.88 0 0 21 1 -3 0 0 0 20 0 0 0 1208 0 0 0 0 0 0 1.5 0.5 0.3 0 0 0 0 0 0 0 0 0 0 0 0 0 0 0 1.5 0 0.11
31.268 1.3 -0.01 49.42 -0.13 0.13 0.94 0 0 21 2 -2 0 0 0 20 0 0 0 1206 0 0 0 0 0 0 1.5 0.5 0.3 0 0 0 0 0 0 0 0 0 0 0 0 0 0 0 1.5 0 0.11
31.368 1.3 -0.01 49.34 -0.19 0.13 0.94 0 0 21 2 -1 0 0 0 20 0 0 0 1206 0 0 0 0 0 0 1.5 0.5 0.3 0 0 0 0 0 0 0 0 0 0 0 0 0 0 0 1.5 0 0.11
31.468 1.3 -0.01 49.3 -0.13 0.19 0.94 0 0 20 2 -1 0 0 0 21 0 0 0 1213 0 0 0 0 0 0 1.5 0.5 0.3 0 0 0 0 0 0 0 0 0 0 0 0 0 0 0 1.5 0 0.11
31.568 1.3 -0.01 49.23 -0.06 0.19 1 0 0 20 3 -2 0 0 0 20 0 0 0 1209 0 0 0 0 0 0 1.5 0.5 0.3 0 0 0 0 0 0 0 0 0 0 0 0 0 0 0 1.5 0 0.11
31.668 1.3 -0.01 49.25 0 0.19 0.88 0 0 21 2 0 0 0 0 20 0 0 0 1209 0 0 0 0 0 0 1.5 0.5 0.3 0 0 0 0 0 0 0 0 0 0 0 0 0 0 0 1.5 0 0.11
31.768 1.3 -0.01 49.33 -0.13 0.13 0.94 0 0 21 2 0 0 0 0 20 0 0 0 1201 0 0 0 0 0 0 1.5 0.5 0.3 0 0 0 0 0 0 0 0 0 0 0 0 0 0 0 1.5 0 0.11
31.868 1.3 -0.02 49.41 -0.13 0.06 0.94 0 0 21 1 -1 0 0 0 21 0 0 0 1212 0 0 0 0 0 0 1.5 0.5 0.3 0 0 0 0 0 0 0 0 0 0 0 0 0 0 0 1.5 0 0.11
31.968 1.3 -0.02 49.41 -0.06 0.19 1 0 0 21 2 -1 0 0 0 21 0 0 0 1213 0 0 0 0 0 0 1.5 0.5 0.3 0 0 0 0 0 0 0 0 0 0 0 0 0 0 0 1.5 0 0.11
32.068 1.3 -0.02 49.39 -0.13 0.25 1 0 0 20 1 -2 0 0 0 21 0 0 0 1212 0 0 0 0 0 0 1.5 0.5 0.3 0 0 0 0 0 0 0 0 0 0 0 0 0 0 0 1.5 0 0.11
32.168 1.29 -0.02 49.35 -0.06 0.19 0.94 0 0 20 1 -2 0 0 0 21 0 0 0 1210 0 0 0 0 0 0 1.5 0.5 0.3 0 0 0 0 0 0 0 0 0 0 0 0 0 0 0 1.5 0 0.11
32.268 1.3 -0.02 49.35 -0.06 0.25 0.94 0 0 21 0 -2 0 0 0 21 0 0 0 1219 0 0 0 0 0 0 1.5 0.5 0.3 0 0 0 0 0 0 0 0 0 0 0 0 0 0 0 1.5 0 0.11
32.368 1.3 -0.02 49.31 -0.13 0.13 0.94 0 0 21 1 0 0 0 0 20 0 0 0 1209 0 0 0 0 0 0 1.5 0.5 0.3 0 0 0 0 0 0 0 0 0 0 0 0 0 0 0 1.5 0 0.11
32.468 1.3 -0.02 49.33 -0.13 0.19 1 0 0 20 1 -2 0 0 0 21 0 0 0 1212 0 0 0 0 0 0 1.5 0.5 0.3 0 0 0 0 0 0 0 0 0 0 0 0 0 0 0 1.5 0 0.11
32.568 1.3 -0.02 49.33 -0.06 0.25 1 0 0 21 1 -1 0 0 0 20 0 0 0 1209 0 0 0 0 0 0 1.5 0.5 0.3 0 0 0 0 0 0 0 0 0 0 0 0 0 0 0 1.5 0 0.11
32.668 1.29 -0.03 49.31 -0.13 0.19 1 0 0 21 3 -1 0 0 0 20 0 0 0 1208 0 0 0 0 0 0 1.5 0.5 0.3 0 0 0 0 0 0 0 0 0 0 0 0 0 0 0 1.5 0 0.11
32.768 1.29 -0.02 49.38 -0.13 0.25 1 0 0 21 2 0 0 0 0 21 0 0 0 1210 0 0 0 0 0 0 1.5 0.5 0.3 0 0 0 0 0 0 0 0 0 0 0 0 0 0 0 1.5 0 0.11
32.868 1.3 -0.02 49.37 -0.06 0.19 1.06 0 0 21 2 -1 0 0 0 20 0 0 0 1207 0 0 0 0 0 0 1.5 0.5 0.3 0 0 0 0 0 0 0 0 0 0 0 0 0 0 0 1.5 0 0.11
32.968 1.3 -0.02 49.37 -0.13 0.19 1 0 0 21 2 0 0 0 0 20 0 0 0 1205 0 0 0 0 0 0 1.5 0.5 0.3 0 0 0 0 0 0 0 0 0 0 0 0 0 0 0 1.5 0 0.11
33.068 1.3 -0.02 49.34 -0.06 0.25 1 0 0 20 2 -2 0 0 0 20 0 0 0 1207 0 0 0 0 0 0 1.5 0.5 0.3 0 0 0 0 0 0 0 0 0 0 0 0 0 0 0 1.5 0 0.11
33.168 1.29 -0.02 49.34 -0.06 0.19 0.94 0 0 21 2 -1 0 0 0 20 0 0 0 1209 0 0 0 0 0 0 1.5 0.5 0.3 0 0 0 0 0 0 0 0 0 0 0 0 0 0 0 1.5 0 0.11
33.268 1.3 -0.02 49.42 -0.06 0.19 0.94 0 0 21 1 -1 0 0 0 21 0 0 0 1213 0 0 0 0 0 0 1.5 0.5 0.3 0 0 0 0 0 0 0 0 0 0 0 0 0 0 0 1.5 0 0.11
33.368 1.29 -0.02 49.45 -0.13 0.25 1 0 0 20 1 -1 0 0 0 21 0 0 0 1215 0 0 0 0 0 0 1.5 0.5 0.3 0 0 0 0 0 0 0 0 0 0 0 0 0 0 0 1.5 0 0.11
33.468 1.3 -0.02 49.5 0 0.19 0.94 0 0 20 3 -1 0 0 0 21 0 0 0 1210 0 0 0 0 0 0 1.5 0.5 0.3 0 0 0 0 0 0 0 0 0 0 0 0 0 0 0 1.5 0 0.11
33.568 1.3 -0.02 49.57 -0.13 0.19 1 0 0 20 2 -1 0 0 0 20 0 0 0 1209 0 0 0 0 0 0 1.5 0.5 0.3 0 0 0 0 0 0 0 0 0 0 0 0 0 0 0 1.5 0 0.11
33.668 1.3 -0.02 49.56 -0.06 0.19 0.94 0 0 21 1 -1 0 0 0 20 0 0 0 1207 0 0 0 0 0 0 1.5 0.5 0.3 0 0 0 0 0 0 0 0 0 0 0 0 0 0 0 1.5 0 0.11
33.768 1.3 -0.02 49.55 0 0.19 0.94 0 0 21 2 -1 0 0 0 21 0 0 0 1210 0 0 0 0 0 0 1.5 0.5 0.3 0 0 0 0 0 0 0 0 0 0 0 0 0 0 0 1.5 0 0.11
33.868 1.3 -0.02 49.52 -0.06 0.31 0.94 0 0 20 2 -1 0 0 0 20 0 0 0 1207 0 0 0 0 0 0 1.5 0.5 0.3 0 0 0 0 0 0 0 0 0 0 0 0 0 0 0 1.5 0 0.11
33.968 1.3 -0.02 49.5 -0.13 0.13 1 0 0 21 1 0 0 0 0 21 0 0 0 1211 0 0 0 0 0 0 1.5 0.5 0.3 0 0 0 0 0 0 0 0 0 0 0 0 0 0 0 1.5 0 0.11
34.068 1.3 -0.02 49.52 -0.06 0.13 0.94 0 0 21 2 0 0 0 0 20 0 0 0 1208 0 0 0 0 0 0 1.5 0.5 0.3 0 0 0 0 0 0 0 0 0 0 0 0 0 0 0 1.5 0 0.11
34.168 1.29 -0.02 49.42 -0.13 0.13 1 0 0 20 1 -1 0 0 0 20 0 0 0 1209 0 0 0 0 0 0 1.5 0.5 0.3 0 0 0 0 0 0 0 0 0 0 0 0 0 0 0 1.5 0 0.11
34.268 1.29 -0.02 49.45 -0.06 0.19 1.06 0 0 20 2 -1 0 0 0 20 0 0 0 1209 0 0 0 0 0 0 1.5 0.5 0.3 0 0 0 0 0 0 0 0 0 0 0 0 0 0 0 1.5 0 0.11
34.368 1.29 -0.02 49.44 -0.13 0.19 0.94 0 0 21 2 -2 0 0 0 21 0 0 0 1217 0 0 0 0 0 0 1.5 0.5 0.3 0 0 0 0 0 0 0 0 0 0 0 0 0 0 0 1.5 0 0.11
34.468 1.29 -0.02 49.45 -0.06 0.19 0.94 0 0 21 1 -2 0 0 0 21 0 0 0 1216 0 0 0 0 0 0 1.5 0.5 0.3 0 0 0 0 0 0 0 0 0 0 0 0 0 0 0 1.5 0 0.11
34.568 1.29 -0.02 49.38 -0.06 0.13 0.94 0 0 20 2 -1 0 0 0 21 0 0 0 1212 0 0 0 0 0 0 1.5 0.5 0.3 0 0 0 0 0 0 0 0 0 0 0 0 0 0 0 1.5 0 0.11
34.668 1.29 -0.02 49.38 -0.06 0.13 0.88 0 0 21 2 -1 0 0 0 21 0 0 0 1212 0 0 0 0 0 0 1.5 0.5 0.3 0 0 0 0 0 0 0 0 0 0 0 0 0 0 0 1.5 0 0.11
34.768 1.29 -0.02 49.24 -0.13 0.19 0.94 0 0 21 2 0 0 0 0 21 0 0 0 1210 0 0 0 0 0 0 1.5 0.5 0.3 0 0 0 0 0 0 0 0 0 0 0 0 0 0 0 1.5 0 0.11
34.868 1.3 -0.02 49.16 -0.06 0.25 1 0 0 21 2 -1 0 0 0 20 0 0 0 1204 0 0 0 0 0 0 1.5 0.5 0.3 0 0 0 0 0 0 0 0 0 0 0 0 0 0 0 1.5 0 0.11
34.968 1.3 -0.02 49.09 -0.06 0.19 1 0 0 20 2 -2 0 0 0 21 0 0 0 1210 0 0 0 0 0 0 1.5 0.5 0.3 0 0 0 0 0 0 0 0 0 0 0 0 0 0 0 1.5 0 0.11
35.068 1.3 -0.02 49.12 -0.06 0.19 1 0 0 21 2 -1 0 0 0 20 0 0 0 1205 0 0 0 0 0 0 1.5 0.5 0.3 0 0 0 0 0 0 0 0 0 0 0 0 0 0 0 1.5 0 0.11
35.168 1.3 -0.02 49.03 -0.06 0.19 0.94 0 0 20 2 -1 0 0 0 20 0 0 0 1209 0 0 0 0 0 0 1.5 0.5 0.3 0 0 0 0 0 0 0 0 0 0 0 0 0 0 0 1.5 0 0.11
35.268 1.3 -0.02 49.08 -0.19 0.19 0.94 0 0 20 2 0 0 0 0 20 0 0 0 1204 0 0 0 0 0 0 1.5 0.5 0.3 0 0 0 0 0 0 0 0 0 0 0 0 0 0 0 1.5 0 0.11
35.368 1.3 -0.02 49.15 -0.13 0.19 0.94 0 0 21 2 -1 0 0 0 21 0 0 0 1212 0 0 0 0 0 0 1.5 0.5 0.3 0 0 0 0 0 0 0 0 0 0 0 0 0 0 0 1.5 0 0.11
35.468 1.3 -0.01 49.22 -0.13 0.25 0.94 0 0 20 1 -1 0 0 0 21 0 0 0 1216 0 0 0 0 0 0 1.5 0.5 0.3 0 0 0 0 0 0 0 0 0 0 0 0 0 0 0 1.5 0 0.11
35.568 1.3 -0.01 49.31 -0.06 0.19 1 0 0 21 1 -1 0 0 0 20 0 0 0 1208 0 0 0 0 0 0 1.5 0.5 0.3 0 0 0 0 0 0 0 0 0 0 0 0 0 0 0 1.5 0 0.11
35.668 1.29 -0.01 49.32 -0.06 0.13 0.94 0 0 21 3 -2 0 0 0 21 0 0 0 1215 0 0 0 0 0 0 1.5 0.5 0.3 0 0 0 0 0 0 0 0 0 0 0 0 0 0 0 1.5 0 0.11
35.768 1.29 -0.01 49.37 -0.13 0.19 1 0 0 21 2 -1 0 0 0 21 0 0 0 1212 0 0 0 0 0 0 1.5 0.5 0.3 0 0 0 0 0 0 0 0 0 0 0 0 0 0 0 1.5 0 0.11
35.868 1.29 -0.01 49.43 0 0.06 0.94 0 0 20 2 -1 0 0 0 21 0 0 0 1210 0 0 0 0 0 0 1.5 0.5 0.3 0 0 0 0 0 0 0 0 0 0 0 0 0 0 0 1.5 0 0.11
35.968 1.29 -0.01 49.44 -0.13 0.19 1.06 0 0 21 0 -1 0 0 0 20 0 0 0 1209 0 0 0 0 0 0 1.5 0.5 0.3 0 0 0 0 0 0 0 0 0 0 0 0 0 0 0 1.5 0 0.11
36.068 1.3 -0.01 49.41 -0.13 0.19 0.94 0 0 21 1 -2 0 0 0 21 0 0 0 1214 0 0 0 0 0 0 1.5 0.5 0.3 0 0 0 0 0 0 0 0 0 0 0 0 0 0 0 1.5 0 0.11
36.168 1.3 -0.01 49.42 -0.06 0.19 0.94 0 0 20 2 -1 0 0 0 20 0 0 0 1206 0 0 0 0 0 0 1.5 0.5 0.3 0 0 0 0 0 0 0 0 0 0 0 0 0 0 0 1.5 0 0.11
36.268 1.29 -0.01 49.42 -0.13 0.13 1 0 0 20 2 -1 0 0 0 21 0 0 0 1211 0.01 0 0 0 0 0 1.5 0.5 0.3 0 0 0 0 0 0 0 0 0 0 0 0 0 0 0 1.5 0 0.11
36.368 1.29 -0.01 49.42 -0.13 0.13 1 0 0 21 2 -1 0 0 0 20 0 0 0 1206 0.01 0 0 0 0 0 1.5 0.5 0.3 0 0 0 0 0 0 0 0 0 0 0 0 0 0 0 1.5 0 0.11
36.468 1.29 -0.01 49.37 -0.06 0.19 1 0 0 21 2 -1 0 0 0 21 0 0 0 1210 0.02 0 0 0 0 0 1.5 0.5 0.3 0 0 0 0 0 0 0 0 0 0 0 0 0 0 0 1.5 0 0.11
36.568 1.3 -0.01 49.39 -0.13 0.13 0.94 0 0 21 1 0 0 0 0 21 0 0 0 1215 0.02 0 0 0 0 0 1.5 0.5 0.3 0 0 0 0 0 0 0 0 0 0 0 0 0 0 0 1.5 0 0.11
36.668 1.3 -0.01 49.34 -0.13 0.19 0.94 0 0 21 1 -2 0 0 0 21 0 0 0 1217 0.03 0 0 0 0 0 1.5 0.5 0.3 0 0 0 0 0 0 0 0 0 0 0 0 0 0 0 1.5 0 0.11
36.768 1.3 -0.01 49.37 -0.06 0.19 1 0 0 21 2 -2 0 0 0 20 0 0 0 1208 0.04 0 0 0 0 0 1.5 0.5 0.3 0 0 0 0 0 0 0 0 0 0 0 0 0 0 0 1.5 0 0.11
36.868 1.3 -0.01 49.3 -0.06 0.19 1.06 0 0 20 2 -1 0 0 0 21 0 0 0 1210 0.04 0 0 0 0 0 1.5 0.5 0.3 0 0 0 0 0 0 0 0 0 0 0 0 0 0 0 1.5 0 0.11
36.968 1.3 -0.01 49.3 -0.13 0.19 1.06 0 0 21 1 -1 0 0 0 21 0 0 0 1210 0.05 0 0 0 0 0 1.5 0.5 0.3 0 0 0 0 0 0 0 0 0 0 0 0 0 0 0 1.5 0 0.11
37.068 1.3 -0.01 49.24 -0.06 0.19 1 0 0 21 2 -1 0 0 0 21 0 0 0 1211 0.05 0 0 0 0 0 1.5 0.5 0.3 0 0 0 0 0 0 0 0 0 0 0 0 0 0 0 1.5 0 0.11
37.168 1.3 -0.01 49.3 -0.06 0.19 1 0 0 21 2 -1 0 0 0 20 0 0 0 1209 0.06 0 0 0 0 0 1.5 0.5 0.3 0 0 0 0 0 0 0 0 0 0 0 0 0 0 0 1.5 0 0.11
37.268 1.3 -0.01 49.28 -0.13 0.13 0.88 0 0 20 1 -1 0 0 0 20 0 0 0 1208 0.07 0 0 0 0 0 1.5 0.5 0.3 0 0 0 0 0 0 0 0 0 0 0 0 0 0 0 1.5 0 0.11
37.368 1.3 -0.01 49.28 -0.06 0.25 1 0 0 21 3 -1 0 0 0 20 0 0 0 1208 0.07 0 0 0 0 0 1.5 0.5 0.3 0 0 0 0 0 0 0 0 0 0 0 0 0 0 0 1.5 0 0.11
37.468 1.31 -0.01 49.31 -0.13 0.19 1.06 0 0 20 1 -1 0 0 0 20 0 0 0 1208 0.08 0 0 0 0 0 1.5 0.5 0.3 0 0 0 0 0 0 0 0 0 0 0 0 0 0 0 1.5 0 0.11
37.568 1.3 -0.01 49.31 -0.06 0.19 1 0 0 20 1 -1 0 0 0 20 0 0 0 1207 0.08 0 0 0 0 0 1.5 0.5 0.3 0 0 0 0 0 0 0 0 0 0 0 0 0 0 0 1.5 0 0.11
37.668 1.3 -0.01 49.32 -0.13 0.19 0.94 0 0 21 3 -1 0 0 0 20 0 0 0 1202 0.09 0 0 0 0 0 1.5 0.5 0.3 0 0 0 0 0 0 0 0 0 0 0 0 0 0 0 1.5 0 0.11
37.768 1.3 -0.01 49.22 -0.13 0.19 1 0 0 20 2 -1 0 0 0 20 0 0 0 1208 0.09 0 0 0 0 0 1.5 0.5 0.3 0 0 0 0 0 0 0 0 0 0 0 0 0 0 0 1.5 0 0.11
37.868 1.3 -0.01 49.19 -0.06 0.19 0.94 0 0 21 2 -1 0 0 0 20 0 0 0 1209 0.09 0 0 0 0 0 1.5 0.5 0.3 0 0 0 0 0 0 0 0 0 0 0 0 0 0 0 1.5 0 0.11
37.968 1.29 -0.01 49.09 -0.06 0.13 1 0 0 21 2 -1 0 0 0 21 0 0 0 1210 0.09 0 0 0 0 0 1.5 0.5 0.3 0 0 0 0 0 0 0 0 0 0 0 0 0 0 0 1.5 0 0.11
38.068 1.29 -0.01 49.06 0 0.13 0.94 0 0 20 2 -1 0 0 0 20 0 0 0 1206 0.09 0 0 0 0 0 1.5 0.5 0.3 0 0 0 0 0 0 0 0 0 0 0 0 0 0 0 1.5 0 0.11
38.168 1.3 -0.01 49.08 -0.13 0.19 0.94 0 0 20 1 -1 0 0 0 21 0 0 0 1210 0.11 0 0 0 0 0 1.5 0.5 0.3 0 0 0 0 0 0 0 0 0 0 0 0 0 0 0 1.5 0 0.11
38.268 1.29 -0.01 49.15 -0.06 0.19 1.06 0 0 21 1 -1 0 0 0 20 0 0 0 1208 0.12 0 0 0 0 0 1.5 0.5 0.3 0 0 0 0 0 0 0 0 0 0 0 0 0 0 0 1.5 0 0.11
38.368 1.3 -0.01 49.19 -0.13 0.19 0.94 0 0 21 2 0 0 0 0 20 0 0 0 1204 0.14 0 0 0 0 0 1.5 0.5 0.3 0 0 0 0 0 0 0 0 0 0 0 0 0 0 0 1.5 0 0.11
38.468 1.3 -0.01 49.24 -0.06 0.19 0.88 0 0 21 2 -1 0 0 0 20 0 0 0 1205 0.14 0 0 0 0 0 1.5 0.5 0.3 0 0 0 0 0 0 0 0 0 0 0 0 0 0 0 1.5 0 0.11
38.568 1.3 -0.01 49.22 -0.06 0.13 1 0 0 21 1 -1 0 0 0 21 0 0 0 1210 0.14 0 0 0 0 0 1.5 0.5 0.3 0 0 0 0 0 0 0 0 0 0 0 0 0 0 0 1.5 0 0.11
38.668 1.3 -0.02 49.25 -0.06 0.13 0.94 0 0 20 1 -1 0 0 0 20 0 0 0 1209 0.14 0 0 0 0 0 1.5 0.5 0.3 0 0 0 0 0 0 0 0 0 0 0 0 0 0 0 1.5 0 0.11
38.768 1.3 -0.02 49.26 0 0.25 1 0 0 20 1 -1 0 0 0 21 0 0 0 1211 0.14 0 0 0 0 0 1.5 0.5 0.3 0 0 0 0 0 0 0 0 0 0 0 0 0 0 0 1.5 0 0.11
38.868 1.3 -0.02 49.22 -0.13 0.19 1.06 0 0 20 2 -1 0 0 0 21 0 0 0 1211 0.14 0 0 0 0 0 1.5 0.5 0.3 0 0 0 0 0 0 0 0 0 0 0 0 0 0 0 1.5 0 0.11
38.968 1.3 -0.02 49.24 -0.13 0.13 0.94 0 0 20 3 -1 0 0 0 20 0 0 0 1206 0.15 0 0 0 0 0 1.5 0.5 0.3 0 0 0 0 0 0 0 0 0 0 0 0 0 0 0 1.5 0 0.11
39.068 1.31 -0.02 49.27 -0.13 0.19 0.94 0 0 21 1 -1 0 0 0 21 0 0 0 1211 0.15 0 0 0 0 0 1.5 0.5 0.3 0 0 0 0 0 0 0 0 0 0 0 0 0 0 0 1.5 0 0.11
39.169 1.3 -0.02 49.33 -0.13 0.13 1 0 0 20 0 -1 0 0 0 21 0 0 0 1211 0.16 0 0 0 0 0 1.5 0.5 0.3 0 0 0 0 0 0 0 0 0 0 0 0 0 0 0 1.5 0 0.11
39.268 1.3 -0.02 49.27 -0.13 0.19 1 0 0 20 2 -2 0 0 0 20 0 0 0 1208 0.16 0 0 0 0 0 1.5 0.5 0.3 0 0 0 0 0 0 0 0 0 0 0 0 0 0 0 1.5 0 0.11
39.368 1.3 -0.02 49.31 -0.06 0.19 0.94 0 0 20 2 -2 0 0 0 21 0 0 0 1210 0.17 0 0 0 0 0 1.5 0.5 0.3 0 0 0 0 0 0 0 0 0 0 0 0 0 0 0 1.5 0 0.11
39.468 1.3 -0.02 49.33 -0.06 0.25 0.94 0 0 20 1 -1 0 0 0 21 0 0 0 1211 0.17 0 0 0 0 0 1.5 0.5 0.3 0 0 0 0 0 0 0 0 0 0 0 0 0 0 0 1.5 0 0.11
39.568 1.31 -0.02 49.37 -0.06 0.19 1.06 0 0 21 1 -1 0 0 0 21 0 0 0 1212 0.17 0 0 0 0 0 1.5 0.5 0.3 0 0 0 0 0 0 0 0 0 0 0 0 0 0 0 1.5 0 0.11
39.668 1.31 -0.02 49.38 -0.13 0.13 1 0 0 21 2 -1 0 0 0 20 0 0 0 1207 0.18 0 0 0 0 0 1.5 0.5 0.3 0 0 0 0 0 0 0 0 0 0 0 0 0 0 0 1.5 0 0.11
39.768 1.31 -0.02 49.44 -0.06 0.25 1 0 0 21 1 -1 0 0 0 21 0 0 0 1211 0.18 0 0 0 0 0 1.5 0.5 0.3 0 0 0 0 0 0 0 0 0 0 0 0 0 0 0 1.5 0 0.11
39.869 1.31 -0.02 49.46 -0.06 0.19 1.06 0 0 21 2 -1 0 0 0 21 0 0 0 1211 0.18 0 0 0 0 0 1.5 0.5 0.3 0 0 0 0 0 0 0 0 0 0 0 0 0 0 0 1.5 0 0.11
39.969 1.31 -0.02 49.49 -0.06 0.13 0.94 0 0 21 1 -2 0 0 0 21 0 0 0 1212 0.18 0 0 0 0 0 1.5 0.5 0.3 0 0 0 0 0 0 0 0 0 0 0 0 0 0 0 1.5 0 0.11
40.069 1.3 -0.02 49.38 -0.13 0.19 1 0 0 21 2 -1 0 0 0 21 0 0 0 1210 0.18 0 0 0 0 0 1.5 0.5 0.3 0 0 0 0 0 0 0 0 0 0 0 0 0 0 0 1.5 0 0.11
40.17 1.3 -0.01 49.36 -0.13 0.19 1 0 0 21 2 -1 0 0 0 20 0 0 0 1208 0.18 0 0 0 0 0 1.5 0.5 0.3 0 0 0 0 0 0 0 0 0 0 0 0 0 0 0 1.5 0 0.11
40.27 1.3 -0.01 49.32 -0.13 0.13 0.94 0 0 20 2 -1 0 0 0 20 0 0 0 1208 0.19 0 0 0 0 0 1.5 0.5 0.3 0 0 0 0 0 0 0 0 0 0 0 0 0 0 0 1.5 0 0.11
40.369 1.31 -0.01 49.27 -0.06 0.13 1 0 0 21 1 -1 0 0 0 21 0 0 0 1211 0.19 0 0 0 0 0 1.5 0.5 0.3 0 0 0 0 0 0 0 0 0 0 0 0 0 0 0 1.5 0 0.11
40.469 1.31 -0.01 49.28 -0.13 0.19 0.94 0 0 20 2 -1 0 0 0 20 0 0 0 1209 0.19 0 0 0 0 0 1.5 0.5 0.3 0 0 0 0 0 0 0 0 0 0 0 0 0 0 0 1.5 0 0.11
40.569 1.3 -0.01 49.21 -0.13 0.19 0.94 0 0 20 2 -1 0 0 0 20 0 0 0 1207 0.19 0 0 0 0 0 1.5 0.5 0.3 0 0 0 0 0 0 0 0 0 0 0 0 0 0 0 1.5 0 0.11
40.669 1.3 -0.01 49.23 -0.06 0.19 0.94 0 0 20 1 -1 0 0 0 20 0 0 0 1209 0.19 0 0 0 0 0 1.5 0.5 0.3 0 0 0 0 0 0 0 0 0 0 0 0 0 0 0 1.5 0 0.11
40.77 1.3 -0.01 49.21 -0.06 0.19 1 0 0 20 0 -2 0 0 0 21 0 0 0 1219 0.19 0 0 0 0 0 1.5 0.5 0.3 0 0 0 0 0 0 0 0 0 0 0 0 0 0 0 1.5 0 0.11
40.869 1.3 -0.02 49.17 -0.13 0.19 1 0 0 21 1 -1 0 0 0 21 0 0 0 1214 0.2 0 0 0 0 0 1.5 0.5 0.3 0 0 0 0 0 0 0 0 0 0 0 0 0 0 0 1.5 0 0.11
40.969 1.3 -0.01 49.04 -0.13 0.25 0.94 0 0 21 2 -1 0 0 0 20 0 0 0 1208 0.2 0 0 0 0 0 1.5 0.5 0.3 0 0 0 0 0 0 0 0 0 0 0 0 0 0 0 1.5 0 0.11
41.069 1.3 -0.01 49.1 -0.13 0.13 0.94 0 0 20 2 -1 0 0 0 20 0 0 0 1209 0.2 0 0 0 0 0 1.5 0.5 0.3 0 0 0 0 0 0 0 0 0 0 0 0 0 0 0 1.5 0 0.11
41.17 1.3 -0.01 49.06 -0.13 0.13 1 0 0 20 2 -1 0 0 0 20 0 0 0 1209 0.2 0 0 0 0 0 1.5 0.5 0.3 0 0 0 0 0 0 0 0 0 0 0 0 0 0 0 1.5 0 0.11
41.27 1.3 -0.01 49.1 -0.13 0.19 0.94 0 0 20 2 -1 0 0 0 20 0 0 0 1208 0.2 0 0 0 0 0 1.5 0.5 0.3 0 0 0 0 0 0 0 0 0 0 0 0 0 0 0 1.5 0 0.11
41.37 1.3 -0.02 49.11 -0.06 0.19 1 0 0 21 2 -1 0 0 0 21 0 0 0 1210 0.2 0 0 0 0 0 1.5 0.5 0.3 0 0 0 0 0 0 0 0 0 0 0 0 0 0 0 1.5 0 0.11
41.469 1.3 -0.02 49.16 -0.06 0.19 1.06 0 0 20 0 -2 0 0 0 21 0 0 0 1212 0.2 0 0 0 0 0 1.5 0.5 0.3 0 0 0 0 0 0 0 0 0 0 0 0 0 0 0 1.5 0 0.11
41.57 1.3 -0.01 49.13 -0.06 0.25 1 0 0 21 2 0 0 0 0 20 0 0 0 1205 0.2 0 0 0 0 0 1.5 0.5 0.3 0 0 0 0 0 0 0 0 0 0 0 0 0 0 0 1.5 0 0.11
41.669 1.3 -0.01 49.16 -0.06 0.19 1 0 0 20 2 -1 0 0 0 20 0 0 0 1209 0.2 0 0 0 0 0 1.5 0.5 0.3 0 0 0 0 0 0 0 0 0 0 0 0 0 0 0 1.5 0 0.11
41.77 1.3 -0.02 49.21 -0.13 0.19 0.94 0 0 20 2 -1 0 0 0 20 0 0 0 1208 0.2 0 0 0 0 0 1.5 0.5 0.3 0 0 0 0 0 0 0 0 0 0 0 0 0 0 0 1.5 0 0.11
41.87 1.3 -0.01 49.21 -0.06 0.19 1 0 0 21 1 -2 0 0 0 21 0 0 0 1217 0.2 0 0 0 0 0 1.5 0.5 0.3 0 0 0 0 0 0 0 0 0 0 0 0 0 0 0 1.5 0 0.11
41.97 1.3 -0.01 49.28 -0.13 0.19 0.94 0 0 20 1 -2 0 0 0 20 0 0 0 1209 0.2 0 0 0.02 0 0 1.5 0.5 0.3 0 0 0 0 0 0 0 0 0 0 0 0 0 0 0 1.5 0 0.11
42.07 1.3 -0.01 49.27 -0.13 0.13 1 0 0 21 2 -1 0 0 0 21 0 0 0 1211 0.2 0 0 0.03 0 0 1.5 0.5 0.3 0 0 0 0 0 0 0 0 0 0 0 0 0 0 0 1.5 0 0.11
42.17 1.3 -0.01 49.32 -0.06 0.19 1.06 0 0 21 2 0 0 0 0 20 0 0 0 1209 0.2 0 0 0.05 0 0 1.5 0.5 0.3 0 0 0 0 0 0 0 0 0 0 0 0 0 0 0 1.5 0 0.11
42.27 1.3 -0.01 49.35 -0.13 0.25 1 0 0 21 2 -1 0 0 0 20 0 0 0 1209 0.2 0 0 0.06 0 0 1.5 0.5 0.3 0 0 0 0 0 0 0 0 0 0 0 0 0 0 0 1.5 0 0.11
42.37 1.31 -0.01 49.35 -0.06 0.19 0.94 0 0 21 2 -1 0 0 0 20 0 0 0 1204 0.2 0 0 0.08 0 0 1.5 0.5 0.3 0 0 0 0 0 0 0 0 0 0 0 0 0 0 0 1.5 0 0.11
42.47 1.31 -0.01 49.35 -0.13 0.19 1 0 0 20 2 -2 0 0 0 21 0 0 0 1210 0.2 0 0 0.1 0 0 1.5 0.5 0.3 0 0 0 0 0 0 0 0 0 0 0 0 0 0 0 1.5 0 0.11
42.569 1.3 -0.01 49.32 -0.13 0.25 0.94 0 0 21 2 -1 0 0 0 20 0 0 0 1205 0.2 0 0 0.11 0 0 1.5 0.5 0.3 0 0 0 0 0 0 0 0 0 0 0 0 0 0 0 1.5 0 0.11
42.67 1.3 -0.01 49.33 -0.06 0.19 0.94 0 0 21 1 0 0 0 0 21 0 0 0 1211 0.2 0 0 0.13 0 0 1.5 0.5 0.3 0 0 0 0 0 0 0 0 0 0 0 0 0 0 0 1.5 0 0.11
42.77 1.31 -0.01 49.37 -0.06 0.19 1 0 0 21 3 -1 0 0 0 20 0 0 0 1209 0.2 0 0 0.14 0 0 1.5 0.5 0.3 0 0 0 0 0 0 0 0 0 0 0 0 0 0 0 1.5 0 0.11
42.87 1.31 -0.01 49.43 -0.06 0.19 0.94 0 0 21 1 -1 0 0 0 21 0 0 0 1213 0.2 0 0 0.16 0 0 1.5 0.5 0.3 0 0 0 0 0 0 0 0 0 0 0 0 0 0 0 1.5 0 0.11
42.97 1.31 -0.01 49.49 -0.06 0.13 1 0 0 21 2 -1 0 0 0 20 0 0 0 1208 0.2 0 0 0.17 0 0 1.5 0.5 0.3 0 0 0 0 0 0 0 0 0 0 0 0 0 0 0 1.5 0 0.11
43.07 1.31 -0.01 49.47 -0.13 0.13 0.94 0 0 20 1 -1 0 0 0 21 0 0 0 1210 0.2 0 0 0.17 0 0 1.5 0.5 0.3 0 0 0 0 0 0 0 0 0 0 0 0 0 0 0 1.5 0 0.11
43.17 1.31 -0.01 49.44 -0.06 0.13 1 0 0 20 2 -1 0 0 0 20 0 0 0 1207 0.2 0 0 0.18 0 0 1.5 0.5 0.3 0 0 0 0 0 0 0 0 0 0 0 0 0 0 0 1.5 0 0.11
43.27 1.31 -0.01 49.37 -0.06 0.19 0.94 0 0 21 2 -1 0 0 0 20 0 0 0 1208 0.2 0 0 0.19 0 0 1.5 0.5 0.3 0 0 0 0 0 0 0 0 0 0 0 0 0 0 0 1.5 0 0.11
43.37 1.31 -0.01 49.41 -0.06 0.25 1 0 0 20 1 -1 0 0 0 21 0 0 0 1213 0.2 0 0 0.19 0 0 1.5 0.5 0.3 0 0 0 0 0 0 0 0 0 0 0 0 0 0 0 1.5 0 0.11
43.47 1.31 -0.01 49.39 -0.19 0.19 0.88 0 0 20 2 -1 0 0 0 20 0 0 0 1209 0.2 0 0 0.2 0 0 1.5 0.5 0.3 0 0 0 0 0 0 0 0 0 0 0 0 0 0 0 1.5 0 0.11
43.57 1.31 -0.01 49.35 -0.06 0.19 0.94 0 0 20 2 -1 0 0 0 21 0 0 0 1213 0.2 0 0 0.2 0 0 1.5 0.5 0.3 0 0 0 0 0 0 0 0 0 0 0 0 0 0 0 1.5 0 0.11
43.67 1.31 -0.01 49.38 -0.13 0.19 0.94 0 0 20 2 -1 0 0 0 20 0 0 0 1208 0.2 0 0 0.2 0 0 1.5 0.5 0.3 0 0 0 0 0 0 0 0 0 0 0 0 0 0 0 1.5 0 0.11
