time roll pitch yaw roll_d pitch_d yaw_d longitude latitude height roll_t pitch_t yaw_t longitude_t latitude_t height_t roll_signal pitch_signal yaw_signal throttle Kp_r_d Ki_r_d Kd_r_d Kp_p_d Ki_p_d Kd_p_d Kp_y_d Ki_y_d Kd_y_d Kp_r Ki_r Kd_r Kp_p Ki_p Kd_p Kp_y Ki_y Kd_y Kp_lon Ki_lon Kd_lon Kp_lat Ki_lat Kd_lat Kp_h Ki_h Kd_h
0 0 0 0 0 0 0 0 0 0 0 0 0 0 0 25 0 0 0 1250 0.5 0.1 0.3 0.5 0.1 0.3 1.5 0.5 0.3 1.7 0 0 1.7 0 0 0 0 0 0 0 0 0 0 0 1.5 0 0.11
6.798 0.99 -0.21 22.25 0.37 0.19 -0.19 0 0 20 2 -1 0 0 0 21 0 0 0 1210 0.5 0.1 0.3 0.5 0.1 0.3 1.5 0.5 0.3 1.7 0 0 1.7 0 0 0 0 0 0 0 0 0 0 0 1.5 0 0.11
6.898 0.98 -0.21 22.72 -0.44 -0.19 2.56 0 0 20 2 -2 0 0 0 21 0 0 0 1219 0.5 0.1 0.3 0.5 0.1 0.3 1.5 0.5 0.3 1.7 0 0 1.7 0 0 0 0 0 0 0 0 0 0 0 1.5 0 0.11
6.998 0.97 -0.21 23.3 -0.37 0.06 0.25 0 0 19 2 -1 0 0 0 21 0 0 0 1212 0.5 0.1 0.3 0.5 0.1 0.3 1.5 0.5 0.3 1.7 0 0 1.7 0 0 0 0 0 0 0 0 0 0 0 1.5 0 0.11
7.098 0.96 -0.2 23.69 -0.25 0.31 0.69 0 0 20 1 -1 0 0 0 21 0 0 0 1212 0.5 0.1 0.3 0.5 0.1 0.3 1.5 0.5 0.3 1.7 0 0 1.7 0 0 0 0 0 0 0 0 0 0 0 1.5 0 0.11
7.198 0.94 -0.21 24.25 -0.69 -0.81 0.81 0 0 20 2 -1 0 0 0 21 0 0 0 1216 0.5 0.1 0.3 0.5 0.1 0.3 1.5 0.5 0.3 1.7 0 0 1.7 0 0 0 0 0 0 0 0 0 0 0 1.5 0 0.11
7.298 0.94 -0.2 24.62 -1.69 -0.69 0.94 0 0 19 2 0 0 0 0 20 0 0 0 1209 0.5 0.1 0.3 0.5 0.1 0.3 1.5 0.5 0.3 1.7 0 0 1.7 0 0 0 0 0 0 0 0 0 0 0 1.5 0 0.11
7.398 0.94 -0.2 25.11 0.69 1.5 0.37 0 0 20 2 -2 0 0 0 21 0 0 0 1218 0.5 0.1 0.3 0.5 0.1 0.3 1.5 0.5 0.3 1.7 0 0 1.7 0 0 0 0 0 0 0 0 0 0 0 1.5 0 0.11
7.498 0.94 -0.2 25.46 0.75 0.37 1.12 0 0 20 2 -2 0 0 0 21 0 0 0 1217 0.5 0.1 0.3 0.5 0.1 0.3 1.5 0.5 0.3 1.7 0 0 1.7 0 0 0 0 0 0 0 0 0 0 0 1.5 0 0.11
7.598 0.93 -0.21 25.85 -0.25 0.37 0.94 0 0 20 1 -1 0 0 0 21 0 0 0 1214 0.5 0.1 0.3 0.5 0.1 0.3 1.5 0.5 0.3 1.7 0 0 1.7 0 0 0 0 0 0 0 0 0 0 0 1.5 0 0.11
7.698 0.93 -0.21 26.39 0 0.5 1.19 0 0 20 2 0 0 0 0 20 0 0 0 1200 0.5 0.1 0.3 0.5 0.1 0.3 1.5 0.5 0.3 1.7 0 0 1.7 0 0 0 0 0 0 0 0 0 0 0 1.5 0 0.11
7.798 0.93 -0.21 26.81 0.25 0.5 0.94 0 0 20 1 -1 0 0 0 22 0 0 0 1220 0.5 0.1 0.3 0.5 0.1 0.3 1.5 0.5 0.3 1.7 0 0 1.7 0 0 0 0 0 0 0 0 0 0 0 1.5 0 0.11
7.898 0.93 -0.21 27.28 0.19 0.5 1.06 0 0 20 2 0 0 0 0 21 0 0 0 1214 0.5 0.1 0.3 0.5 0.1 0.3 1.5 0.5 0.3 1.7 0 0 1.7 0 0 0 0 0 0 0 0 0 0 0 1.5 0 0.11
7.998 0.93 -0.21 27.66 0.19 0.44 0.94 0 0 20 1 -1 0 0 0 21 0 0 0 1216 0.5 0.1 0.3 0.5 0.1 0.3 1.5 0.5 0.3 1.7 0 0 1.7 0 0 0 0 0 0 0 0 0 0 0 1.5 0 0.11
8.098 0.93 -0.21 28.2 0.06 0.31 1.12 0 0 20 2 0 0 0 0 21 0 0 0 1215 0.5 0.1 0.3 0.5 0.1 0.3 1.5 0.5 0.3 1.7 0 0 1.7 0 0 0 0 0 0 0 0 0 0 0 1.5 0 0.11
8.198 0.93 -0.21 28.56 0.06 0.19 0.88 0 0 20 2 -1 0 0 0 20 0 0 0 1207 0.5 0.1 0.3 0.5 0.1 0.3 1.5 0.5 0.3 1.7 0 0 1.7 0 0 0 0 0 0 0 0 0 0 0 1.5 0 0.11
8.298 0.93 -0.22 29.01 -0.06 0.31 1.06 0 0 20 3 -2 0 0 0 21 0 0 0 1212 0.5 0.1 0.3 0.5 0.1 0.3 1.5 0.5 0.3 1.7 0 0 1.7 0 0 0 0 0 0 0 0 0 0 0 1.5 0 0.11
8.398 0.93 -0.22 29.4 0 0.19 0.94 0 0 20 2 -1 0 0 0 21 0 0 0 1213 0.5 0.1 0.3 0.5 0.1 0.3 1.5 0.5 0.3 1.7 0 0 1.7 0 0 0 0 0 0 0 0 0 0 0 1.5 0 0.11
8.498 0.93 -0.22 29.88 -0.06 0.19 1.06 0 0 20 2 -1 0 0 0 21 0 0 0 1211 0.5 0.1 0.3 0.5 0.1 0.3 1.5 0.5 0.3 1.7 0 0 1.7 0 0 0 0 0 0 0 0 0 0 0 1.5 0 0.11
8.598 0.93 -0.22 30.28 0 0.13 0.94 0 0 19 2 -2 0 0 0 21 0 0 0 1215 0.5 0.1 0.3 0.5 0.1 0.3 1.5 0.5 0.3 1.7 0 0 1.7 0 0 0 0 0 0 0 0 0 0 0 1.5 0 0.11
8.698 0.93 -0.22 30.82 -0.06 0.13 1 0 0 19 2 -1 0 0 0 21 0 0 0 1219 0.5 0.1 0.3 0.5 0.1 0.3 1.5 0.5 0.3 1.7 0 0 1.7 0 0 0 0 0 0 0 0 0 0 0 1.5 0 0.11
8.798 0.93 -0.22 31.2 -0.13 0.19 1.06 0 0 20 2 0 0 0 0 20 0 0 0 1209 0.5 0.1 0.3 0.5 0.1 0.3 1.5 0.5 0.3 1.7 0 0 1.7 0 0 0 0 0 0 0 0 0 0 0 1.5 0 0.11
8.898 0.93 -0.21 31.53 -0.13 0.06 1 0 0 20 2 -1 0 0 0 20 0 0 0 1209 0.5 0.1 0.3 0.5 0.1 0.3 1.5 0.5 0.3 1.7 0 0 1.7 0 0 0 0 0 0 0 0 0 0 0 1.5 0 0.11
8.998 0.93 -0.21 31.94 -0.06 0.06 0.94 0 0 20 2 -1 0 0 0 21 0 0 0 1211 0.5 0.1 0.3 0.5 0.1 0.3 1.5 0.5 0.3 1.7 0 0 1.7 0 0 0 0 0 0 0 0 0 0 0 1.5 0 0.11
9.098 0.93 -0.21 32.29 -0.06 0.13 0.94 0 0 20 1 -2 0 0 0 21 0 0 0 1214 0.38 0 0.45 0.38 0 0.45 1.5 0.5 0.3 1.7 0 0 1.7 0 0 0 0 0 0 0 0 0 0 0 1.5 0 0.11
9.198 0.93 -0.21 32.74 -0.06 0.13 1 0 0 20 0 -1 0 0 0 22 0 0 0 1223 0.38 0 0.45 0.38 0 0.45 1.5 0.5 0.3 1.7 0 0 1.7 0 0 0 0 0 0 0 0 0 0 0 1.5 0 0.11
9.298 0.93 -0.21 33.08 -0.06 0.06 0.88 0 0 20 2 -2 0 0 0 21 0 0 0 1219 0.38 0 0.45 0.38 0 0.45 1.5 0.5 0.3 1.7 0 0 1.7 0 0 0 0 0 0 0 0 0 0 0 1.5 0 0.11
9.398 0.93 -0.21 33.56 -0.06 0.13 1 0 0 20 3 -1 0 0 0 20 0 0 0 1200 0.38 0 0.45 0.38 0 0.45 1.5 0.5 0.3 1.7 0 0 1.7 0 0 0 0 0 0 0 0 0 0 0 1.5 0 0.11
9.498 0.93 -0.21 33.94 0 0.13 1 0 0 19 2 -2 0 0 0 21 0 0 0 1212 0.38 0 0.45 0.38 0 0.45 1.5 0.5 0.3 1.7 0 0 1.7 0 0 0 0 0 0 0 0 0 0 0 1.5 0 0.11
9.598 0.93 -0.21 34.44 -0.19 0.19 1 0 0 19 2 -1 0 0 0 21 0 0 0 1211 0.38 0 0.45 0.38 0 0.45 1.5 0.5 0.3 1.7 0 0 1.7 0 0 0 0 0 0 0 0 0 0 0 1.5 0 0.11
9.698 0.93 -0.21 34.82 -0.06 0.13 1 0 0 19 2 0 0 0 0 21 0 0 0 1214 0.38 0 0.45 0.38 0 0.45 1.5 0.5 0.3 1.7 0 0 1.7 0 0 0 0 0 0 0 0 0 0 0 1.5 0 0.11
9.798 0.93 -0.21 35.29 -0.06 0.13 0.94 0 0 20 2 0 0 0 0 21 0 0 0 1210 0.38 0 0.45 0.38 0 0.45 1.5 0.5 0.3 1.7 0 0 1.7 0 0 0 0 0 0 0 0 0 0 0 1.5 0 0.11
9.898 0.93 -0.21 35.64 -0.13 0.13 1.06 0 0 19 2 -1 0 0 0 22 0 0 0 1226 0.38 0 0.45 0.38 0 0.45 1.5 0.5 0.3 1.7 0 0 1.7 0 0 0 0 0 0 0 0 0 0 0 1.5 0 0.11
9.998 0.93 -0.22 36.08 0 0.13 1 0 0 20 1 -2 0 0 0 22 0 0 0 1221 0.38 0 0.45 0.38 0 0.45 1.5 0.5 0.3 1.7 0 0 1.7 0 0 0 0 0 0 0 0 0 0 0 1.5 0 0.11
10.098 0.92 -0.22 36.43 -0.13 0.06 1 0 0 20 3 -1 0 0 0 21 0 0 0 1213 0.38 0 0.45 0.38 0 0.45 1.5 0.5 0.3 1.7 0 0 1.7 0 0 0 0 0 0 0 0 0 0 0 1.5 0 0.11
10.198 0.92 -0.22 36.85 -0.06 0.19 0.94 0 0 20 2 -1 0 0 0 21 0 0 0 1216 0.38 0 0.45 0.38 0 0.45 1.5 0.5 0.3 1.7 0 0 1.7 0 0 0 0 0 0 0 0 0 0 0 1.5 0 0.11
10.298 0.92 -0.21 37.09 -0.13 0.13 0.94 0 0 20 0 -2 0 0 0 22 0 0 0 1223 0.38 0 0.45 0.38 0 0.45 1.5 0.5 0.3 1.7 0 0 1.7 0 0 0 0 0 0 0 0 0 0 0 1.5 0 0.11
10.398 0.92 -0.21 37.47 0 0.25 0.94 0 0 20 3 -1 0 0 0 21 0 0 0 1214 0.38 0 0.45 0.38 0 0.45 1.5 0.5 0.3 1.7 0 0 1.7 0 0 0 0 0 0 0 0 0 0 0 1.5 0 0.11
10.498 0.92 -0.21 37.77 -0.06 0.19 1 0 0 20 2 -2 0 0 0 21 0 0 0 1217 0.38 0 0.45 0.38 0 0.45 1.5 0.5 0.3 1.7 0 0 1.7 0 0 0 0 0 0 0 0 0 0 0 1.5 0 0.11
10.598 0.92 -0.21 38.02 -0.06 0.25 0.94 0 0 20 2 -1 0 0 0 21 0 0 0 1217 0.38 0 0.45 0.38 0 0.45 1.5 0.5 0.3 1.7 0 0 1.7 0 0 0 0 0 0 0 0 0 0 0 1.5 0 0.11
10.698 0.93 -0.21 38.32 0 0.25 0.94 0 0 20 2 -1 0 0 0 21 0 0 0 1216 0.38 0 0.45 0.38 0 0.45 1.5 0.5 0.3 1.7 0 0 1.7 0 0 0 0 0 0 0 0 0 0 0 1.5 0 0.11
10.798 0.93 -0.21 38.58 0 0.19 1.06 0 0 20 0 -1 0 0 0 22 0 0 0 1221 0.38 0 0.45 0.38 0 0.45 1.5 0.5 0.3 1.7 0 0 1.7 0 0 0 0 0 0 0 0 0 0 0 1.5 0 0.11
10.898 0.92 -0.21 38.87 -0.06 0.13 0.94 0 0 20 1 -1 0 0 0 21 0 0 0 1219 0.38 0 0.45 0.38 0 0.45 1.5 0.5 0.3 1.7 0 0 1.7 0 0 0 0 0 0 0 0 0 0 0 1.5 0 0.11
10.998 0.92 -0.21 39.16 0 0.13 1 0 0 20 3 -1 0 0 0 21 0 0 0 1213 0.38 0 0.45 0.38 0 0.45 1.5 0.5 0.3 1.7 0 0 1.7 0 0 0 0 0 0 0 0 0 0 0 1.5 0 0.11
11.098 0.92 -0.21 39.54 0 0.19 1 0 0 20 2 -1 0 0 0 21 0 0 0 1211 0.38 0 0.45 0.38 0 0.45 1.5 0.5 0.3 1.7 0 0 1.7 0 0 0 0 0 0 0 0 0 0 0 1.5 0 0.11
11.198 0.92 -0.21 39.81 0 0.19 0.94 0 0 20 3 0 0 0 0 21 0 0 0 1210 0.38 0 0.45 0.38 0 0.45 1.5 0.5 0.3 1.7 0 0 1.7 0 0 0 0 0 0 0 0 0 0 0 1.5 0 0.11
11.298 0.92 -0.21 40.14 0 0.25 1 0 0 20 1 -2 0 0 0 21 0 0 0 1214 0.38 0 0.45 0.38 0 0.45 1.5 0.5 0.3 1.7 0 0 1.7 0 0 0 0 0 0 0 0 0 0 0 1.5 0 0.11
11.398 0.92 -0.21 40.43 -0.06 0.13 1 0 0 20 2 -1 0 0 0 21 0 0 0 1216 0.38 0 0.45 0.38 0 0.45 1.5 0.5 0.3 1.7 0 0 1.7 0 0 0 0 0 0 0 0 0 0 0 1.5 0 0.11
11.498 0.92 -0.21 40.77 -0.06 0.19 1.06 0 0 20 1 -3 0 0 0 21 0 0 0 1218 0.38 0 0.45 0.38 0 0.45 1.5 0.5 0.3 1.7 0 0 1.7 0 0 0 0 0 0 0 0 0 0 0 1.5 0 0.11
11.598 0.92 -0.21 41.04 0 0.13 0.94 0 0 20 1 -2 0 0 0 22 0 0 0 1222 0.38 0 0.45 0.38 0 0.45 1.5 0.5 0.3 1.7 0 0 1.7 0 0 0 0 0 0 0 0 0 0 0 1.5 0 0.11
11.698 0.92 -0.21 41.33 -0.06 0.19 0.94 0 0 20 2 -2 0 0 0 21 0 0 0 1219 0.38 0 0.45 0.38 0 0.45 1.5 0.5 0.3 1.7 0 0 1.7 0 0 0 0 0 0 0 0 0 0 0 1.5 0 0.11
11.798 0.93 -0.21 41.57 0 0.13 1.06 0 0 20 0 -1 0 0 0 21 0 0 0 1215 0.38 0 0.45 0.38 0 0.45 1.5 0.5 0.3 1.7 0 0 1.7 0 0 0 0 0 0 0 0 0 0 0 1.5 0 0.11
11.898 0.93 -0.21 41.85 -0.06 0.19 1 0 0 20 2 -1 0 0 0 21 0 0 0 1213 0.38 0 0.45 0.38 0 0.45 1.5 0.5 0.3 1.7 0 0 1.7 0 0 0 0 0 0 0 0 0 0 0 1.5 0 0.11
11.998 0.93 -0.2 42.11 0 0.25 0.88 0 0 20 3 -1 0 0 0 21 0 0 0 1214 0.38 0 0.45 0.38 0 0.45 1.5 0.5 0.3 1.7 0 0 1.7 0 0 0 0 0 0 0 0 0 0 0 1.5 0 0.11
12.098 0.93 -0.2 42.33 0 0.19 1 0 0 20 3 -3 0 0 0 20 0 0 0 1206 0.38 0 0.45 0.38 0 0.45 1.5 0.5 0.3 1.7 0 0 1.7 0 0 0 0 0 0 0 0 0 0 0 1.5 0 0.11
12.198 0.93 -0.2 42.55 0 0.19 1 0 0 19 1 0 0 0 0 22 0 0 0 1220 0.38 0 0.45 0.38 0 0.45 1.5 0.5 0.3 2 0.02 0 2 0.05 0 0 0 0 0 0 0 0 0 0 1.5 0 0.11
12.298 0.93 -0.2 42.84 -0.06 0.25 0.94 0 0 20 2 -1 0 0 0 21 0 0 0 1219 0.38 0 0.45 0.38 0 0.45 1.5 0.5 0.3 2 0.02 0 2 0.05 0 0 0 0 0 0 0 0 0 0 1.5 0 0.11
12.398 0.93 -0.2 43.17 -0.13 0.19 1 0 0 20 0 0 0 0 0 21 0 0 0 1216 0.38 0 0.45 0.38 0 0.45 1.5 0.5 0.3 2 0.02 0 2 0.05 0 0 0 0 0 0 0 0 0 0 1.5 0 0.11
12.498 0.93 -0.2 43.35 0 0.19 1 0 0 19 1 -2 0 0 0 22 0 0 0 1221 0.38 0 0.45 0.38 0 0.45 1.5 0.5 0.3 2 0.02 0 2 0.05 0 0 0 0 0 0 0 0 0 0 1.5 0 0.11
12.598 0.92 -0.2 43.55 -0.06 0.19 1 0 0 19 3 -2 0 0 0 20 0 0 0 1202 0.38 0 0.45 0.38 0 0.45 1.5 0.5 0.3 2 0.02 0 2 0.05 0 0 0 0 0 0 0 0 0 0 1.5 0 0.11
12.698 0.92 -0.2 43.76 -0.06 0.13 1 0 0 20 2 -1 0 0 0 21 0 0 0 1210 0.38 0 0.45 0.38 0 0.45 1.5 0.5 0.3 2 0.02 0 2 0.05 0 0 0 0 0 0 0 0 0 0 1.5 0 0.11
12.798 0.92 -0.2 43.97 0 0.19 1 0 0 19 1 -1 0 0 0 21 0 0 0 1213 0.38 0 0.45 0.38 0 0.45 1.5 0.5 0.3 2 0.02 0 2 0.05 0 0 0 0 0 0 0 0 0 0 1.5 0 0.11
12.898 0.92 -0.2 44.18 -0.06 0.13 0.94 0 0 20 1 -1 0 0 0 21 0 0 0 1212 0.38 0 0.45 0.38 0 0.45 1.5 0.5 0.3 2 0.02 0 2 0.05 0 0 0 0 0 0 0 0 0 0 1.5 0 0.11
12.998 0.92 -0.2 44.41 0 0.19 1 0 0 20 2 -2 0 0 0 21 0 0 0 1214 0.38 0 0.45 0.38 0 0.45 1.5 0.5 0.3 2 0.02 0 2 0.05 0 0 0 0 0 0 0 0 0 0 1.5 0 0.11
13.098 0.91 -0.2 44.6 0 0.25 0.94 0 0 20 2 -2 0 0 0 21 0 0 0 1219 0.38 0 0.45 0.38 0 0.45 1.5 0.5 0.3 2 0.02 0 2 0.05 0 0 0 0 0 0 0 0 0 0 1.5 0 0.11
13.198 0.91 -0.2 44.86 -0.06 0.13 1 0 0 20 1 -2 0 0 0 21 0 0 0 1218 0.38 0 0.45 0.38 0 0.45 1.5 0.5 0.3 2 0.02 0 2 0.05 0 0 0 0 0 0 0 0 0 0 1.5 0 0.11
13.298 0.91 -0.19 45.03 0 0.19 0.94 0 0 20 1 -2 0 0 0 21 0 0 0 1214 0.38 0 0.45 0.38 0 0.45 1.5 0.5 0.3 2 0.02 0 2 0.05 0 0 0 0 0 0 0 0 0 0 1.5 0 0.11
13.398 0.91 -0.2 45.2 0 0.13 0.94 0 0 20 2 -2 0 0 0 21 0 0 0 1213 0.38 0 0.45 0.38 0 0.45 1.5 0.5 0.3 2 0.02 0 2 0.05 0 0 0 0 0 0 0 0 0 0 1.5 0 0.11
13.498 0.91 -0.2 45.4 -0.06 0.13 1.06 0 0 20 2 -1 0 0 0 21 0 0 0 1215 0.38 0 0.45 0.38 0 0.45 1.5 0.5 0.3 2 0.02 0 2 0.05 0 0 0 0 0 0 0 0 0 0 1.5 0 0.11
13.598 0.91 -0.2 45.55 -0.06 0.19 0.94 0 0 20 3 -1 0 0 0 21 0 0 0 1212 0.38 0 0.45 0.38 0 0.45 1.5 0.5 0.3 2 0.02 0 2 0.05 0 0 0 0 0 0 0 0 0 0 1.5 0 0.11
13.698 0.91 -0.2 45.79 -0.06 0.13 1 0 0 20 2 -2 0 0 0 21 0 0 0 1217 0.38 0 0.45 0.38 0 0.45 1.5 0.5 0.3 2 0.02 0 2 0.05 0 0 0 0 0 0 0 0 0 0 1.5 0 0.11
13.798 0.91 -0.2 45.94 -0.13 0.19 1.06 0 0 20 2 -1 0 0 0 21 0 0 0 1212 0.38 0 0.45 0.38 0 0.45 1.5 0.5 0.3 2 0.02 0 2 0.05 0 0 0 0 0 0 0 0 0 0 1.5 0 0.11
13.898 0.91 -0.2 46.09 0 0.19 1 0 0 20 1 -1 0 0 0 21 0 0 0 1219 0.38 0 0.45 0.38 0 0.45 1.5 0.5 0.3 2 0.02 0 2 0.05 0 0 0 0 0 0 0 0 0 0 1.5 0 0.11
13.998 0.91 -0.2 46.25 -0.06 0.13 0.94 0 0 19 3 -1 0 0 0 21 0 0 0 1210 0.38 0 0.45 0.38 0 0.45 1.5 0.5 0.3 2 0.02 0 2 0.05 0 0 0 0 0 0 0 0 0 0 1.5 0 0.11
14.098 0.91 -0.2 46.34 -0.13 0.19 1 0 0 19 1 -1 0 0 0 21 0 0 0 1214 0.38 0 0.45 0.38 0 0.45 1.5 0.5 0.3 2 0.02 0 2 0.05 0 0 0 0 0 0 0 0 0 0 1.5 0 0.11
14.198 0.91 -0.2 46.41 -0.06 0.19 1 0 0 20 2 -2 0 0 0 21 0 0 0 1215 0.38 0 0.45 0.38 0 0.45 1.5 0.5 0.3 2 0.02 0 2 0.05 0 0 0 0 0 0 0 0 0 0 1.5 0 0.11
14.298 0.91 -0.2 46.46 -0.13 0.19 0.94 0 0 20 1 -1 0 0 0 21 0 0 0 1213 0.38 0 0.45 0.38 0 0.45 1.5 0.5 0.3 2 0.02 0 2 0.05 0 0 0 0 0 0 0 0 0 0 1.5 0 0.11
14.398 0.91 -0.2 46.63 0 0.13 1 0 0 20 2 -1 0 0 0 20 0 0 0 1209 0.38 0 0.45 0.38 0 0.45 1.5 0.5 0.3 2 0.02 0 2 0.05 0 0 0 0 0 0 0 0 0 0 1.5 0 0.11
14.506 0.92 -0.2 46.75 -0.13 0.19 1 0 0 20 0 -1 0 0 0 21 0 0 0 1217 0.38 0 0.45 0.38 0 0.45 1.5 0.5 0.3 2 0.02 0 2 0.05 0 0 0 0 0 0 0 0 0 0 1.5 0 0.11
14.598 0.92 -0.19 46.83 -0.06 0.19 1 0 0 20 2 0 0 0 0 20 0 0 0 1209 0.38 0 0.45 0.38 0 0.45 1.5 0.5 0.3 2 0.02 0 2 0.05 0 0 0 0 0 0 0 0 0 0 1.5 0 0.11
14.698 0.92 -0.19 46.93 -0.06 0.13 1 0 0 20 2 0 0 0 0 21 0 0 0 1214 0.38 0 0.45 0.38 0 0.45 1.5 0.5 0.3 2 0.02 0 2 0.05 0 0 0 0 0 0 0 0 0 0 1.5 0 0.11
14.798 0.91 -0.19 47.09 0 0.19 1 0 0 20 2 -1 0 0 0 21 0 0 0 1212 0.38 0 0.45 0.38 0 0.45 1.5 0.5 0.3 2 0.02 0 2 0.05 0 0 0 0 0 0 0 0 0 0 1.5 0 0.11
14.898 0.92 -0.19 47.25 -0.06 0.19 0.94 0 0 19 2 -2 0 0 0 21 0 0 0 1210 0.38 0 0.45 0.38 0 0.45 1.5 0.5 0.3 2 0.02 0 2 0.05 0 0 0 0 0 0 0 0 0 0 1.5 0 0.11
14.998 0.92 -0.19 47.38 -0.06 0.19 1 0 0 20 1 -1 0 0 0 21 0 0 0 1211 0.38 0 0.45 0.38 0 0.45 1.5 0.5 0.3 2 0.02 0 2 0.05 0 0 0 0 0 0 0 0 0 0 1.5 0 0.11
15.098 0.92 -0.19 47.48 0 0.19 1.06 0 0 20 2 -1 0 0 0 21 0 0 0 1218 0.38 0 0.45 0.38 0 0.45 1.5 0.5 0.3 2 0.02 0 2 0.05 0 0 0 0 0 0 0 0 0 0 1.5 0 0.11
15.198 0.92 -0.19 47.6 -0.13 0.19 1 0 0 20 2 -2 0 0 0 21 0 0 0 1217 0.38 0 0.45 0.38 0 0.45 1.5 0.5 0.3 2 0.02 0 2 0.05 0 0 0 0 0 0 0 0 0 0 1.5 0 0.11
15.298 0.93 -0.19 47.74 -0.06 0.13 1 0 0 20 2 -2 0 0 0 21 0 0 0 1217 0.38 0 0.45 0.38 0 0.45 1.5 0.5 0.3 2 0.02 0 2 0.05 0 0 0 0 0 0 0 0 0 0 1.5 0 0.11
15.398 0.93 -0.19 47.85 0 0.19 0.94 0 0 20 2 -2 0 0 0 21 0 0 0 1210 0.38 0 0.45 0.38 0 0.45 1.5 0.5 0.3 2 0.02 0 2 0.05 0 0 0 0 0 0 0 0 0 0 1.5 0 0.11
15.498 0.93 -0.19 47.98 -0.06 0.13 1 0 0 19 1 -2 0 0 0 21 0 0 0 1212 0.38 0 0.45 0.38 0 0.45 1.5 0.5 0.3 2 0.02 0 2 0.05 0 0 0 0 0 0 0 0 0 0 1.5 0 0.11
15.598 0.93 -0.19 48.07 -0.06 0.19 1 0 0 19 1 0 0 0 0 21 0 0 0 1211 0.38 0 0.45 0.38 0 0.45 1.5 0.5 0.3 2 0.02 0 2 0.05 0 0 0 0 0 0 0 0 0 0 1.5 0 0.11
15.698 0.93 -0.19 48.14 0 0.19 1.06 0 0 19 1 0 0 0 0 21 0 0 0 1213 0.38 0 0.45 0.38 0 0.45 1.5 0.5 0.3 2 0.02 0 2 0.05 0 0 0 0 0 0 0 0 0 0 1.5 0 0.11
15.798 0.93 -0.19 48.26 0 0.13 1 0 0 20 0 -1 0 0 0 22 0 0 0 1226 0.38 0 0.45 0.38 0 0.45 1.5 0.5 0.3 2 0.02 0 2 0.05 0 0 0 0 0 0 0 0 0 0 1.5 0 0.11
15.898 0.93 -0.19 48.37 -0.06 0.19 0.94 0 0 19 0 -2 0 0 0 22 0 0 0 1221 0.38 0 0.45 0.38 0 0.45 1.5 0.5 0.3 2 0.02 0 2 0.05 0 0 0 0 0 0 0 0 0 0 1.2 0 0.05
15.998 0.93 -0.19 48.52 0 0.19 1 0 0 20 1 -1 0 0 0 21 0 0 0 1218 0.38 0 0.45 0.38 0 0.45 1.5 0.5 0.3 2 0.02 0 2 0.05 0 0 0 0 0 0 0 0 0 0 1.2 0 0.05
16.098 0.93 -0.19 48.58 0 0.19 1.06 0 0 20 2 -1 0 0 0 21 0 0 0 1212 0.38 0 0.45 0.38 0 0.45 1.5 0.5 0.3 2 0.02 0 2 0.05 0 0 0 0 0 0 0 0 0 0 1.2 0 0.05
16.198 0.93 -0.2 48.69 -0.13 0.19 0.94 0 0 20 3 0 0 0 0 21 0 0 0 1212 0.38 0 0.45 0.38 0 0.45 1.5 0.5 0.3 2 0.02 0 2 0.05 0 0 0 0 0 0 0 0 0 0 1.2 0 0.05
16.298 0.93 -0.2 48.87 -0.06 0.19 1 0 0 20 1 -1 0 0 0 21 0 0 0 1214 0.38 0 0.45 0.38 0 0.45 1.5 0.5 0.3 2 0.02 0 2 0.05 0 0 0 0 0 0 0 0 0 0 1.2 0 0.05
16.398 0.93 -0.2 49.08 -0.06 0.25 1 0 0 20 2 -1 0 0 0 21 0 0 0 1215 0.38 0 0.45 0.38 0 0.45 1.5 0.5 0.3 2 0.02 0 2 0.05 0 0 0 0 0 0 0 0 0 0 1.2 0 0.05
16.498 0.93 -0.19 49.21 0 0.19 1 0 0 20 2 0 0 0 0 20 0 0 0 1209 0.38 0 0.45 0.38 0 0.45 1.5 0.5 0.3 2 0.02 0 2 0.05 0 0 0 0 0 0 0 0 0 0 1.2 0 0.05
16.598 0.93 -0.19 49.33 -0.06 0.19 0.94 0 0 20 1 -1 0 0 0 21 0 0 0 1218 0.38 0 0.45 0.38 0 0.45 1.5 0.5 0.3 2 0.02 0 2 0.05 0 0 0 0 0 0 0 0 0 0 1.2 0 0.05
16.698 0.93 -0.19 49.42 -0.06 0.13 0.94 0 0 20 2 -1 0 0 0 21 0 0 0 1213 0.38 0 0.45 0.38 0 0.45 1.5 0.5 0.3 2 0.02 0 2 0.05 0 0 0 0 0 0 0 0 0 0 1.2 0 0.05
16.798 0.93 -0.19 49.57 -0.06 0.25 1.06 0 0 20 1 -2 0 0 0 21 0 0 0 1214 0.38 0 0.45 0.38 0 0.45 1.5 0.5 0.3 2 0.02 0 2 0.05 0 0 0 0 0 0 0 0 0 0 1.2 0 0.05
16.898 0.93 -0.19 49.65 -0.13 0.13 1.06 0 0 20 2 -1 0 0 0 21 0 0 0 1216 0.38 0 0.45 0.38 0 0.45 1.5 0.5 0.3 2 0.02 0 2 0.05 0 0 0 0 0 0 0 0 0 0 1.2 0 0.05
16.998 0.93 -0.19 49.75 -0.06 0.25 1 0 0 20 2 -2 0 0 0 21 0 0 0 1215 0.38 0 0.45 0.38 0 0.45 1.5 0.5 0.3 2 0.02 0 2 0.05 0 0 0 0 0 0 0 0 0 0 1.2 0 0.05
17.098 0.93 -0.19 49.78 -0.13 0.19 0.94 0 0 20 2 -2 0 0 0 21 0 0 0 1212 0.38 0 0.45 0.38 0 0.45 1.5 0.5 0.3 2 0.02 0 2 0.05 0 0 0 0 0 0 0 0 0 0 1.2 0 0.05
17.198 0.93 -0.19 49.88 0 0.13 1.06 0 0 20 2 0 0 0 0 21 0 0 0 1211 0.38 0 0.45 0.38 0 0.45 1.5 0.5 0.3 2 0.02 0 2 0.05 0 0 0 0 0 0 0 0 0 0 1.2 0 0.05
17.198 0.93 -0.19 49.88 0 0.13 1.06 0 0 20 2 0 0 0 0 21 0 0 0 1211 0.38 0 0.45 0.38 0 0.45 1.5 0.5 0.3 2 0.02 0 2 0.05 0 0 0 0 0 0 0 0 0 0 1.2 0 0.05
17.398 0.93 -0.19 50.03 -0.06 0.19 1 0 0 20 2 -1 0 0 0 21 0 0 0 1215 0.38 0 0.45 0.38 0 0.45 1.5 0.5 0.3 2 0.02 0 2 0.05 0 0 0 0 0 0 0 0 0 0 1.2 0 0.05
17.498 0.93 -0.19 50.16 -0.13 0.13 1 0 0 20 2 0 0 0 0 21 0 0 0 1212 0.38 0 0.45 0.38 0 0.45 1.5 0.5 0.3 2 0.02 0 2 0.05 0 0 0 0 0 0 0 0 0 0 1.2 0 0.05
17.598 0.93 -0.19 50.21 0 0.25 1 0 0 19 2 -1 0 0 0 21 0 0 0 1212 0.38 0 0.45 0.38 0 0.45 1.5 0.5 0.3 2 0.02 0 2 0.05 0 0 0 0 0 0 0 0 0 0 1.2 0 0.05
17.698 0.94 -0.18 50.23 -0.06 0.19 1 0 0 20 2 -1 0 0 0 21 0 0 0 1210 0.38 0 0.45 0.38 0 0.45 1.5 0.5 0.3 2 0.02 0 2 0.05 0 0 0 0 0 0 0 0 0 0 1.2 0 0.05
17.798 0.93 -0.18 50.31 0 0.13 1 0 0 20 2 -2 0 0 0 21 0 0 0 1215 0.38 0 0.45 0.38 0 0.45 1.5 0.5 0.3 2 0.02 0 2 0.05 0 0 0 0 0 0 0 0 0 0 1.2 0 0.05
17.898 0.93 -0.18 50.44 -0.06 0.25 0.94 0 0 20 1 -1 0 0 0 21 0 0 0 1216 0.38 0 0.45 0.38 0 0.45 1.5 0.5 0.3 2 0.02 0 2 0.05 0 0 0 0 0 0 0 0 0 0 1.2 0 0.05
17.998 0.93 -0.18 50.48 -0.13 0.19 1 0 0 20 0 0 0 0 0 21 0 0 0 1214 0.38 0 0.45 0.38 0 0.45 1.5 0.5 0.3 2 0.02 0 2 0.05 0 0 0 0 0 0 0 0 0 0 1.2 0 0.05
18.098 0.93 -0.18 50.52 0 0.13 0.88 0 0 20 2 -2 0 0 0 21 0 0 0 1213 0.38 0 0.45 0.38 0 0.45 1.5 0.5 0.3 2 0.02 0 2 0.05 0 0 0 0 0 0 0 0 0 0 1.2 0 0.05
18.198 0.93 -0.18 50.64 0 0.19 1.06 0 0 20 2 -2 0 0 0 21 0 0 0 1210 0.38 0 0.45 0.38 0 0.45 1.5 0.5 0.3 2 0.02 0 2 0.05 0 0 0 0 0 0 0 0 0 0 1.2 0 0.05
18.298 0.93 -0.18 50.68 0 0.19 0.94 0 0 19 2 -1 0 0 0 21 0 0 0 1215 0.38 0 0.45 0.38 0 0.45 1.5 0.5 0.3 2 0.02 0 2 0.05 0 0 0 0 0 0 0 0 0 0 1.2 0 0.05
18.398 0.93 -0.18 50.76 0 0.19 1 0 0 19 2 -1 0 0 0 21 0 0 0 1214 0.38 0 0.45 0.38 0 0.45 1.5 0.5 0.3 2 0.02 0 2 0.05 0 0 0 0 0 0 0 0 0 0 1.2 0 0.05
18.498 0.94 -0.18 50.82 -0.06 0.19 1 0 0 20 2 -2 0 0 0 21 0 0 0 1211 0.38 0 0.45 0.38 0 0.45 1.5 0.5 0.3 2 0.02 0 2 0.05 0 0 0 0 0 0 0 0 0 0 1.2 0 0.05
18.598 0.94 -0.18 50.87 -0.06 0.25 0.94 0 0 19 2 -2 0 0 0 21 0 0 0 1216 0.38 0 0.45 0.38 0 0.45 1.5 0.5 0.3 2 0.02 0 2 0.05 0 0 0 0 0 0 0 0 0 0 1.2 0 0.05
18.698 0.94 -0.18 50.94 0 0.13 1.06 0 0 20 2 0 0 0 0 21 0 0 0 1210 0.38 0 0.45 0.38 0 0.45 1.5 0.5 0.3 2 0.02 0 2 0.05 0 0 0 0 0 0 0 0 0 0 1.2 0 0.05
18.798 0.93 -0.18 51.08 0 0.19 1 0 0 20 1 -1 0 0 0 21 0 0 0 1215 0.38 0 0.45 0.38 0 0.45 1.5 0.5 0.3 2 0.02 0 2 0.05 0 0 0 0 0 0 0 0 0 0 1.2 0 0.05
18.898 0.93 -0.19 51.19 0 0.25 1.06 0 0 20 2 0 0 0 0 21 0 0 0 1211 0.38 0 0.45 0.38 0 0.45 1.5 0.5 0.3 2 0.02 0 2 0.05 0 0 0 0 0 0 0 0 0 0 1.2 0 0.05
18.998 0.93 -0.19 51.25 -0.13 0.19 1 0 0 20 1 -2 0 0 0 21 0 0 0 1214 0.38 0 0.45 0.38 0 0.45 1.5 0.5 0.3 2 0.02 0 2 0.05 0 0 0 0 0 0 0 0 0 0 1.2 0 0.05
19.098 0.93 -0.19 51.27 0 0.25 1 0 0 20 2 -1 0 0 0 21 0 0 0 1212 0.38 0 0.45 0.38 0 0.45 1.5 0.5 0.3 2 0.02 0 2 0.05 0 0 0 0 0 0 0 0 0 0 1.2 0 0.05
19.198 0.93 -0.19 51.31 -0.13 0.19 1 0 0 20 1 -1 0 0 0 21 0 0 0 1217 0.38 0 0.45 0.38 0 0.45 1.5 0.5 0.3 2 0.02 0 2 0.05 0 0 0 0 0 0 0 0 0 0 1.2 0 0.05
19.298 0.93 -0.19 51.36 -0.13 0.13 1.06 0 0 20 2 -2 0 0 0 21 0 0 0 1213 0.38 0 0.45 0.38 0 0.45 1.5 0.5 0.3 2 0.02 0 2 0.05 0 0 0 0 0 0 0 0 0 0 1.2 0 0.05
19.398 0.93 -0.19 51.39 -0.13 0.19 1.06 0 0 20 1 0 0 0 0 21 0 0 0 1217 0.38 0 0.45 0.38 0 0.45 1.5 0.5 0.3 2 0.02 0 2 0.05 0 0 0 0 0 0 0 0 0 0 1.2 0 0.05
19.498 0.94 -0.19 51.45 -0.06 0.19 1 0 0 20 2 0 0 0 0 21 0 0 0 1213 0.38 0 0.45 0.38 0 0.45 1.5 0.5 0.3 2 0.02 0 2 0.05 0 0 0 0 0 0 0 0 0 0 1.2 0 0.05
19.598 0.93 -0.19 51.48 -0.13 0.19 0.88 0 0 19 2 -1 0 0 0 21 0 0 0 1215 0.38 0 0.45 0.38 0 0.45 1.5 0.5 0.3 2 0.02 0 2 0.05 0 0 0 0 0 0 0 0 0 0 1.2 0 0.05
19.698 0.93 -0.19 51.55 -0.13 0.19 1 0 0 20 2 -1 0 0 0 21 0 0 0 1213 0.38 0 0.45 0.38 0 0.45 1.5 0.5 0.3 2 0.02 0 2 0.05 0 0 0 0 0 0 0 0 0 0 1.2 0 0.05
19.798 0.93 -0.19 51.61 0 0.19 1.06 0 0 19 2 -1 0 0 0 21 0 0 0 1212 0.38 0 0.45 0.38 0 0.45 1.5 0.5 0.3 2 0.02 0 2 0.05 0 0 0 0 0 0 0 0 0 0 1.2 0 0.05
19.898 0.93 -0.19 51.71 -0.06 0.25 0.94 0 0 20 2 -1 0 0 0 21 0 0 0 1215 0.38 0 0.45 0.38 0 0.45 1.5 0.5 0.3 2 0.02 0 2 0.05 0 0 0 0 0 0 0 0 0 0 1.2 0 0.05
19.998 0.93 -0.18 51.71 -0.13 0.19 0.94 0 0 20 2 -1 0 0 0 21 0 0 0 1215 0.38 0 0.45 0.38 0 0.45 1.5 0.5 0.3 2 0.02 0 2 0.05 0 0 0 0 0 0 0 0 0 0 1.2 0 0.05
20.098 0.93 -0.18 51.66 0 0.25 1.06 0 0 19 2 -1 0 0 0 21 0 0 0 1214 0.38 0 0.45 0.38 0 0.45 1.5 0.5 0.3 2 0.02 0 2 0.05 0 0 0 0 0 0 0 0 0 0 1.2 0 0.05
20.198 0.94 -0.18 51.65 -0.06 0.19 0.94 0 0 20 2 -1 0 0 0 21 0 0 0 1216 0.38 0 0.45 0.38 0 0.45 1.5 0.5 0.3 2 0.02 0 2 0.05 0 0 0 0 0 0 0 0 0 0 1.2 0 0.05
20.298 0.94 -0.18 51.61 0 0.19 1 0 0 20 2 -1 0 0 0 21 0 0 0 1215 0.38 0 0.45 0.38 0 0.45 1.5 0.5 0.3 2 0.02 0 2 0.05 0 0 0 0 0 0 0 0 0 0 1.2 0 0.05
20.398 0.94 -0.18 51.61 0 0.25 1 0 0 20 2 -1 0 0 0 21 0 0 0 1215 0.38 0 0.45 0.38 0 0.45 1.5 0.5 0.3 2 0.02 0 2 0.05 0 0 0 0 0 0 0 0 0 0 1.2 0 0.05
20.498 0.94 -0.18 51.62 -0.13 0.25 1 0 0 19 2 -1 0 0 0 21 0 0 0 1214 0.38 0 0.45 0.38 0 0.45 1.5 0.5 0.3 2 0.02 0 2 0.05 0 0 0 0 0 0 0 0 0 0 1.2 0 0.05
20.598 0.94 -0.18 51.69 0 0.19 1 0 0 19 1 -1 0 0 0 21 0 0 0 1215 0.38 0 0.45 0.38 0 0.45 1.5 0.5 0.3 2 0.02 0 2 0.05 0 0 0 0 0 0 0 0 0 0 1.2 0 0.05
20.698 0.94 -0.18 51.64 -0.06 0.13 0.94 0 0 19 2 -1 0 0 0 21 0 0 0 1216 0.38 0 0.45 0.38 0 0.45 1.5 0.5 0.3 2 0.02 0 2 0.05 0 0 0 0 0 0 0 0 0 0 1.2 0 0.05
20.798 0.93 -0.18 51.64 -0.06 0.19 1.06 0 0 20 2 -1 0 0 0 21 0 0 0 1214 0.38 0 0.45 0.38 0 0.45 1.5 0.5 0.3 2 0.02 0 2 0.05 0 0 0 0 0 0 0 0 0 0 1.2 0 0.05
20.898 0.93 -0.18 51.73 -0.06 0.25 1.06 0 0 20 2 -1 0 0 0 21 0 0 0 1214 0.38 0 0.45 0.38 0 0.45 1.5 0.5 0.3 2 0.02 0 2 0.05 0 0 0 0 0 0 0 0 0 0 1.2 0 0.05
20.998 0.93 -0.18 51.79 -0.06 0.19 1.06 0 0 20 2 -1 0 0 0 21 0 0 0 1215 0.38 0 0.45 0.38 0 0.45 1.5 0.5 0.3 2 0.02 0 2 0.05 0 0 0 0 0 0 0 0 0 0 1.2 0 0.05
21.098 0.93 -0.18 51.86 -0.06 0.25 1.06 0 0 20 2 -1 0 0 0 21 0 0 0 1214 0.38 0 0.45 0.38 0 0.45 1.5 0.5 0.3 2 0.02 0 2 0.05 0 0 0 0 0 0 0 0 0 0 1.2 0 0.05
21.198 0.93 -0.18 51.84 0 0.25 1.12 0 0 20 2 -1 0 0 0 21 0 0 0 1216 0.38 0 0.45 0.38 0 0.45 1.5 0.5 0.3 2 0.02 0 2 0.05 0 0 0 0 0 0 0 0 0 0 1.2 0 0.05
21.298 0.94 -0.16 51.89 -0.06 0.19 1 0 0 20 2 -1 0 0 0 21 0 0 0 1215 0.38 0 0.45 0.38 0 0.45 1.5 0.5 0.3 2 0.02 0 2 0.05 0 0 0 0 0 0 0 0 0 0 1.2 0 0.05
21.398 0.94 -0.16 51.84 -0.06 0.19 1 0 0 20 1 -1 0 0 0 21 0 0 0 1216 0.38 0 0.45 0.38 0 0.45 1.5 0.5 0.3 2 0.02 0 2 0.05 0 0 0 0 0 0 0 0 0 0 1.2 0 0.05
21.498 0.94 -0.16 51.84 0 0.13 1 0 0 20 2 -1 0 0 0 21 0 0 0 1214 0.38 0 0.45 0.38 0 0.45 1.5 0.5 0.3 2 0.02 0 2 0.05 0 0 0 0 0 0 0 0 0 0 1.2 0 0.05
21.598 0.93 -0.16 51.91 -0.06 0.13 0.94 0 0 20 2 -1 0 0 0 21 0 0 0 1214 0.38 0 0.45 0.38 0 0.45 1.5 0.5 0.3 2 0.02 0 2 0.05 0 0 0 0 0 0 0 0 0 0 1.2 0 0.05
21.699 0.93 -0.18 51.97 0 0.13 1.06 0 0 20 2 -1 0 0 0 21 0 0 0 1214 0.38 0 0.45 0.38 0 0.45 1.5 0.5 0.3 2 0.02 0 2 0.05 0 0 0 0 0 0 0 0 0 0 1.2 0 0.05
21.798 0.93 -0.18 52 -0.13 0.25 1 0 0 18 2 -1 0 0 0 21 0 0 0 1214 0.38 0 0.45 0.38 0 0.45 1.5 0.5 0.3 2 0.02 0 2 0.05 0 0 0 0 0 0 0 0 0 0 1.2 0 0.05
21.898 0.93 -0.18 52.06 0 0.19 1 0 0 20 2 -1 0 0 0 21 0 0 0 1214 0.38 0 0.45 0.38 0 0.45 1.5 0.5 0.3 2 0.02 0 2 0.05 0 0 0 0 0 0 0 0 0 0 1.2 0 0.05
21.998 0.93 -0.18 52.09 -0.06 0.13 1 0 0 20 2 -1 0 0 0 21 0 0 0 1215 0.38 0 0.45 0.38 0 0.45 1.5 0.5 0.3 2 0.02 0 2 0.05 0 0 0 0 0 0 0 0 0 0 1.2 0 0.05
22.098 0.93 -0.18 52.11 -0.13 0.13 1 0 0 20 2 -1 0 0 0 21 0 0 0 1214 0.38 0 0.45 0.38 0 0.45 1.5 0.5 0.3 2 0.02 0 2 0.05 0 0 0 0 0 0 0 0 0 0 1.2 0 0.05
22.198 0.93 -0.18 52.04 -0.06 0.19 1 0 0 20 2 -1 0 0 0 21 0 0 0 1216 0.38 0 0.45 0.38 0 0.45 1.5 0.5 0.3 2 0.02 0 2 0.05 0 0 0 0 0 0 0 0 0 0 1.2 0 0.05
22.298 0.93 -0.16 52.03 -0.06 0.25 1.06 0 0 19 2 -1 0 0 0 21 0 0 0 1214 0.38 0 0.45 0.38 0 0.45 1.5 0.5 0.3 2 0.02 0 2 0.05 0 0 0 0 0 0 0 0 0 0 1.2 0 0.05
22.398 0.93 -0.16 51.94 0 0.19 1 0 0 19 2 -1 0 0 0 21 0 0 0 1215 0.38 0 0.45 0.38 0 0.45 1.5 0.5 0.3 2 0.02 0 2 0.05 0 0 0 0 0 0 0 0 0 0 1.2 0 0.05
22.498 0.93 -0.18 51.98 -0.06 0.19 1.06 0 0 19 2 -1 0 0 0 21 0 0 0 1214 0.38 0 0.45 0.38 0 0.45 1.5 0.5 0.3 2 0.02 0 2 0.05 0 0 0 0 0 0 0 0 0 0 1.2 0 0.05
22.598 0.93 -0.18 51.95 0 0.19 0.94 0 0 20 2 -1 0 0 0 21 0 0 0 1214 0.38 0 0.45 0.38 0 0.45 1.5 0.5 0.3 2 0.02 0 2 0.05 0 0 0 0 0 0 0 0 0 0 1.2 0 0.05
22.698 0.93 -0.18 51.93 -0.06 0.19 1 0 0 20 2 -1 0 0 0 21 0 0 0 1214 0.38 0 0.45 0.38 0 0.45 1.5 0.5 0.3 2 0.02 0 2 0.05 0 0 0 0 0 0 0 0 0 0 1.2 0 0.05
22.798 0.93 -0.16 51.92 -0.06 0.19 1 0 0 19 2 -1 0 0 0 21 0 0 0 1215 0.38 0 0.45 0.38 0 0.45 1.5 0.5 0.3 2 0.02 0 2 0.05 0 0 0 0 0 0 0 0 0 0 1.2 0 0.05
22.898 0.94 -0.16 51.93 0 0.25 1.06 0 0 20 2 -1 0 0 0 21 0 0 0 1215 0.38 0 0.45 0.38 0 0.45 1.5 0.5 0.3 2 0.02 0 2 0.05 0 0 0 0 0 0 0 0 0 0 1.2 0 0.05
22.998 0.94 -0.16 51.98 -0.06 0.19 1.06 0 0 20 2 -1 0 0 0 21 0 0 0 1214 0.38 0 0.45 0.38 0 0.45 1.5 0.5 0.3 2 0.02 0 2 0.05 0 0 0 0 0 0 0 0 0 0 1.2 0 0.05
23.098 0.94 -0.16 52.06 -0.06 0.19 0.94 0 0 21 2 -1 0 0 0 21 0 0 0 1214 0.38 0 0.45 0.38 0 0.45 1.5 0.5 0.3 2 0.02 0 2 0.05 0 0 0 0 0 0 0 0 0 0 1.2 0 0.05
23.198 0.94 -0.16 52.11 0 0.25 1 0 0 19 2 -1 0 0 0 21 0 0 0 1214 0.38 0 0.45 0.38 0 0.45 1.5 0.5 0.3 2 0.02 0 2 0.05 0 0 0 0 0 0 0 0 0 0 1.2 0 0.05
23.298 0.94 -0.16 52.13 -0.06 0.13 1 0 0 20 2 -1 0 0 0 21 0 0 0 1214 0.38 0 0.45 0.38 0 0.45 1.5 0.5 0.3 2 0.02 0 2 0.05 0 0 0 0 0 0 0 0 0 0 1.2 0 0.05
23.398 0.94 -0.18 52.16 -0.13 0.25 1 0 0 20 2 -1 0 0 0 21 0 0 0 1214 0.38 0 0.45 0.38 0 0.45 1.5 0.5 0.3 2 0.02 0 2 0.05 0 0 0 0 0 0 0 0 0 0 1.2 0 0.05
23.498 0.96 -0.18 52.1 0 0.25 0.94 0 0 20 2 -1 0 0 0 21 0 0 0 1214 0.38 0 0.45 0.38 0 0.45 1.5 0.5 0.3 2 0.02 0 2 0.05 0 0 0 0 0 0 0 0 0 0 1.2 0 0.05
23.598 0.96 -0.18 52.12 -0.06 0.19 1 0 0 20 2 -1 0 0 0 21 0 0 0 1215 0.38 0 0.45 0.38 0 0.45 1.5 0.5 0.3 2 0.02 0 2 0.05 0 0 0 0 0 0 0 0 0 0 1.2 0 0.05
23.698 0.96 -0.16 52.13 -0.06 0.19 1 0 0 19 2 -1 0 0 0 21 0 0 0 1214 0.38 0 0.45 0.38 0 0.45 1.5 0.5 0.3 2 0.02 0 2 0.05 0 0 0 0 0 0 0 0 0 0 1.2 0 0.05
23.798 0.96 -0.16 52.18 -0.06 0.19 1 0 0 19 2 -1 0 0 0 21 0 0 0 1213 0.38 0 0.45 0.38 0 0.45 1.5 0.5 0.3 2 0.02 0 2 0.05 0 0 0 0 0 0 0 0 0 0 1.2 0 0.05
23.898 0.96 -0.16 52.15 -0.06 0.25 1.06 0 0 20 2 -1 0 0 0 21 0 0 0 1214 0.38 0 0.45 0.38 0 0.45 1.5 0.5 0.3 2 0.02 0 2 0.05 0 0 0 0 0 0 0 0 0 0 1.2 0 0.05
23.998 0.96 -0.16 52.17 -0.06 0.19 0.94 0 0 20 2 -1 0 0 0 21 0 0 0 1214 0.38 0 0.45 0.38 0 0.45 1.5 0.5 0.3 2 0.02 0 2 0.05 0 0 0 0 0 0 0 0 0 0 1.2 0 0.05
24.098 0.94 -0.16 52.13 -0.13 0.19 1.06 0 0 20 2 -1 0 0 0 21 0 0 0 1214 0.38 0 0.45 0.38 0 0.45 1.5 0.5 0.3 2 0.02 0 2 0.05 0 0 0 0 0 0 0 0 0 0 1.2 0 0.05
24.198 0.94 -0.16 52.14 -0.13 0.19 0.88 0 0 20 2 -1 0 0 0 21 0 0 0 1214 0.38 0 0.45 0.38 0 0.45 1.5 0.5 0.3 2 0.02 0 2 0.05 0 0 0 0 0 0 0 0 0 0 1.2 0 0.05
24.298 0.94 -0.16 52.16 -0.13 0.25 1 0 0 20 2 -1 0 0 0 21 0 0 0 1214 0.38 0 0.45 0.38 0 0.45 1.5 0.5 0.3 2 0.02 0 2 0.05 0 0 0 0 0 0 0 0 0 0 1.2 0 0.05
24.398 0.94 -0.16 52.25 -0.06 0.19 1 0 0 20 2 -1 0 0 0 21 0 0 0 1214 0.38 0 0.45 0.38 0 0.45 1.5 0.5 0.3 2 0.02 0 2 0.05 0 0 0 0 0 0 0 0 0 0 1.2 0 0.05
24.498 0.94 -0.16 52.27 -0.06 0.19 0.94 0 0 20 2 -1 0 0 0 21 0 0 0 1215 0.38 0 0.45 0.38 0 0.45 1.5 0.5 0.3 2 0.02 0 2 0.05 0 0 0 0 0 0 0 0 0 0 1.2 0 0.05
24.598 0.94 -0.16 52.21 0 0.19 1 0 0 20 2 -1 0 0 0 21 0 0 0 1214 0.38 0 0.45 0.38 0 0.45 1.5 0.5 0.3 2 0.02 0 2 0.05 0 0 0 0 0 0 0 0 0 0 1.2 0 0.05
24.698 0.93 -0.16 52.22 0.44 0.19 0 0 0 20 2 -1 0 0 0 21 0 0 0 1214 0.38 0 0.45 0.38 0 0.45 1.5 0.5 0.3 2 0.02 0 2 0.05 0 0 0 0 0 0 0 0 0 0 1.2 0 0.05
24.798 0.94 -0.18 51.42 0.44 -0.94 0.88 0 0 20 2 -1 0 0 0 21 0 0 0 1214 0.38 0 0.45 0.38 0 0.45 1.5 0.5 0.3 2 0.02 0 2 0.05 0 0 0 0 0 0 0 0 0 0 1.2 0 0.05
24.898 0.96 -0.18 50.62 -0.13 -0.94 1 0 0 21 2 -1 0 0 0 21 0 0 0 1215 0.38 0 0.45 0.38 0 0.45 1.5 0.5 0.3 2 0.02 0 2 0.05 0 0 0 0 0 0 0 0 0 0 1.2 0 0.05
24.998 0.96 -0.18 49.12 1.06 0.37 1.5 0 0 20 2 -1 0 0 0 21 0 0 0 1214 0.38 0 0.45 0.38 0 0.45 1.5 0.5 0.3 2 0.02 0 2 0.05 0 0 0 0 0 0 0 0 0 0 1.2 0 0.05
25.098 0.97 -0.19 48.44 -1.81 -1.06 2.5 0 0 20 2 -1 0 0 0 21 0 0 0 1214 0.38 0 0.45 0.38 0 0.45 1.5 0.5 0.3 2 0.02 0 2 0.05 0 0 0 0 0 0 0 0 0 0 1.2 0 0.05
25.198 0.96 -0.19 47.41 0.88 1.81 0.06 0 0 20 2 -1 0 0 0 21 0 0 0 1214 0.38 0 0.45 0.38 0 0.45 1.5 0.5 0.3 2 0.02 0 2 0.05 0 0 0 0 0 0 0 0 0 0 1.2 0 0.05
25.298 0.94 -0.2 46.79 -1.5 0.13 -0.25 0 0 20 2 -1 0 0 0 21 0 0 0 1214 0.38 0 0.45 0.38 0 0.45 1.5 0.5 0.3 2 0.02 0 2 0.05 0 0 0 0 0 0 0 0 0 0 1.2 0 0.05
25.398 1.01 -0.23 45.71 -1.06 0 -2.19 0 0 19 2 -1 0 0 0 21 0 0 0 1215 0.38 0 0.45 0.38 0 0.45 1.5 0.5 0.3 2 0.02 0 2 0.05 0 0 0 0 0 0 0 0 0 0 1.2 0 0.05
25.498 1.01 -0.23 44.57 3.31 0.5 2.5 0 0 21 2 -1 0 0 0 21 0 0 0 1215 0.38 0 0.45 0.38 0 0.45 1.5 0.5 0.3 2 0.02 0 2 0.05 0 0 0 0 0 0 0 0 0 0 1.2 0 0.05
25.598 1.02 -0.24 42.95 1.5 -0.56 -1.62 0 0 19 2 -1 0 0 0 21 0 0 0 1214 0.38 0 0.45 0.38 0 0.45 1.5 0.5 0.3 2 0.02 0 2 0.05 0 0 0 0 0 0 0 0 0 0 1.2 0 0.05
25.698 1.02 -0.25 42.14 1.31 1.19 -1.75 0 0 20 2 -1 0 0 0 21 0 0 0 1214 0.38 0 0.45 0.38 0 0.45 1.5 0.5 0.3 2 0.02 0 2 0.05 0 0 0 0 0 0 0 0 0 0 1.2 0 0.05
25.8 1.03 -0.25 41.43 1.44 2.69 1.87 0 0 20 2 -1 0 0 0 21 0 0 0 1214 0.38 0 0.45 0.38 0 0.45 1.5 0.5 0.3 2 0.02 0 2 0.05 0 0 0 0 0 0 0 0 0 0 1.2 0 0.05
25.898 1.07 -0.23 40.44 -0.19 2.12 4.56 0 0 21 2 -1 0 0 0 21 0 0 0 1215 0.38 0 0.45 0.38 0 0.45 1.5 0.5 0.3 2 0.02 0 2 0.05 0 0 0 0 0 0 0 0 0 0 1.2 0 0.05
25.998 1.07 -0.24 39.88 -1.75 0.88 5.37 0 0 20 2 -1 0 0 0 21 0 0 0 1214 0.38 0 0.45 0.38 0 0.45 1.5 0.5 0.3 2 0.02 0 2 0.05 0 0 0 0 0 0 0 0 0 0 1.2 0 0.05
26.098 1.09 -0.25 38.94 2.81 2.12 2.62 0 0 20 2 -1 0 0 0 23 0 0 0 1232 0.38 0 0.45 0.38 0 0.45 1.5 0.5 0.3 2 0.02 0 2 0.05 0 0 0 0 0 0 0 0 0 0 1.2 0 0.05
26.198 1.09 -0.24 38.38 2.94 2.25 3.94 0 0 20 2 -1 0 0 0 24 0 0 0 1244 0.38 0 0.45 0.38 0 0.45 1.5 0.5 0.3 2 0.02 0 2 0.05 0 0 0 0 0 0 0 0 0 0 1.2 0 0.05
26.298 1.09 -0.23 37.54 -1.37 0.88 3.37 0 0 20 2 -1 0 0 0 26 0 0 0 1260 0.38 0 0.45 0.38 0 0.45 1.5 0.5 0.3 2 0.02 0 2 0.05 0 0 0 0 0 0 0 0 0 0 1.2 0 0.05
26.398 1.11 -0.25 36.99 2.19 1.31 2.25 0 0 20 2 -1 0 0 0 26 0 0 0 1260 0.38 0 0.45 0.38 0 0.45 1.5 0.5 0.3 2 0.02 0 2 0.05 0 0 0 0 0 0 0 0 0 0 1.2 0 0.05
26.498 1.12 -0.24 36.07 1.06 3.19 0.06 0 0 20 2 -1 0 0 0 26 0 0 0 1261 0.38 0 0.45 0.38 0 0.45 1.5 0.5 0.3 2 0.02 0 2 0.05 0 0 0 0 0 0 0 0 0 0 1.2 0 0.05
26.598 1.08 -0.23 35.52 -4.31 0.37 -2.06 0 0 20 2 -1 0 0 0 26 0 0 0 1266 0.38 0 0.45 0.38 0 0.45 1.5 0.5 0.3 2 0.02 0 2 0.05 0 0 0 0 0 0 0 0 0 0 1.2 0 0.05
26.698 1.02 -0.24 34.66 2.81 -0.25 -3.19 0 0 20 2 -1 0 0 0 28 0 0 0 1287 0.38 0 0.45 0.38 0 0.45 1.5 0.5 0.3 2 0.02 0 2 0.05 0 0 0 0 0 0 0 0 0 0 1.2 0 0.05
26.798 1.07 -0.29 33.96 -2 -3.62 4.81 0 0 20 2 -1 0 0 0 28 0 0 0 1287 0.38 0 0.45 0.38 0 0.45 1.5 0.5 0.3 2 0.02 0 2 0.05 0 0 0 0 0 0 0 0 0 0 1.2 0 0.05
26.898 1.09 -0.27 32.76 1.5 -1.44 0.81 0 0 21 1 -1 0 0 0 31 0 0 0 1318 0.38 0 0.45 0.38 0 0.45 1.5 0.5 0.3 2 0.02 0 2 0.05 0 0 0 0 0 0 0 0 0 0 1.2 0 0.05
26.998 1.09 -0.27 32.43 3.19 4.19 -1.37 0 0 19 1 -1 0 0 0 31 0 0 0 1318 0.38 0 0.45 0.38 0 0.45 1.5 0.5 0.3 2 0.02 0 2 0.05 0 0 0 0 0 0 0 0 0 0 1.2 0 0.05
27.098 1.08 -0.27 32.54 -3.62 2.12 0.44 0 0 20 1 -1 0 0 0 33 0 0 0 1331 0.38 0 0.45 0.38 0 0.45 1.5 0.5 0.3 2 0.02 0 2 0.05 0 0 0 0 0 0 0 0 0 0 1.2 0 0.05
27.198 1.07 -0.29 32.62 5.94 -4 -4.87 0 0 21 1 -1 0 0 0 33 0 0 0 1331 0.38 0 0.45 0.38 0 0.45 1.5 0.5 0.3 2 0.02 0 2 0.05 0 0 0 0 0 0 0 0 0 0 1.2 0 0.05
27.298 1.02 -0.27 32.78 -12.25 0.75 4.12 0 0 20 1 -1 0 0 0 33 0 0 0 1331 0.38 0 0.45 0.38 0 0.45 1.5 0.5 0.3 2 0.02 0 2 0.05 0 0 0 0 0 0 0 0 0 0 1.2 0 0.05
27.398 1.12 -0.26 32.87 -3.12 0.37 9.69 0 0 20 1 -1 0 0 0 34 0 0 0 1345 0.38 0 0.45 0.38 0 0.45 1.5 0.5 0.3 2 0.02 0 2 0.05 0 0 0 0 0 0 0 0 0 0 1.2 0 0.05
27.498 1.02 -0.21 32.96 5.12 3.56 -8.69 0 0 20 1 -1 0 0 0 34 0 0 0 1346 0.38 0 0.45 0.38 0 0.45 1.5 0.5 0.3 2 0.02 0 2 0.05 0 0 0 0 0 0 0 0 0 0 1.2 0 0.05
27.598 1 -0.22 33.08 2.81 3.56 -9.5 0 0 21 1 -1 0 0 0 34 0 0 0 1346 0.38 0 0.45 0.38 0 0.45 1.5 0.5 0.3 2 0.02 0 2 0.05 0 0 0 0 0 0 0 0 0 0 1.2 0 0.05
27.698 1.02 -0.24 33.22 -9.75 4.06 -2.12 0 0 20 1 -1 0 0 0 35 0 0 0 1359 0.38 0 0.45 0.38 0 0.45 1.5 0.5 0.3 2 0.02 0 2 0.05 0 0 0 0 0 0 0 0 0 0 1.2 0 0.05
27.798 0.92 -0.19 33.35 -4.81 4.62 -5.19 0 0 20 2 -1 0 0 0 35 0 0 0 1359 0.38 0 0.45 0.38 0 0.45 1.5 0.5 0.3 2 0.02 0 2 0.05 0 0 0 0 0 0 0 0 0 0 1.2 0 0.05
27.898 0.91 -0.16 33.53 -6.81 6.06 -1.25 0 0 21 1 -1 0 0 0 38 0 0 0 1388 0.38 0 0.45 0.38 0 0.45 1.5 0.5 0.3 2 0.02 0 2 0.05 0 0 0 0 0 0 0 0 0 0 1.2 0 0.05
27.998 0.87 -0.1 33.62 -19.31 1.44 -1.75 0 0 21 1 -1 0 0 0 38 0 0 0 1388 0.38 0 0.45 0.38 0 0.45 1.5 0.5 0.3 2 0.02 0 2 0.05 0 0 0 0 0 0 0 0 0 0 1.2 0 0.05
28.098 0.67 0.35 33.59 12.63 3.81 5.62 0 0 21 2 -1 0 0 0 38 0 0 0 1388 0.38 0 0.45 0.38 0 0.45 1.5 0.5 0.3 2 0.02 0 2 0.05 0 0 0 0 0 0 0 0 0 0 1.2 0 0.05
28.198 0.02 1.66 33.55 -11.25 29.37 -0.94 0 0 23 2 -1 0 0 0 38 0 0 0 1389 0.38 0 0.45 0.38 0 0.45 1.5 0.5 0.3 2 0.02 0 2 0.05 0 0 0 0 0 0 0 0 0 0 1.2 0 0.05
28.298 -0.92 3.67 33.56 13.25 25.87 -1.44 0 0 22 2 -1 0 0 0 40 0 0 0 1402 0.38 0 0.45 0.38 0 0.45 1.5 0.5 0.3 2 0.02 0 2 0.05 0 0 0 0 0 0 0 0 0 0 1.2 0 0.05
28.398 -1.75 5.68 33.66 -5.5 16.75 -8.63 0 0 21 2 -1 0 0 0 40 0 0 0 1402 0.38 0 0.45 0.38 0 0.45 1.5 0.5 0.3 2 0.02 0 2 0.05 0 0 0 0 0 0 0 0 0 0 1.2 0 0.05
28.498 -2.18 7.61 33.78 -2.5 24.44 -12.13 0 0 21 2 -1 0 0 0 40 0 0 0 1401 0.38 0 0.45 0.38 0 0.45 1.5 0.5 0.3 2 0.02 0 2 0.05 0 0 0 0 0 0 0 0 0 0 1.2 0 0.05
28.598 -2.27 10.35 33.79 11.5 27.75 -5.56 0 0 19 2 -1 0 0 0 40 0 0 0 1401 0.38 0 0.45 0.38 0 0.45 1.5 0.5 0.3 2 0.02 0 2 0.05 0 0 0 0 0 0 0 0 0 0 1.2 0 0.05
28.698 -2.55 13.78 33.79 3.87 37.94 3.44 0 0 22 2 -1 0 0 0 40 0 0 0 1400 0.38 0 0.45 0.38 0 0.45 1.5 0.5 0.3 2 0.02 0 2 0.05 0 0 0 0 0 0 0 0 0 0 1.2 0 0.05
28.798 -2.89 17.63 33.84 4.81 39.19 9.81 0 0 22 2 -1 0 0 0 40 0 0 0 1402 0.38 0 0.45 0.38 0 0.45 1.5 0.5 0.3 2 0.02 0 2 0.05 0 0 0 0 0 0 0 0 0 0 1.2 0 0.05
28.898 -2.88 21.4 34.3 14 41.31 10.75 0 0 21 2 -1 0 0 0 39 0 0 0 1399 0.38 0 0.45 0.38 0 0.45 1.5 0.5 0.3 2 0.02 0 2 0.05 0 0 0 0 0 0 0 0 0 0 1.2 0 0.05
28.998 -2.45 25.18 35.3 12.31 40.56 15.94 0 0 21 1 -1 0 0 0 40 0 0 0 1401 0.38 0 0.45 0.38 0 0.45 1.5 0.5 0.3 2 0.02 0 2 0.05 0 0 0 0 0 0 0 0 0 0 1.2 0 0.05
29.098 -2.11 29.01 36.64 7.31 46.5 19.44 0 0 22 2 -1 0 0 0 38 0 0 0 1386 0.38 0 0.45 0.38 0 0.45 1.5 0.5 0.3 2 0.02 0 2 0.05 0 0 0 0 0 0 0 0 0 0 1.2 0 0.05
29.198 -1.87 33.59 38.4 -0.94 43.81 21.56 0 0 19 2 -1 0 0 0 32 0 0 0 1323 0.38 0 0.45 0.38 0 0.45 1.5 0.5 0.3 2 0.02 0 2 0.05 0 0 0 0 0 0 0 0 0 0 1.2 0 0.05
29.298 -2.52 37.98 39.96 -33.56 40.31 2.87 0 0 21 2 -1 0 0 0 30 0 0 0 1301 0.38 0 0.45 0.38 0 0.45 1.5 0.5 0.3 2 0.02 0 2 0.05 0 0 0 0 0 0 0 0 0 0 1.2 0 0.05
29.398 -4.27 41.8 41.21 -33.63 38 4.44 0 0 24 2 -1 0 0 0 24 0 0 0 1241 0.38 0 0.45 0.38 0 0.45 1.5 0.5 0.3 2 0.02 0 2 0.05 0 0 0 0 0 0 0 0 0 0 1.2 0 0.05
29.498 -6.86 45.21 40.05 -32.06 33.25 6.75 0 0 22 2 -1 0 0 0 20 0 0 0 1209 0.38 0 0.45 0.38 0 0.45 1.5 0.5 0.3 2 0.02 0 2 0.05 0 0 0 0 0 0 0 0 0 0 1.2 0 0.05
29.598 -9.77 47.89 38.22 57.25 -25.31 45.06 0 0 0 2 -1 0 0 0 20 0 0 0 1209 0.38 0 0.45 0.38 0 0.45 1.5 0.5 0.3 2 0.02 0 2 0.05 0 0 0 0 0 0 0 0 0 0 1.2 0 0.05
29.698 -4.75 42.42 39.8 64.94 -83.37 53.25 0 0 0 2 -1 0 0 0 20 0 0 0 1209 0.38 0 0.45 0.38 0 0.45 1.5 0.5 0.3 2 0.02 0 2 0.05 0 0 0 0 0 0 0 0 0 0 1.2 0 0.05
29.798 1.24 34.45 43.33 58.06 -96.81 49.31 0 0 24 2 -1 0 0 0 20 0 0 0 1209 0.38 0 0.45 0.38 0 0.45 1.5 0.5 0.3 2 0.02 0 2 0.05 0 0 0 0 0 0 0 0 0 0 1.2 0 0.05
29.898 5.68 24.03 43.55 25.87 -132.31 36.88 0 0 21 2 -1 0 0 0 20 0 0 0 1209 0.38 0 0.45 0.38 0 0.45 1.5 0.5 0.3 2 0.02 0 2 0.05 0 0 0 0 0 0 0 0 0 0 1.2 0 0.05
29.998 7.5 9 43.56 2.12 -189.75 12.88 0 0 21 2 -1 0 0 0 20 0 0 0 1209 0.38 0 0.45 0.38 0 0.45 1.5 0.5 0.3 2 0.02 0 2 0.05 0 0 0 0 0 0 0 0 0 0 1.2 0 0.05
30.098 2.64 -1.38 42.08 -105.44 -60.25 8.06 0 0 23 2 -1 0 0 0 20 0 0 0 1209 0.38 0 0.45 0.38 0 0.45 1.5 0.5 0.3 2 0.02 0 2 0.05 0 0 0 0 0 0 0 0 0 0 1.2 0 0.05
30.198 -1.3 -1.93 41.17 32.5 30.56 -6.06 0 0 24 2 -1 0 0 0 20 0 0 0 1209 0.38 0 0.45 0.38 0 0.45 1.5 0.5 0.3 2 0.02 0 2 0.05 0 0 0 0 0 0 0 0 0 0 1.2 0 0.05
30.298 2.58 -0.33 39.28 52.75 -48.88 -18.69 0 0 22 2 -1 0 0 0 20 0 0 0 1209 0.38 0 0.45 0.38 0 0.45 1.5 0.5 0.3 2 0.02 0 2 0.05 0 0 0 0 0 0 0 0 0 0 1.2 0 0.05
30.398 2.5 -1.41 37.17 -4.87 10.13 -6.75 0 0 21 2 -1 0 0 0 21 0 0 0 1210 0.38 0 0.45 0.38 0 0.45 1.5 0.5 0.3 2 0.02 0 2 0.05 0 0 0 0 0 0 0 0 0 0 1.2 0 0.05
30.498 2.08 -0.52 36.56 -4.56 -7.94 2 0 0 21 2 -1 0 0 0 20 0 0 0 1209 0.38 0 0.45 0.38 0 0.45 1.5 0.5 0.3 2 0.02 0 2 0.05 0 0 0 0 0 0 0 0 0 0 1.2 0 0.05
30.598 2.04 -0.44 35.91 3.5 -2.87 7.5 0 0 21 2 -1 0 0 0 20 0 0 0 1209 0.38 0 0.45 0.38 0 0.45 1.5 0.5 0.3 2 0.02 0 2 0.05 0 0 0 0 0 0 0 0 0 0 1.2 0 0.05
30.698 1.96 -0.45 35.73 1.69 -0.75 6.31 0 0 20 2 -1 0 0 0 20 0 0 0 1209 0.38 0 0.45 0.38 0 0.45 1.5 0.5 0.3 2 0.02 0 2 0.05 0 0 0 0 0 0 0 0 0 0 1.2 0 0.05
30.798 1.86 -0.43 35.33 2.06 0.06 2.31 0 0 20 2 -1 0 0 0 20 0 0 0 1209 0.38 0 0.45 0.38 0 0.45 1.5 0.5 0.3 2 0.02 0 2 0.05 0 0 0 0 0 0 0 0 0 0 1.2 0 0.05
30.898 1.83 -0.37 35.1 2.44 0.94 2.31 0 0 20 2 -1 0 0 0 21 0 0 0 1210 0.38 0 0.45 0.38 0 0.45 1.5 0.5 0.3 2 0.02 0 2 0.05 0 0 0 0 0 0 0 0 0 0 1.2 0 0.05
30.998 1.79 -0.31 35.08 0.75 -0.81 2.12 0 0 20 2 -1 0 0 0 20 0 0 0 1209 0.38 0 0.45 0.38 0 0.45 1.5 0.5 0.3 2 0.02 0 2 0.05 0 0 0 0 0 0 0 0 0 0 1.2 0 0.05
31.098 1.8 -0.25 35.47 -1.75 -0.19 0.13 0 0 20 2 -1 0 0 0 20 0 0 0 1209 0.38 0 0.45 0.38 0 0.45 1.5 0.5 0.3 2 0.02 0 2 0.05 0 0 0 0 0 0 0 0 0 0 1.2 0 0.05
31.198 1.79 -0.22 36.18 0.81 0.69 -1.12 0 0 19 2 -1 0 0 0 20 0 0 0 1209 0.38 0 0.45 0.38 0 0.45 1.5 0.5 0.3 2 0.02 0 2 0.05 0 0 0 0 0 0 0 0 0 0 1.2 0 0.05
31.298 1.76 -0.21 36.67 2.37 2.25 0.13 0 0 20 2 -1 0 0 0 20 0 0 0 1208 0.38 0 0.45 0.38 0 0.45 1.5 0.5 0.3 2 0.02 0 2 0.05 0 0 0 0 0 0 0 0 0 0 1.2 0 0.05
31.398 1.75 -0.19 37.25 -1.06 -0.62 0.25 0 0 20 2 -1 0 0 0 20 0 0 0 1209 0.38 0 0.45 0.38 0 0.45 1.5 0.5 0.3 2 0.02 0 2 0.05 0 0 0 0 0 0 0 0 0 0 1.2 0 0.05
31.498 1.72 -0.16 37.73 0.62 1.69 0.25 0 0 19 2 -1 0 0 0 21 0 0 0 1210 0.38 0 0.45 0.38 0 0.45 1.5 0.5 0.3 2 0.02 0 2 0.05 0 0 0 0 0 0 0 0 0 0 1.2 0 0.05
31.598 1.7 -0.13 38.32 0.37 -0.44 1.12 0 0 19 2 -1 0 0 0 20 0 0 0 1209 0.38 0 0.45 0.38 0 0.45 1.5 0.5 0.3 2 0.02 0 2 0.05 0 0 0 0 0 0 0 0 0 0 1.2 0 0.05
31.698 1.69 -0.11 38.74 0.56 1 0.37 0 0 20 2 -1 0 0 0 20 0 0 0 1209 0.38 0 0.45 0.38 0 0.45 1.5 0.5 0.3 2 0.02 0 2 0.05 0 0 0 0 0 0 0 0 0 0 1.2 0 0.05
31.798 1.67 -0.1 39.17 0.25 0.06 1.87 0 0 20 2 -1 0 0 0 21 0 0 0 1210 0.38 0 0.45 0.38 0 0.45 1.5 0.5 0.3 2 0.02 0 2 0.05 0 0 0 0 0 0 0 0 0 0 1.2 0 0.05
31.898 1.65 -0.09 39.78 0.19 0.13 0.75 0 0 20 2 -1 0 0 0 21 0 0 0 1210 0.38 0 0.45 0.38 0 0.45 1.5 0.5 0.3 2 0.02 0 2 0.05 0 0 0 0 0 0 0 0 0 0 1.2 0 0.05
31.998 1.63 -0.08 40.18 0.5 0.37 -0.19 0 0 20 2 -1 0 0 0 20 0 0 0 1209 0.38 0 0.45 0.38 0 0.45 1.5 0.5 0.3 2 0.02 0 2 0.05 0 0 0 0 0 0 0 0 0 0 1.2 0 0.05
32.098 1.59 -0.07 40.79 -1.31 0 1.75 0 0 20 2 -1 0 0 0 21 0 0 0 1210 0.38 0 0.45 0.38 0 0.45 1.5 0.5 0.3 2 0.02 0 2 0.05 0 0 0 0 0 0 0 0 0 0 1.2 0 0.05
32.198 1.59 -0.04 41.24 -0.62 0.62 0.31 0 0 20 2 -1 0 0 0 20 0 0 0 1209 0.38 0 0.45 0.38 0 0.45 1.5 0.5 0.3 2 0.02 0 2 0.05 0 0 0 0 0 0 0 0 0 0 1.2 0 0.05
32.298 1.58 -0.03 41.77 0.81 0.37 0.5 0 0 20 2 -1 0 0 0 20 0 0 0 1209 0.38 0 0.45 0.38 0 0.45 1.5 0.5 0.3 2 0.02 0 2 0.05 0 0 0 0 0 0 0 0 0 0 1.2 0 0.05
32.398 1.57 -0.02 42.14 0.06 0.44 1.25 0 0 20 2 -1 0 0 0 20 0 0 0 1209 0.38 0 0.45 0.38 0 0.45 1.5 0.5 0.3 2 0.02 0 2 0.05 0 0 0 0 0 0 0 0 0 0 1.2 0 0.05
32.498 1.55 -0.02 42.65 0 0.56 1 0 0 20 2 -1 0 0 0 20 0 0 0 1209 0.38 0 0.45 0.38 0 0.45 1.5 0.5 0.3 2 0.02 0 2 0.05 0 0 0 0 0 0 0 0 0 0 1.2 0 0.05
32.598 1.55 -0.01 42.97 0.06 0.44 1.06 0 0 20 2 -1 0 0 0 21 0 0 0 1210 0.38 0 0.45 0.38 0 0.45 1.5 0.5 0.3 2 0.02 0 2 0.05 0 0 0 0 0 0 0 0 0 0 1.2 0 0.05
32.698 1.54 0 43.52 -0.19 0.56 0.94 0 0 20 2 -1 0 0 0 20 0 0 0 1209 0.38 0 0.45 0.38 0 0.45 1.5 0.5 0.3 2 0.02 0 2 0.05 0 0 0 0 0 0 0 0 0 0 1.2 0 0.05
32.798 1.53 0 43.88 -0.13 0.5 0.88 0 0 20 1 -1 0 0 0 21 0 0 0 1210 0.38 0 0.45 0.38 0 0.45 1.5 0.5 0.3 2 0.02 0 2 0.05 0 0 0 0 0 0 0 0 0 0 1.2 0 0.05
32.898 1.53 0 44.29 -0.13 0.62 1 0 0 19 2 -1 0 0 0 20 0 0 0 1209 0.38 0 0.45 0.38 0 0.45 1.5 0.5 0.3 2 0.02 0 2 0.05 0 0 0 0 0 0 0 0 0 0 1.2 0 0.05
32.998 1.52 0.01 44.6 -0.13 0.44 0.94 0 0 20 2 -1 0 0 0 20 0 0 0 1209 0.38 0 0.45 0.38 0 0.45 1.5 0.5 0.3 2 0.02 0 2 0.05 0 0 0 0 0 0 0 0 0 0 1.2 0 0.05
33.098 1.51 0.01 45.01 -0.13 0.37 1 0 0 20 2 -1 0 0 0 20 0 0 0 1209 0.38 0 0.45 0.38 0 0.45 1.5 0.5 0.3 2 0.02 0 2 0.05 0 0 0 0 0 0 0 0 0 0 1.2 0 0.05
33.198 1.51 0.02 45.35 -0.13 0.37 1 0 0 20 2 -1 0 0 0 20 0 0 0 1208 0.38 0 0.45 0.38 0 0.45 1.5 0.5 0.3 2 0.02 0 2 0.05 0 0 0 0 0 0 0 0 0 0 1.2 0 0.05
33.298 1.49 0.02 45.63 -0.19 0.37 1 0 0 20 2 -1 0 0 0 21 0 0 0 1210 0.38 0 0.45 0.38 0 0.45 1.5 0.5 0.3 2 0.02 0 2 0.05 0 0 0 0 0 0 0 0 0 0 1.2 0 0.05
33.398 1.49 0.03 46.02 -0.06 0.37 0.94 0 0 20 2 -1 0 0 0 21 0 0 0 1210 0.38 0 0.45 0.38 0 0.45 1.5 0.5 0.3 2 0.02 0 2 0.05 0 0 0 0 0 0 0 0 0 0 1.2 0 0.05
33.498 1.49 0.03 46.34 -0.06 0.37 1.06 0 0 20 2 -1 0 0 0 21 0 0 0 1210 0.38 0 0.45 0.38 0 0.45 1.5 0.5 0.3 2 0.02 0 2 0.05 0 0 0 0 0 0 0 0 0 0 1.2 0 0.05
33.598 1.48 0.04 46.82 -0.06 0.37 0.94 0 0 20 2 -1 0 0 0 21 0 0 0 1210 0.38 0 0.45 0.38 0 0.45 1.5 0.5 0.3 2 0.02 0 2 0.05 0 0 0 0 0 0 0 0 0 0 1.2 0 0.05
33.698 1.48 0.04 47.12 -0.06 0.25 1 0 0 20 2 -1 0 0 0 20 0 0 0 1209 0.38 0 0.45 0.38 0 0.45 1.5 0.5 0.3 2 0.02 0 2 0.05 0 0 0 0 0 0 0 0 0 0 1.2 0 0.05
33.798 1.47 0.04 47.45 -0.06 0.19 0.88 0 0 20 1 -1 0 0 0 21 0 0 0 1210 0.38 0 0.45 0.38 0 0.45 1.5 0.5 0.3 2 0.02 0 2 0.05 0 0 0 0 0 0 0 0 0 0 1.2 0 0.05
33.898 1.47 0.05 47.75 0.06 0.25 1 0 0 20 2 -1 0 0 0 20 0 0 0 1209 0.38 0 0.45 0.38 0 0.45 1.5 0.5 0.3 2 0.02 0 2 0.05 0 0 0 0 0 0 0 0 0 0 1.2 0 0.05
33.999 1.47 0.05 48.13 0 0.19 0.94 0 0 20 2 -1 0 0 0 20 0 0 0 1209 0.38 0 0.45 0.38 0 0.45 1.5 0.5 0.3 2 0.02 0 2 0.05 0 0 0 0 0 0 0 0 0 0 1.2 0 0.05
34.099 1.46 0.05 48.37 0 0.19 1 0 0 19 2 -1 0 0 0 21 0 0 0 1210 0.38 0 0.45 0.38 0 0.45 1.5 0.5 0.3 2 0.02 0 2 0.05 0 0 0 0 0 0 0 0 0 0 1.2 0 0.05
34.198 1.46 0.05 48.7 0 0.19 1 0 0 20 2 -1 0 0 0 20 0 0 0 1209 0.38 0 0.45 0.38 0 0.45 1.5 0.5 0.3 2 0.02 0 2 0.05 0 0 0 0 0 0 0 0 0 0 1.2 0 0.05
34.298 1.46 0.05 48.98 -0.13 0.25 0.94 0 0 20 2 -1 0 0 0 21 0 0 0 1210 0.38 0 0.45 0.38 0 0.45 1.5 0.5 0.3 2 0.02 0 2 0.05 0 0 0 0 0 0 0 0 0 0 1.2 0 0.05
34.398 1.46 0.07 49.3 -0.06 0.19 0.94 0 0 20 2 -1 0 0 0 21 0 0 0 1210 0.38 0 0.45 0.38 0 0.45 1.5 0.5 0.3 2 0.02 0 2 0.05 0 0 0 0 0 0 0 0 0 0 1.2 0 0.05
34.499 1.46 0.07 49.59 0 0.19 1.06 0 0 20 2 -1 0 0 0 20 0 0 0 1209 0.38 0 0.45 0.38 0 0.45 1.5 0.5 0.3 2 0.02 0 2 0.05 0 0 0 0 0 0 0 0 0 0 1.2 0 0.05
34.598 1.46 0.07 49.9 -0.06 0.19 0.94 0 0 20 2 -1 0 0 0 20 0 0 0 1209 0.38 0 0.45 0.38 0 0.45 1.5 0.5 0.3 2 0.02 0 2 0.05 0 0 0 0 0 0 0 0 0 0 1.2 0 0.05
34.698 1.46 0.07 50.13 -0.13 0.31 1 0 0 20 2 -1 0 0 0 20 0 0 0 1209 0.38 0 0.45 0.38 0 0.45 1.5 0.5 0.3 2 0.02 0 2 0.05 0 0 0 0 0 0 0 0 0 0 1.2 0 0.05
34.798 1.45 0.07 50.36 -0.06 0.19 0.94 0 0 20 2 -1 0 0 0 20 0 0 0 1208 0.38 0 0.45 0.38 0 0.45 1.5 0.5 0.3 2 0.02 0 2 0.05 0 0 0 0 0 0 0 0 0 0 1.2 0 0.05
34.898 1.45 0.07 50.56 -0.06 0.31 0.94 0 0 20 2 -1 0 0 0 20 0 0 0 1209 0.38 0 0.45 0.38 0 0.45 1.5 0.5 0.3 2 0.02 0 2 0.05 0 0 0 0 0 0 0 0 0 0 1.2 0 0.05
34.998 1.45 0.08 50.75 -0.06 0.25 1 0 0 20 2 -1 0 0 0 20 0 0 0 1209 0.38 0 0.45 0.38 0 0.45 1.5 0.5 0.3 2 0.02 0 2 0.05 0 0 0 0 0 0 0 0 0 0 1.2 0 0.05
35.098 1.45 0.08 50.91 -0.06 0.25 0.94 0 0 20 2 -1 0 0 0 20 0 0 0 1209 0.38 0 0.45 0.38 0 0.45 1.5 0.5 0.3 2 0.02 0 2 0.05 0 0 0 0 0 0 0 0 0 0 1.2 0 0.05
35.198 1.44 0.08 51.09 -0.13 0.31 1.06 0 0 20 2 -1 0 0 0 20 0 0 0 1208 0.38 0 0.45 0.38 0 0.45 1.5 0.5 0.3 2 0.02 0 2 0.05 0 0 0 0 0 0 0 0 0 0 1.2 0 0.05
35.299 1.44 0.08 51.28 -0.06 0.19 0.94 0 0 20 2 -1 0 0 0 20 0 0 0 1209 0.38 0 0.45 0.38 0 0.45 1.5 0.5 0.3 2 0.02 0 2 0.05 0 0 0 0 0 0 0 0 0 0 1.2 0 0.05
35.398 1.43 0.08 51.44 -0.06 0.37 1.06 0 0 20 2 -1 0 0 0 20 0 0 0 1209 0.38 0 0.45 0.38 0 0.45 1.5 0.5 0.3 2 0.02 0 2 0.05 0 0 0 0 0 0 0 0 0 0 1.2 0 0.05
35.498 1.43 0.08 51.61 -0.06 0.19 0.94 0 0 20 2 -1 0 0 0 20 0 0 0 1209 0.38 0 0.45 0.38 0 0.45 1.5 0.5 0.3 2 0.02 0 2 0.05 0 0 0 0 0 0 0 0 0 0 1.2 0 0.05
35.598 1.43 0.08 51.8 -0.06 0.25 1 0 0 20 2 -1 0 0 0 20 0 0 0 1209 0.38 0 0.45 0.38 0 0.45 1.5 0.5 0.3 2 0.02 0 2 0.05 0 0 0 0 0 0 0 0 0 0 1.2 0 0.05
35.698 1.44 0.08 52.04 -0.06 0.31 1 0 0 20 2 -1 0 0 0 21 0 0 0 1210 0.38 0 0.45 0.38 0 0.45 1.5 0.5 0.3 2 0.02 0 2 0.05 0 0 0 0 0 0 0 0 0 0 1.2 0 0.05
35.798 1.44 0.08 52.17 -0.13 0.25 1 0 0 20 2 -1 0 0 0 21 0 0 0 1210 0.38 0 0.45 0.38 0 0.45 1.5 0.5 0.3 2 0.02 0 2 0.05 0 0 0 0 0 0 0 0 0 0 1.2 0 0.05
35.898 1.43 0.08 52.31 -0.06 0.31 1 0 0 20 2 -1 0 0 0 21 0 0 0 1210 0.38 0 0.45 0.38 0 0.45 1.5 0.5 0.3 2 0.02 0 2 0.05 0 0 0 0 0 0 0 0 0 0 1.2 0 0.05
35.998 1.43 0.08 52.39 -0.06 0.31 0.88 0 0 20 2 -1 0 0 0 20 0 0 0 1209 0.38 0 0.45 0.38 0 0.45 1.5 0.5 0.3 2 0.02 0 2 0.05 0 0 0 0 0 0 0 0 0 0 1.2 0 0.05
36.098 1.43 0.08 52.53 -0.06 0.25 1 0 0 20 2 -1 0 0 0 20 0 0 0 1209 0.38 0 0.45 0.38 0 0.45 1.5 0.5 0.3 2 0.02 0 2 0.05 0 0 0 0 0 0 0 0 0 0 1.2 0 0.05
36.198 1.43 0.08 52.68 -0.06 0.25 0.94 0 0 19 2 -1 0 0 0 20 0 0 0 1209 0.38 0 0.45 0.38 0 0.45 1.5 0.5 0.3 2 0.02 0 2 0.05 0 0 0 0 0 0 0 0 0 0 1.2 0 0.05
36.299 1.43 0.08 52.76 -0.06 0.19 0.94 0 0 20 2 -1 0 0 0 21 0 0 0 1210 0.38 0 0.45 0.38 0 0.45 1.5 0.5 0.3 2 0.02 0 2 0.05 0 0 0 0 0 0 0 0 0 0 1.2 0 0.05
36.399 1.43 0.09 52.88 -0.13 0.37 0.94 0 0 20 2 -1 0 0 0 21 0 0 0 1210 0.38 0 0.45 0.38 0 0.45 1.5 0.5 0.3 2 0.02 0 2 0.05 0 0 0 0 0 0 0 0 0 0 1.2 0 0.05
36.498 1.43 0.09 53.01 -0.13 0.25 1.06 0 0 20 2 -1 0 0 0 21 0 0 0 1210 0.38 0 0.45 0.38 0 0.45 1.5 0.5 0.3 2 0.02 0 2 0.05 0 0 0 0 0 0 0 0 0 0 1.2 0 0.05
36.498 1.43 0.09 53.01 -0.13 0.25 1.06 0 0 20 2 -1 0 0 0 21 0 0 0 1210 0.38 0 0.45 0.38 0 0.45 1.5 0.5 0.3 2 0.02 0 2 0.05 0 0 0 0 0 0 0 0 0 0 1.2 0 0.05
36.699 1.43 0.09 53.31 -0.06 0.25 1 0 0 20 2 -1 0 0 0 20 0 0 0 1209 0.38 0 0.45 0.38 0 0.45 1.5 0.5 0.3 2 0.02 0 2 0.05 0 0 0 0 0 0 0 0 0 0 1.2 0 0.05
36.798 1.43 0.09 53.45 -0.06 0.25 1 0 0 20 2 -1 0 0 0 20 0 0 0 1209 0.38 0 0.45 0.38 0 0.45 1.5 0.5 0.3 2 0.02 0 2 0.05 0 0 0 0 0 0 0 0 0 0 1.2 0 0.05
36.899 1.43 0.09 53.58 -0.06 0.37 0.94 0 0 20 2 -1 0 0 0 20 0 0 0 1209 0.38 0 0.45 0.38 0 0.45 1.5 0.5 0.3 2 0.02 0 2 0.05 0 0 0 0 0 0 0 0 0 0 1.2 0 0.05
36.999 1.43 0.09 53.71 -0.06 0.19 1 0 0 20 2 -1 0 0 0 21 0 0 0 1210 0.38 0 0.45 0.38 0 0.45 1.5 0.5 0.3 2 0.02 0 2 0.05 0 0 0 0 0 0 0 0 0 0 1.2 0 0.05
37.099 1.43 0.1 53.83 -0.13 0.19 1 0 0 20 2 -1 0 0 0 20 0 0 0 1209 0.38 0 0.45 0.38 0 0.45 1.5 0.5 0.3 2 0.02 0 2 0.05 0 0 0 0 0 0 0 0 0 0 1.2 0 0.05
37.199 1.44 0.1 53.93 -0.06 0.31 1 0 0 20 2 -1 0 0 0 20 0 0 0 1209 0.38 0 0.45 0.38 0 0.45 1.5 0.5 0.3 2 0.02 0 2 0.05 0 0 0 0 0 0 0 0 0 0 1.2 0 0.05
37.298 1.43 0.1 54.02 -0.06 0.31 1 0 0 20 2 -1 0 0 0 20 0 0 0 1209 0.38 0 0.45 0.38 0 0.45 1.5 0.5 0.3 2 0.02 0 2 0.05 0 0 0 0 0 0 0 0 0 0 1.2 0 0.05
37.399 1.43 0.1 54.14 -0.13 0.31 1 0 0 20 2 -1 0 0 0 20 0 0 0 1209 0.38 0 0.45 0.38 0 0.45 1.5 0.5 0.3 2 0.02 0 2 0.05 0 0 0 0 0 0 0 0 0 0 1.2 0 0.05
37.499 1.43 0.1 54.32 -0.13 0.19 0.94 0 0 20 2 -1 0 0 0 20 0.84 -3.05 -57.46 1209 0.38 0 0.45 0.38 0 0.45 1.5 0.5 0.3 2 0.02 0 2 0.05 0 0 0 0 0 0 0 0 0 0 1.2 0 0.05
37.598 1.43 0.1 54.45 -0.13 0.25 1.06 0 0 20 2 -1 0 0 0 21 0.84 -3.11 -57.57 1210 0.38 0 0.45 0.38 0 0.45 1.5 0.5 0.3 2 0.02 0 2 0.05 0 0 0 0 0 0 0 0 0 0 1.2 0 0.05
37.699 1.43 0.1 54.61 -0.06 0.25 0.94 0 0 20 2 -1 0 0 0 21 0.76 -3.11 -57.49 1210 0.38 0 0.45 0.38 0 0.45 1.5 0.5 0.3 2 0.02 0 2 0.05 0 0 0 0 0 0 0 0 0 0 1.2 0 0.05
37.798 1.43 0.1 54.79 -0.06 0.25 1 0 0 21 2 -1 0 0 0 20 0.76 -3.11 -57.43 1208 0.38 0 0.45 0.38 0 0.45 1.5 0.5 0.3 2 0.02 0 2 0.05 0 0 0 0 0 0 0 0 0 0 1.2 0 0.05
37.898 1.43 0.09 54.87 -0.13 0.31 1.06 0 0 19 1 -1 0 0 0 21 0.08 -3.16 -57.47 1210 0.38 0 0.45 0.38 0 0.45 1.5 0.5 0.3 2 0.02 0 2 0.05 0 0 0 0 0 0 0 0 0 0 1.2 0 0.05
37.998 1.43 0.1 54.92 -0.06 0.31 1.06 0 0 20 2 -1 0 0 0 20 0.82 -3.17 -57.6 1209 0.38 0 0.45 0.38 0 0.45 1.5 0.5 0.3 2 0.02 0 2 0.05 0 0 0 0 0 0 0 0 0 0 1.2 0 0.05
38.098 1.43 0.1 54.99 -0.06 0.31 1 0 0 20 2 -1 0 0 0 20 0.76 -3.15 -57.47 1209 0.38 0 0.45 0.38 0 0.45 1.5 0.5 0.3 2 0.02 0 2 0.05 0 0 0 0 0 0 0 0 0 0 1.2 0 0.05
38.199 1.43 0.09 55.11 0 0.19 0.94 0 0 20 2 -1 0 0 0 20 0.71 -3.04 -55.91 1209 0.38 0 0.45 0.38 0 0.45 1.5 0.5 0.3 2 0.02 0 2 0.05 0 0 0 0 0 0 0 0 0 0 1.2 0 0.05
38.299 1.43 0.09 55.18 -0.06 0.25 0.88 0 0 20 2 -1 0 0 0 20 0.76 -3.09 -57.36 1209 0.38 0 0.45 0.38 0 0.45 1.5 0.5 0.3 2 0.02 0 2 0.05 0 0 0 0 0 0 0 0 0 0 1.2 0 0.05
38.398 1.43 0.1 55.28 0 0.25 1.06 0 0 20 2 -1 0 0 0 20 0.74 -3.1 -57.5 1209 0.38 0 0.45 0.38 0 0.45 1.5 0.5 0.3 2 0.02 0 2 0.05 0 0 0 0 0 0 0 0 0 0 1.2 0 0.05
38.498 1.43 0.1 55.45 -0.06 0.25 1 0 0 20 2 -1 0 0 0 21 0.76 -3.11 -56.02 1210 0.38 0 0.45 0.38 0 0.45 1.5 0.5 0.3 2 0.02 0 2 0.05 0 0 0 0 0 0 0 0 0 0 1.2 0 0.05
38.598 1.43 0.1 55.5 -0.06 0.31 1 0 0 19 2 -1 0 0 0 21 0.79 -3.16 -57.47 1210 0.38 0 0.45 0.38 0 0.45 1.5 0.5 0.3 2 0.02 0 2 0.05 0 0 0 0 0 0 0 0 0 0 1.2 0 0.05
38.698 1.43 0.1 55.59 -0.19 0.25 1 0 0 20 2 -1 0 0 0 20 0.9 -3.14 -56.01 1209 0.38 0 0.45 0.38 0 0.45 1.5 0.5 0.3 2 0.02 0 2 0.05 0 0 0 0 0 0 0 0 0 0 1.2 0 0.05
38.798 1.43 0.1 55.68 -0.06 0.31 1.06 0 0 20 2 -1 0 0 0 21 0.79 -3.2 -57.54 1210 0.38 0 0.45 0.38 0 0.45 1.5 0.5 0.3 2 0.02 0 2 0.05 0 0 0 0 0 0 0 0 0 0 1.2 0 0.05
38.898 1.43 0.1 55.76 -0.19 0.25 0.94 0 0 20 2 -1 0 0 0 20 0.9 -3.12 -57.43 1209 0.38 0 0.45 0.38 0 0.45 1.5 0.5 0.3 2 0.02 0 2 0.05 0 0 0 0 0 0 0 0 0 0 1.2 0 0.05
38.999 1.43 0.09 55.85 -0.13 0.25 1 0 0 20 2 -1 0 0 0 20 0.82 -3.14 -57.5 1209 0.38 0 0.45 0.38 0 0.45 1.5 0.5 0.3 2 0.02 0 2 0.05 0 0 0 0 0 0 0 0 0 0 1.2 0 0.05
39.098 1.43 0.09 55.81 0 0.25 1 0 0 20 2 -1 0 0 0 20 0.74 -3.12 -57.49 1209 0.38 0 0.45 0.38 0 0.45 1.5 0.5 0.3 2 0.02 0 2 0.05 0 0 0 0 0 0 0 0 0 0 1.2 0 0.05
39.199 1.43 0.1 55.87 0 0.25 1 0 0 19 1 -1 0 0 0 21 -0.02 -3.13 -57.56 1210 0.38 0 0.45 0.38 0 0.45 1.5 0.5 0.3 2 0.02 0 2 0.05 0 0 0 0 0 0 0 0 0 0 1.2 0 0.05
39.299 1.43 0.09 55.92 0 0.31 0.94 0 0 20 2 -1 0 0 0 20 0.77 -3.18 -57.47 1209 0.38 0 0.45 0.38 0 0.45 1.5 0.5 0.3 2 0.02 0 2 0.05 0 0 0 0 0 0 0 0 0 0 1.2 0 0.05
39.399 1.43 0.09 55.99 -0.06 0.25 0.94 0 0 20 2 -1 0 0 0 20 0.8 -3.16 -57.46 1209 0.38 0 0.45 0.38 0 0.45 1.5 0.5 0.3 2 0.02 0 2 0.05 0 0 0 0 0 0 0 0 0 0 1.2 0 0.05
39.499 1.43 0.09 56.04 -0.13 0.19 1 0 0 20 2 -1 0 0 0 21 1.72 -3.14 -55.67 1210 0.38 0 0.45 0.38 0 0.45 1.5 0.5 0.3 2 0.02 0 2 0.05 0 0 0 0 0 0 0 0 0 0 1.2 0 0.05
39.599 1.43 0.09 56.12 -0.06 0.25 1 0 0 20 2 -1 0 0 0 21 0.77 -3.13 -57.43 1210 0.38 0 0.45 0.38 0 0.45 1.5 0.5 0.3 2 0.02 0 2 0.05 0 0 0 0 0 0 0 0 0 0 1.2 0 0.05
39.699 1.43 0.1 56.18 -0.06 0.19 1.06 0 0 19 2 -1 0 0 0 20 0.8 -3.15 -57.54 1209 0.38 0 0.45 0.38 0 0.45 1.5 0.5 0.3 2 0.02 0 2 0.05 0 0 0 0 0 0 0 0 0 0 1.2 0 0.05
39.798 1.43 0.1 56.25 -0.13 0.31 1 0 0 22 2 -1 0 0 0 20 0.85 -3.2 -55.97 1209 0.38 0 0.45 0.38 0 0.45 1.5 0.5 0.3 2 0.02 0 2 0.05 0 0 0 0 0 0 0 0 0 0 1.2 0 0.05
39.899 1.43 0.1 56.3 -0.06 0.25 1.06 0 0 20 2 -1 0 0 0 21 0.83 -3.18 -57.49 1210 0.38 0 0.45 0.38 0 0.45 1.5 0.5 0.3 2 0.02 0 2 0.05 0 0 0 0 0 0 0 0 0 0 1.2 0 0.05
39.998 1.43 0.1 56.37 -0.13 0.31 1 0 0 20 2 -1 0 0 0 20 0.82 -3.24 -57.47 1209 0.38 0 0.45 0.38 0 0.45 1.5 0.5 0.3 2 0.02 0 2 0.05 0 0 0 0 0 0 0 0 0 0 1.2 0 0.05
40.098 1.43 0.1 56.48 -0.06 0.25 1 0 0 20 2 -1 0 0 0 20 0.8 -3.19 -55.97 1209 0.38 0 0.45 0.38 0 0.45 1.5 0.5 0.3 2 0.02 0 2 0.05 0 0 0 0 0 0 0 0 0 0 1.2 0 0.05
40.199 1.43 0.1 56.56 -0.13 0.31 1 0 0 20 2 -1 0 0 0 20 0.83 -3.19 -55.64 1209 0.38 0 0.45 0.38 0 0.45 1.5 0.5 0.3 2 0.02 0 2 0.05 0 0 0 0 0 0 0 0 0 0 1.2 0 0.05
40.298 1.43 0.09 56.66 -0.13 0.31 1 0 0 20 2 -1 0 0 0 20 0.83 -3.18 -57.53 1209 0.38 0 0.45 0.38 0 0.45 1.5 0.5 0.3 2 0.02 0 2 0.05 0 0 0 0 0 0 0 0 0 0 1.2 0 0.05
40.42 1.43 0.1 56.73 -0.06 0.31 0.94 0 0 20 2 -1 0 0 0 20 0.77 -3.22 -57.76 1209 0.38 0 0.45 0.38 0 0.45 1.5 0.5 0.3 2 0.02 0 2 0.05 0 0 0 0 0 0 0 0 0 0 1.2 0 0.05
40.499 1.43 0.1 56.74 -0.13 0.25 1 0 0 19 2 -1 0 0 0 20 0.86 -3.2 -57.44 1209 0.38 0 0.45 0.38 0 0.45 1.5 0.5 0.3 2 0.02 0 2 0.05 0 0 0 0 0 0 0 0 0 0 1.2 0 0.05
40.599 1.43 0.1 56.74 -0.06 0.31 1 0 0 20 2 -1 0 0 0 20 0.8 -3.2 -57.47 1209 0.38 0 0.45 0.38 0 0.45 1.5 0.5 0.3 2 0.02 0 2 0.05 0 0 0 0 0 0 0 0 0 0 1.2 0 0.05
40.699 1.43 0.1 56.82 0 0.25 1 0 0 20 2 -1 0 0 0 20 0.72 -3.21 -55.74 1209 0.38 0 0.45 0.38 0 0.45 1.5 0.5 0.3 2 0.02 0 2 0.05 0 0 0 0 0 0 0 0 0 0 1.2 0 0.05
40.799 1.43 0.1 56.87 -0.13 0.25 1 0 0 20 2 -1 0 0 0 20 0.83 -3.18 -57.47 1209 0.38 0 0.45 0.38 0 0.45 1.5 0.5 0.3 2 0.02 0 2 0.05 0 0 0 0 0 0 0 0 0 0 1.2 0 0.05
40.898 1.43 0.1 56.95 -0.06 0.25 1.06 0 0 20 2 -1 0 0 0 20 0.78 -3.21 -57.51 1208 0.38 0 0.45 0.38 0 0.45 1.5 0.5 0.3 2 0.02 0 2 0.05 0 0 0 0 0 0 0 0 0 0 1.2 0 0.05
40.999 1.43 0.09 57.08 -0.06 0.31 0.94 0 0 20 2 -1 0 0 0 20 0.83 -3.26 -57.53 1209 0.38 0 0.45 0.38 0 0.45 1.5 0.5 0.3 2 0.02 0 2 0.05 0 0 0 0 0 0 0 0 0 0 1.2 0 0.05
41.098 1.43 0.09 57.21 -0.06 0.31 1 0 0 20 2 -1 0 0 0 21 0.78 -3.24 -56.06 1210 0.38 0 0.45 0.38 0 0.45 1.5 0.5 0.3 2 0.02 0 2 0.05 0 0 0 0 0 0 0 0 0 0 1.2 0 0.05
41.198 1.43 0.1 57.26 -0.06 0.31 0.94 0 0 20 2 -1 0 0 0 20 0.78 -3.25 -57.46 1209 0.38 0 0.45 0.38 0 0.45 1.5 0.5 0.3 2 0.02 0 2 0.05 0 0 0 0 0 0 0 0 0 0 1.2 0 0.05
41.299 1.43 0.1 57.29 -0.13 0.31 1 0 0 23 2 -1 0 0 0 20 0.83 -3.25 -57.53 1209 0.38 0 0.45 0.38 0 0.45 1.5 0.5 0.3 2 0.02 0 2 0.05 0 0 0 0 0 0 0 0 0 0 1.2 0 0.05
41.399 1.43 0.1 57.32 -0.19 0.31 1 0 0 20 2 -1 0 0 0 20 0.89 -3.28 -57.54 1209 0.38 0 0.45 0.38 0 0.45 1.5 0.5 0.3 2 0.02 0 2 0.05 0 0 0 0 0 0 0 0 0 0 1.2 0 0.05
41.499 1.43 0.1 57.34 -0.13 0.25 0.94 0 0 20 2 -1 0 0 0 20 0.86 -3.18 -57.46 1209 0.38 0 0.45 0.38 0 0.45 1.5 0.5 0.3 2 0.02 0 2 0.05 0 0 0 0 0 0 0 0 0 0 1.2 0 0.05
41.599 1.43 0.1 57.4 -0.13 0.37 1.12 0 0 20 2 -1 0 0 0 20 0.83 -3.31 -57.55 1209 0.38 0 0.45 0.38 0 0.45 1.5 0.5 0.3 2 0.02 0 2 0.05 0 0 0 0 0 0 0 0 0 0 1.2 0 0.05
41.699 1.43 0.1 57.41 -0.06 0.31 0.94 0 0 20 2 -1 0 0 0 21 0.81 -3.26 -57.42 1210 0.38 0 0.45 0.38 0 0.45 1.5 0.5 0.3 2 0.02 0 2 0.05 0 0 0 0 0 0 0 0 0 0 1.2 0 0.05
41.799 1.43 0.1 57.39 -0.13 0.37 1 0 0 20 2 -1 0 0 0 20 0.86 -3.29 -57.47 1209 0.38 0 0.45 0.38 0 0.45 1.5 0.5 0.3 2 0.02 0 2 0.05 0 0 0 0 0 0 0 0 0 0 1.2 0 0.05
41.899 1.43 0.11 57.36 0 0.31 0.94 0 0 19 2 -1 0 0 0 20 0.76 -3.31 -57.39 1209 0.38 0 0.45 0.38 0 0.45 1.5 0.5 0.3 2 0.02 0 2 0.05 0 0 0 0 0 0 0 0 0 0 1.2 0 0.05
41.999 1.43 0.1 57.45 -0.13 0.31 1 0 0 20 2 -1 0 0 0 20 0.87 -3.27 -57.51 1209 0.38 0 0.45 0.38 0 0.45 1.5 0.5 0.3 2 0.02 0 2 0.05 0 0 0 0 0 0 0 0 0 0 1.2 0 0.05
42.099 1.43 0.1 57.5 -0.06 0.31 1 0 0 19 2 -1 0 0 0 20 0.84 -3.28 -57.44 1209 0.38 0 0.45 0.38 0 0.45 1.5 0.5 0.3 2 0.02 0 2 0.05 0 0 0 0 0 0 0 0 0 0 1.2 0 0.05
42.199 1.43 0.1 57.59 -0.06 0.19 1 0 0 20 2 -1 0 0 0 21 0.79 -3.23 -57.44 1210 0.38 0 0.45 0.38 0 0.45 1.5 0.5 0.3 2 0.02 0 2 0.05 0 0 0 0 0 0 0 0 0 0 1.2 0 0.05
42.299 1.43 0.1 57.58 -0.06 0.31 0.94 0 0 20 2 -1 0 0 0 20 0.79 -3.31 -57.4 1209 0.38 0 0.45 0.38 0 0.45 1.5 0.5 0.3 2 0.02 0 2 0.05 0 0 0 0 0 0 0 0 0 0 1.2 0 0.05
42.399 1.43 0.1 57.58 -0.13 0.31 0.94 0 0 20 2 -1 0 0 0 20 0.87 -3.29 -57.46 1209 0.38 0 0.45 0.38 0 0.45 1.5 0.5 0.3 2 0.02 0 2 0.05 0 0 0 0 0 0 0 0 0 0 1.2 0 0.05
42.499 1.43 0.1 57.61 -0.13 0.37 0.94 0 0 20 2 -1 0 0 0 21 0.84 -3.34 -57.49 1210 0.38 0 0.45 0.38 0 0.45 1.5 0.5 0.3 2 0.02 0 2 0.05 0 0 0 0 0 0 0 0 0 0 1.2 0 0.05
42.599 1.43 0.1 57.6 -0.13 0.31 1 0 0 20 2 -1 0 0 0 20 0.84 -3.32 -57.46 1209 0.38 0 0.45 0.38 0 0.45 1.5 0.5 0.3 2 0.02 0 2 0.05 0 0 0 0 0 0 0 0 0 0 1.2 0 0.05
42.698 1.43 0.1 57.61 -0.06 0.31 1 0 0 20 2 -1 0 0 0 20 0.82 -3.3 -57.47 1209 0.38 0 0.45 0.38 0 0.45 1.5 0.5 0.3 2 0.02 0 2 0.05 0 0 0 0 0 0 0 0 0 0 1.2 0 0.05
42.799 1.43 0.1 57.66 -0.06 0.25 1 0 0 20 2 -1 0 0 0 20 0.82 -3.22 -57.51 1209 0.38 0 0.45 0.38 0 0.45 1.5 0.5 0.3 2 0.02 0 2 0.05 0 0 0 0 0 0 0 0 0 0 1.2 0 0.05
42.899 1.44 0.1 57.32 0.06 1.81 0.75 0 0 20 2 -1 0 0 0 20 1.58 -4.7 -56.5 1209 0.38 0 0.45 0.38 0 0.45 1.5 0.5 0.3 2 0.02 0 2 0.05 0 0 0 0 0 0 0 0 0 0 1.2 0 0.05
42.999 1.42 0.11 56.13 -1.37 -0.06 1.25 0 0 20 2 -1 0 0 0 20 0.89 -2.39 -57.42 1209 0.38 0 0.45 0.38 0 0.45 1.5 0.5 0.3 2 0.02 0 2 0.05 0 0 0 0 0 0 0 0 0 0 1.2 0 0.05
43.099 1.42 0.11 55.12 0 -0.44 1.25 0 0 20 2 -1 0 0 0 21 1.2 -3.11 -58.03 1210 0.38 0 0.45 0.38 0 0.45 1.5 0.5 0.3 2 0.02 0 2 0.05 0 0 0 0 0 0 0 0 0 0 1.2 0 0.05
43.199 1.41 0.12 53.69 0.81 -0.69 1.19 0 0 20 2 -1 0 0 0 20 0.33 -2.64 -57.61 1209 0.38 0 0.45 0.38 0 0.45 1.5 0.5 0.3 2 0.02 0 2 0.05 0 0 0 0 0 0 0 0 0 0 1.2 0 0.05
43.299 1.4 0.11 52.98 -2 -1.31 0.94 0 0 20 2 -1 0 0 0 21 0.96 -2.75 -58.56 1210 0.38 0 0.45 0.38 0 0.45 1.5 0.5 0.3 2 0.02 0 2 0.05 0 0 0 0 0 0 0 0 0 0 1.2 0 0.05
43.399 1.43 0.12 52.35 -0.44 -0.94 3.81 0 0 20 2 -1 0 0 0 20 1.57 -1.9 -61.01 1209 0.38 0 0.45 0.38 0 0.45 1.5 0.5 0.3 2 0.02 0 2 0.05 0 0 0 0 0 0 0 0 0 0 1.2 0 0.05
43.499 1.44 0.11 52.05 0.25 0.25 2.69 0 0 20 2 -1 0 0 0 20 2.71 -3.28 -57.44 1209 0.38 0 0.45 0.38 0 0.45 1.5 0.5 0.3 2 0.02 0 2 0.05 0 0 0 0 0 0 0 0 0 0 1.2 0 0.05
43.599 1.42 0.1 50.55 1.06 -0.69 4 0 0 20 2 -1 0 0 0 20 0.02 -2.63 -59.34 1209 0.38 0 0.45 0.38 0 0.45 1.5 0.5 0.3 2 0.02 0 2 0.05 0 0 0 0 0 0 0 0 0 0 1.2 0 0.05
43.699 1.38 0.1 49.24 -3.75 0.13 -1.25 0 0 20 2 -1 0 0 0 20 3.91 -3.53 -57.41 1209 0.38 0 0.45 0.38 0 0.45 1.5 0.5 0.3 2 0.02 0 2 0.05 0 0 0 0 0 0 0 0 0 0 1.2 0 0.05
43.799 1.41 0.12 47.64 3.06 -0.44 1.37 0 0 20 2 -1 0 0 0 20 -1.85 -2.87 -61.64 1209 0.38 0 0.45 0.38 0 0.45 1.5 0.5 0.3 2 0.02 0 2 0.05 0 0 0 0 0 0 0 0 0 0 1.2 0 0.05
43.899 1.42 0.12 46.78 0 1.56 4.56 0 0 21 2 -1 0 0 0 20 4.12 -4.15 -58.17 1209 0.38 0 0.45 0.38 0 0.45 1.5 0.5 0.3 2 0.02 0 2 0.05 0 0 0 0 0 0 0 0 0 0 1.2 0 0.05
43.999 1.41 0.1 46 0.56 -0.88 4.12 0 0 20 2 -1 0 0 0 20 -1.2 -3.54 -56.38 1209 0.38 0 0.45 0.38 0 0.45 1.5 0.5 0.3 2 0.02 0 2 0.05 0 0 0 0 0 0 0 0 0 0 1.2 0 0.05
44.099 1.43 0.1 44.96 0 -1.06 5.56 0 0 20 2 -1 0 0 0 21 2.74 -1.7 -55.47 1210 0.38 0 0.45 0.38 0 0.45 1.5 0.5 0.3 2 0.02 0 2 0.05 0 0 0 0 0 0 0 0 0 0 1.2 0 0.05
44.199 1.43 0.1 44.36 5.56 -0.62 3.31 0 0 20 2 -1 0 0 0 20 -7.24 -3.21 -54.76 1209 0.38 0 0.45 0.38 0 0.45 1.5 0.5 0.3 2 0.02 0 2 0.05 0 0 0 0 0 0 0 0 0 0 1.2 0 0.05
44.299 1.43 0.12 43.36 -4.31 0 3.81 0 0 20 2 -1 0 0 0 20 5.49 -1.65 -54.19 1209 0.38 0 0.45 0.38 0 0.45 1.5 0.5 0.3 2 0.02 0 2 0.05 0 0 0 0 0 0 0 0 0 0 1.2 0 0.05
44.399 1.43 0.12 42.69 7.44 -2.06 3.81 0 0 20 2 -1 0 0 0 21 -8.03 -1.48 -54.26 1216 0.38 0 0.45 0.38 0 0.45 1.5 0.5 0.3 2 0.02 0 2 0.05 0 0 0 0 0 0 0 0 0 0 1.2 0 0.05
44.499 1.43 0.13 41.8 -0.88 -2.19 4.06 0 0 21 2 -1 0 0 0 23 1.64 0.17 -54.65 1231 0.38 0 0.45 0.38 0 0.45 1.5 0.5 0.3 2 0.02 0 2 0.05 0 0 0 0 0 0 0 0 0 0 1.2 0 0.05
44.599 1.44 0.14 41.13 4.5 -0.81 1.06 0 0 20 2 -1 0 0 0 23 -1.71 -1.08 -53.19 1233 0.38 0 0.45 0.38 0 0.45 1.5 0.5 0.3 2 0.02 0 2 0.05 0 0 0 0 0 0 0 0 0 0 1.2 0 0.05
44.699 1.41 0.11 40.13 4 -1.81 -1.44 0 0 21 1 -1 0 0 0 26 -6.46 -1.19 -51.79 1260 0.38 0 0.45 0.38 0 0.45 1.5 0.5 0.3 2 0.02 0 2 0.05 0 0 0 0 0 0 0 0 0 0 1.2 0 0.05
44.799 1.38 0.08 39.3 9.69 0.06 0.19 0 0 22 1 -1 0 0 0 28 -9.09 -3.28 -50.59 1287 0.38 0 0.45 0.38 0 0.45 1.5 0.5 0.3 2 0.02 0 2 0.05 0 0 0 0 0 0 0 0 0 0 1.2 0 0.05
44.899 1.36 0.04 39.39 -3 -2.44 -1.62 0 0 21 2 -1 0 0 0 28 1.88 -1.46 -52.97 1287 0.38 0 0.45 0.38 0 0.45 1.5 0.5 0.3 2 0.02 0 2 0.05 0 0 0 0 0 0 0 0 0 0 1.2 0 0.05
44.999 1.32 0.01 39.5 -7.06 -3.19 -0.56 0 0 21 2 -1 0 0 0 30 8.81 1.32 -52.09 1301 0.38 0 0.45 0.38 0 0.45 1.5 0.5 0.3 2 0.02 0 2 0.05 0 0 0 0 0 0 0 0 0 0 1.2 0 0.05
45.099 1.35 0.01 39.56 -5.56 -0.88 5.06 0 0 21 2 -1 0 0 0 32 7.27 -0.84 -50.77 1320 0.38 0 0.45 0.38 0 0.45 1.5 0.5 0.3 2 0.02 0 2 0.05 0 0 0 0 0 0 0 0 0 0 1.2 0 0.05
45.199 1.27 -0.04 39.59 -4.12 -0.62 1.44 0 0 21 2 -1 0 0 0 34 2.3 -3.41 -53.71 1345 0.38 0 0.45 0.38 0 0.45 1.5 0.5 0.3 2 0.02 0 2 0.05 0 0 0 0 0 0 0 0 0 0 1.2 0 0.05
