time roll pitch yaw roll_d pitch_d yaw_d longitude latitude height roll_t pitch_t yaw_t longitude_t latitude_t height_t roll_signal pitch_signal yaw_signal throttle Kp_r_d Ki_r_d Kd_r_d Kp_p_d Ki_p_d Kd_p_d Kp_y_d Ki_y_d Kd_y_d Kp_r Ki_r Kd_r Kp_p Ki_p Kd_p Kp_y Ki_y Kd_y Kp_lon Ki_lon Kd_lon Kp_lat Ki_lat Kd_lat Kp_h Ki_h Kd_h
0 0 0 0 0 0 0 0 0 0 0 0 0 0 0 25 0 0 0 1250 0.5 0.1 0.3 0.5 0.1 0.3 1.5 0.5 0.3 1.7 0 0 1.7 0 0 0 0 0 0 0 0 0 0 0 1.5 0 0.11
59.679 0.24 0.64 275.9 -1.06 0.62 14.69 0 0 23 0 0 0 0 0 25 0 0 0 1250 0.5 0.1 0.3 0.5 0.1 0.3 1.5 0.5 0.3 1.7 0 0 1.7 0 0 0 0 0 0 0 0 0 0 0 1.5 0 0.11
59.778 0.24 0.65 277.57 -1.06 0.62 14.75 0 0 25 0 -37 0 0 0 25 0 0 0 1250 0.5 0.1 0.3 0.5 0.1 0.3 1.5 0.5 0.3 1.7 0 0 1.7 0 0 0 0 0 0 0 0 0 0 0 1.5 0 0.11
59.878 0.24 0.65 279.33 -0.94 0.69 14.75 0 0 23 0 -37 0 0 0 25 0 0 0 1250 0.5 0.1 0.3 0.5 0.1 0.3 1.5 0.5 0.3 1.7 0 0 1.7 0 0 0 0 0 0 0 0 0 0 0 1.5 0 0.11
59.979 0.24 0.65 281.45 -1 0.62 14.69 0 0 23 0 -37 0 0 0 25 0 0 0 1250 0.5 0.1 0.3 0.5 0.1 0.3 1.5 0.5 0.3 1.7 0 0 1.7 0 0 0 0 0 0 0 0 0 0 0 1.5 0 0.11
60.079 0.25 0.65 283.49 -1.06 0.56 14.63 0 0 23 0 -37 0 0 0 25 0 0 0 1250 0.5 0.1 0.3 0.5 0.1 0.3 1.5 0.5 0.3 1.7 0 0 1.7 0 0 0 0 0 0 0 0 0 0 0 1.5 0 0.11
60.178 0.25 0.65 286.05 -1.06 0.56 14.75 0 0 23 0 -37 0 0 0 25 0 0 0 1250 0.5 0.1 0.3 0.5 0.1 0.3 1.5 0.5 0.3 1.7 0 0 1.7 0 0 0 0 0 0 0 0 0 0 0 1.5 0 0.11
60.279 0.26 0.65 288.28 -1.06 0.62 14.69 0 0 22 0 -37 0 0 0 25 0 0 0 1250 0.5 0.1 0.3 0.5 0.1 0.3 1.5 0.5 0.3 1.7 0 0 1.7 0 0 0 0 0 0 0 0 0 0 0 1.5 0 0.11
60.379 0.26 0.65 291.04 -1.06 0.69 14.69 0 0 23 0 -37 0 0 0 25 0 0 0 1250 0.5 0.1 0.3 0.5 0.1 0.3 1.5 0.5 0.3 1.7 0 0 1.7 0 0 0 0 0 0 0 0 0 0 0 1.5 0 0.11
60.479 0.26 0.65 293.43 -1.12 0.5 14.69 0 0 23 0 -37 0 0 0 25 0 0 0 1250 0.5 0.1 0.3 0.5 0.1 0.3 1.5 0.5 0.3 1.7 0 0 1.7 0 0 0 0 0 0 0 0 0 0 0 1.5 0 0.11
60.579 0.27 0.65 296.37 -1.06 0.62 14.69 0 0 23 0 -37 0 0 0 25 0 0 0 1250 0.5 0.1 0.3 0.5 0.1 0.3 1.5 0.5 0.3 1.7 0 0 1.7 0 0 0 0 0 0 0 0 0 0 0 1.5 0 0.11
60.679 0.27 0.65 298.79 -1.06 0.56 14.75 0 0 23 0 -37 0 0 0 25 0 0 0 1250 0.5 0.1 0.3 0.5 0.1 0.3 1.5 0.5 0.3 1.7 0 0 1.7 0 0 0 0 0 0 0 0 0 0 0 1.5 0 0.11
60.779 0.29 0.65 301.21 -1 0.62 14.69 0 0 23 0 -37 0 0 0 25 0 0 0 1250 0.5 0.1 0.3 0.5 0.1 0.3 1.5 0.5 0.3 1.7 0 0 1.7 0 0 0 0 0 0 0 0 0 0 0 1.5 0 0.11
60.879 0.29 0.65 304.1 -1 0.62 14.63 0 0 23 0 -37 0 0 0 25 0 0 0 1250 0.5 0.1 0.3 0.5 0.1 0.3 1.5 0.5 0.3 1.7 0 0 1.7 0 0 0 0 0 0 0 0 0 0 0 1.5 0 0.11
60.979 0.29 0.65 306.46 -1.06 0.5 14.88 0 0 23 0 -37 0 0 0 25 0 0 0 1250 0.5 0.1 0.3 0.5 0.1 0.3 1.5 0.5 0.3 1.7 0 0 1.7 0 0 0 0 0 0 0 0 0 0 0 1.5 0 0.11
61.079 0.3 0.65 309.17 -1.12 0.62 14.75 0 0 23 0 -37 0 0 0 25 0 0 0 1250 0.5 0.1 0.3 0.5 0.1 0.3 1.5 0.5 0.3 1.7 0 0 1.7 0 0 0 0 0 0 0 0 0 0 0 1.5 0 0.11
61.179 0.3 0.65 311.44 -1.06 0.56 14.75 0 0 23 0 -37 0 0 0 25 0 0 0 1250 0.5 0.1 0.3 0.5 0.1 0.3 1.5 0.5 0.3 1.7 0 0 1.7 0 0 0 0 0 0 0 0 0 0 0 1.5 0 0.11
61.279 0.3 0.64 313.99 -1 0.56 14.81 0 0 23 0 -37 0 0 0 25 0 0 0 1250 0.5 0.1 0.3 0.5 0.1 0.3 1.5 0.5 0.3 1.7 0 0 1.7 0 0 0 0 0 0 0 0 0 0 0 1.5 0 0.11
61.379 0.3 0.64 316.14 -1.06 0.62 14.75 0 0 23 0 -37 0 0 0 25 0 0 0 1250 0.5 0.1 0.3 0.5 0.1 0.3 1.5 0.5 0.3 1.7 0 0 1.7 0 0 0 0 0 0 0 0 0 0 0 1.5 0 0.11
61.479 0.3 0.64 318.5 -0.94 0.62 14.75 0 0 22 0 -37 0 0 0 25 0 0 0 1250 0.5 0.1 0.3 0.5 0.1 0.3 1.5 0.5 0.3 1.7 0 0 1.7 0 0 0 0 0 0 0 0 0 0 0 1.5 0 0.11
61.579 0.3 0.64 320.53 -1.06 0.62 14.75 0 0 23 0 -37 0 0 0 25 0 0 0 1250 0.5 0.1 0.3 0.5 0.1 0.3 1.5 0.5 0.3 1.7 0 0 1.7 0 0 0 0 0 0 0 0 0 0 0 1.5 0 0.11
61.679 0.3 0.64 322.77 -1.06 0.62 14.69 0 0 23 0 -37 0 0 0 25 0 0 0 1250 0.5 0.1 0.3 0.5 0.1 0.3 1.5 0.5 0.3 1.7 0 0 1.7 0 0 0 0 0 0 0 0 0 0 0 1.5 0 0.11
61.779 0.3 0.64 324.69 -1.06 0.5 14.81 0 0 23 0 -37 0 0 0 25 0 0 0 1250 0.5 0.1 0.3 0.5 0.1 0.3 1.5 0.5 0.3 1.7 0 0 1.7 0 0 0 0 0 0 0 0 0 0 0 1.5 0 0.11
61.879 0.3 0.64 326.78 -1 0.62 14.63 0 0 23 0 -37 0 0 0 25 0 0 0 1250 0.5 0.1 0.3 0.5 0.1 0.3 1.5 0.5 0.3 1.7 0 0 1.7 0 0 0 0 0 0 0 0 0 0 0 1.5 0 0.11
61.979 0.3 0.64 328.59 -1 0.56 14.63 0 0 23 0 -37 0 0 0 25 0 0 0 1250 0.5 0.1 0.3 0.5 0.1 0.3 1.5 0.5 0.3 1.7 0 0 1.7 0 0 0 0 0 0 0 0 0 0 0 1.5 0 0.11
62.079 0.3 0.64 330.6 -1.06 0.62 14.75 0 0 23 0 -37 0 0 0 25 0 0 0 1250 0.5 0.1 0.3 0.5 0.1 0.3 1.5 0.5 0.3 1.7 0 0 1.7 0 0 0 0 0 0 0 0 0 0 0 1.5 0 0.11
62.179 0.3 0.64 332.34 -1 0.62 14.81 0 0 23 0 -37 0 0 0 25 0 0 0 1250 0.5 0.1 0.3 0.5 0.1 0.3 1.5 0.5 0.3 1.7 0 0 1.7 0 0 0 0 0 0 0 0 0 0 0 1.5 0 0.11
62.279 0.3 0.64 334.07 -1.06 0.69 14.75 0 0 23 0 -37 0 0 0 25 0 0 0 1250 0.5 0.1 0.3 0.5 0.1 0.3 1.5 0.5 0.3 1.7 0 0 1.7 0 0 0 0 0 0 0 0 0 0 0 1.5 0 0.11
62.379 0.3 0.64 335.93 -1.06 0.56 14.69 0 0 23 0 -37 0 0 0 25 0 0 0 1250 0.5 0.1 0.3 0.5 0.1 0.3 1.5 0.5 0.3 1.7 0 0 1.7 0 0 0 0 0 0 0 0 0 0 0 1.5 0 0.11
62.479 0.3 0.64 337.61 -0.94 0.56 14.75 0 0 23 0 -37 0 0 0 25 0 0 0 1250 0.5 0.1 0.3 0.5 0.1 0.3 1.5 0.5 0.3 1.7 0 0 1.7 0 0 0 0 0 0 0 0 0 0 0 1.5 0 0.11
62.579 0.3 0.64 339.38 -1.06 0.5 14.75 0 0 23 0 -37 0 0 0 25 0 0 0 1250 0.5 0.1 0.3 0.5 0.1 0.3 1.5 0.5 0.3 1.7 0 0 1.7 0 0 0 0 0 0 0 0 0 0 0 1.5 0 0.11
62.679 0.3 0.64 341.05 -1.06 0.62 14.63 0 0 22 0 -37 0 0 0 25 0 0 0 1250 0.5 0.1 0.3 0.5 0.1 0.3 1.5 0.5 0.3 1.7 0 0 1.7 0 0 0 0 0 0 0 0 0 0 0 1.5 0 0.11
62.779 0.3 0.64 342.74 -1 0.62 14.69 0 0 23 0 -37 0 0 0 25 0 0 0 1250 0.5 0.1 0.3 0.5 0.1 0.3 1.5 0.5 0.3 1.7 0 0 1.7 0 0 0 0 0 0 0 0 0 0 0 1.5 0 0.11
62.879 0.3 0.64 344.35 -1 0.62 14.63 0 0 23 0 -37 0 0 0 25 0 0 0 1250 0.5 0.1 0.3 0.5 0.1 0.3 1.5 0.5 0.3 1.7 0 0 1.7 0 0 0 0 0 0 0 0 0 0 0 1.5 0 0.11
62.979 0.3 0.64 346.04 -1 0.69 14.69 0 0 23 0 -37 0 0 0 25 0 0 0 1250 0.5 0.1 0.3 0.5 0.1 0.3 1.5 0.5 0.3 1.7 0 0 1.7 0 0 0 0 0 0 0 0 0 0 0 1.5 0 0.11
63.079 0.3 0.64 347.6 -1 0.56 14.75 0 0 23 0 -37 0 0 0 25 0 0 0 1250 0.5 0.1 0.3 0.5 0.1 0.3 1.5 0.5 0.3 1.7 0 0 1.7 0 0 0 0 0 0 0 0 0 0 0 1.5 0 0.11
63.179 0.3 0.64 349.22 -1.06 0.56 14.69 0 0 23 0 -37 0 0 0 25 0 0 0 1250 0.5 0.1 0.3 0.5 0.1 0.3 1.5 0.5 0.3 1.7 0 0 1.7 0 0 0 0 0 0 0 0 0 0 0 1.5 0 0.11
63.279 0.3 0.63 350.79 -1.19 0.56 14.69 0 0 23 0 -37 0 0 0 25 0 0 0 1250 0.5 0.1 0.3 0.5 0.1 0.3 1.5 0.5 0.3 1.7 0 0 1.7 0 0 0 0 0 0 0 0 0 0 0 1.5 0 0.11
63.379 0.3 0.63 352.41 -1.06 0.62 14.75 0 0 22 0 -37 0 0 0 25 0 0 0 1250 0.5 0.1 0.3 0.5 0.1 0.3 1.5 0.5 0.3 1.7 0 0 1.7 0 0 0 0 0 0 0 0 0 0 0 1.5 0 0.11
63.479 0.3 0.63 353.96 -1 0.56 14.75 0 0 22 0 -37 0 0 0 25 0 0 0 1250 0.5 0.1 0.3 0.5 0.1 0.3 1.5 0.5 0.3 1.7 0 0 1.7 0 0 0 0 0 0 0 0 0 0 0 1.5 0 0.11
63.579 0.29 0.63 355.54 -1.06 0.56 14.69 0 0 23 0 -37 0 0 0 25 0 0 0 1250 0.5 0.1 0.3 0.5 0.1 0.3 1.5 0.5 0.3 1.7 0 0 1.7 0 0 0 0 0 0 0 0 0 0 0 1.5 0 0.11
63.679 0.29 0.63 357.08 -1.06 0.56 14.75 0 0 23 0 -37 0 0 0 25 0 0 0 1250 0.5 0.1 0.3 0.5 0.1 0.3 1.5 0.5 0.3 1.7 0 0 1.7 0 0 0 0 0 0 0 0 0 0 0 1.5 0 0.11
63.779 0.29 0.63 358.64 -1 0.56 14.69 0 0 23 0 -37 0 0 0 25 0 0 0 1250 0.5 0.1 0.3 0.5 0.1 0.3 1.5 0.5 0.3 1.7 0 0 1.7 0 0 0 0 0 0 0 0 0 0 0 1.5 0 0.11
63.879 0.27 0.63 0.21 -0.94 0.56 14.81 0 0 23 0 -37 0 0 0 25 0 0 0 1250 0.5 0.1 0.3 0.5 0.1 0.3 1.5 0.5 0.3 1.7 0 0 1.7 0 0 0 0 0 0 0 0 0 0 0 1.5 0 0.11
63.979 0.27 0.63 1.77 -1 0.62 14.69 0 0 23 0 -37 0 0 0 25 0 0 0 1250 0.5 0.1 0.3 0.5 0.1 0.3 1.5 0.5 0.3 1.7 0 0 1.7 0 0 0 0 0 0 0 0 0 0 0 1.5 0 0.11
64.079 0.27 0.63 3.42 -1.06 0.56 14.69 0 0 23 0 -37 0 0 0 25 0 0 0 1250 0.5 0.1 0.3 0.5 0.1 0.3 1.5 0.5 0.3 1.7 0 0 1.7 0 0 0 0 0 0 0 0 0 0 0 1.5 0 0.11
64.179 0.27 0.63 4.98 -1 0.56 14.75 0 0 22 0 -37 0 0 0 25 0 0 0 1250 0.5 0.1 0.3 0.5 0.1 0.3 1.5 0.5 0.3 1.7 0 0 1.7 0 0 0 0 0 0 0 0 0 0 0 1.5 0 0.11
64.279 0.27 0.63 6.55 -1.06 0.56 14.69 0 0 23 0 -37 0 0 0 25 0 0 0 1250 0.5 0.1 0.3 0.5 0.1 0.3 1.5 0.5 0.3 1.7 0 0 1.7 0 0 0 0 0 0 0 0 0 0 0 1.5 0 0.11
64.379 0.27 0.63 8.09 -1 0.62 14.69 0 0 23 0 -37 0 0 0 25 0 0 0 1250 0.5 0.1 0.3 0.5 0.1 0.3 1.5 0.5 0.3 1.7 0 0 1.7 0 0 0 0 0 0 0 0 0 0 0 1.5 0 0.11
64.479 0.27 0.63 9.65 -0.94 0.56 14.69 0 0 23 0 -37 0 0 0 25 0 0 0 1250 0.5 0.1 0.3 0.5 0.1 0.3 1.5 0.5 0.3 1.7 0 0 1.7 0 0 0 0 0 0 0 0 0 0 0 1.5 0 0.11
64.579 0.26 0.63 11.14 -1.06 0.69 14.75 0 0 23 0 -37 0 0 0 25 0 0 0 1250 0.5 0.1 0.3 0.5 0.1 0.3 1.5 0.5 0.3 1.7 0 0 1.7 0 0 0 0 0 0 0 0 0 0 0 1.5 0 0.11
64.679 0.26 0.63 12.7 -1 0.56 14.69 0 0 23 0 -37 0 0 0 25 0 0 0 1250 0.5 0.1 0.3 0.5 0.1 0.3 1.5 0.5 0.3 1.7 0 0 1.7 0 0 0 0 0 0 0 0 0 0 0 1.5 0 0.11
64.779 0.26 0.64 14.26 -1.06 0.69 14.69 0 0 23 0 -37 0 0 0 25 0 0 0 1250 0.5 0.1 0.3 0.5 0.1 0.3 1.5 0.5 0.3 1.7 0 0 1.7 0 0 0 0 0 0 0 0 0 0 0 1.5 0 0.11
64.879 0.26 0.64 15.84 -1.06 0.56 14.75 0 0 23 0 -37 0 0 0 25 0 0 0 1250 0.5 0.1 0.3 0.5 0.1 0.3 1.5 0.5 0.3 1.7 0 0 1.7 0 0 0 0 0 0 0 0 0 0 0 1.5 0 0.11
64.979 0.27 0.64 17.4 -1.06 0.62 14.81 0 0 23 0 -37 0 0 0 25 0 0 0 1250 0.5 0.1 0.3 0.5 0.1 0.3 1.5 0.5 0.3 1.7 0 0 1.7 0 0 0 0 0 0 0 0 0 0 0 1.5 0 0.11
64.979 0.27 0.64 17.4 -1.06 0.62 14.81 0 0 23 0 -37 0 0 0 25 0 0 0 1250 0.5 0.1 0.3 0.5 0.1 0.3 1.5 0.5 0.3 1.7 0 0 1.7 0 0 0 0 0 0 0 0 0 0 0 1.5 0 0.11
65.179 0.27 0.64 20.47 -1.06 0.56 14.63 0 0 23 0 -37 0 0 0 25 0 0 0 1250 0.5 0.1 0.3 0.5 0.1 0.3 1.5 0.5 0.3 1.7 0 0 1.7 0 0 0 0 0 0 0 0 0 0 0 1.5 0 0.11
65.279 0.27 0.64 21.99 -1.06 0.62 14.75 0 0 23 0 -37 0 0 0 25 0 0 0 1250 0.5 0.1 0.3 0.5 0.1 0.3 1.5 0.5 0.3 1.7 0 0 1.7 0 0 0 0 0 0 0 0 0 0 0 1.5 0 0.11
65.379 0.27 0.64 23.46 -1 0.69 14.69 0 0 23 0 -37 0 0 0 25 0 0 0 1250 0.5 0.1 0.3 0.5 0.1 0.3 1.5 0.5 0.3 1.7 0 0 1.7 0 0 0 0 0 0 0 0 0 0 0 1.5 0 0.11
65.479 0.27 0.64 24.96 -1 0.69 14.75 0 0 23 0 -37 0 0 0 25 0 0 0 1250 0.5 0.1 0.3 0.5 0.1 0.3 1.5 0.5 0.3 1.7 0 0 1.7 0 0 0 0 0 0 0 0 0 0 0 1.5 0 0.11
65.579 0.27 0.65 26.52 -1 0.56 14.69 0 0 23 0 -37 0 0 0 25 0 0 0 1250 0.5 0.1 0.3 0.5 0.1 0.3 1.5 0.5 0.3 1.7 0 0 1.7 0 0 0 0 0 0 0 0 0 0 0 1.5 0 0.11
65.679 0.27 0.64 27.98 -1 0.56 14.75 0 0 23 0 -37 0 0 0 25 0 0 0 1250 0.5 0.1 0.3 0.5 0.1 0.3 1.5 0.5 0.3 1.7 0 0 1.7 0 0 0 0 0 0 0 0 0 0 0 1.5 0 0.11
65.779 0.27 0.64 29.44 -1 0.56 14.69 0 0 23 0 -37 0 0 0 25 0 0 0 1250 0.5 0.1 0.3 0.5 0.1 0.3 1.5 0.5 0.3 1.7 0 0 1.7 0 0 0 0 0 0 0 0 0 0 0 1.5 0 0.11
65.879 0.27 0.64 30.88 -1.06 0.62 14.69 0 0 23 0 -37 0 0 0 25 0 0 0 1250 0.5 0.1 0.3 0.5 0.1 0.3 1.5 0.5 0.3 1.7 0 0 1.7 0 0 0 0 0 0 0 0 0 0 0 1.5 0 0.11
65.979 0.27 0.64 32.23 -1.06 0.62 14.75 0 0 23 0 -37 0 0 0 25 0 0 0 1250 0.5 0.1 0.3 0.5 0.1 0.3 1.5 0.5 0.3 1.7 0 0 1.7 0 0 0 0 0 0 0 0 0 0 0 1.5 0 0.11
66.079 0.27 0.64 33.65 -1 0.56 14.75 0 0 23 0 -37 0 0 0 25 0 0 0 1250 0.5 0.1 0.3 0.5 0.1 0.3 1.5 0.5 0.3 1.7 0 0 1.7 0 0 0 0 0 0 0 0 0 0 0 1.5 0 0.11
66.179 0.27 0.65 34.97 -1.06 0.62 14.75 0 0 23 0 -37 0 0 0 25 0 0 0 1250 0.5 0.1 0.3 0.5 0.1 0.3 1.5 0.5 0.3 1.7 0 0 1.7 0 0 0 0 0 0 0 0 0 0 0 1.5 0 0.11
66.279 0.27 0.65 36.32 -1.06 0.62 14.75 0 0 23 0 -37 0 0 0 25 0 0 0 1250 0.5 0.1 0.3 0.5 0.1 0.3 1.5 0.5 0.3 1.7 0 0 1.7 0 0 0 0 0 0 0 0 0 0 0 1.5 0 0.11
66.379 0.27 0.65 37.58 -1 0.69 14.75 0 0 23 0 -37 0 0 0 25 0 0 0 1250 0.5 0.1 0.3 0.5 0.1 0.3 1.5 0.5 0.3 1.7 0 0 1.7 0 0 0 0 0 0 0 0 0 0 0 1.5 0 0.11
66.479 0.27 0.65 38.91 -1.06 0.62 14.75 0 0 23 0 -37 0 0 0 25 0 0 0 1250 0.5 0.1 0.3 0.5 0.1 0.3 1.5 0.5 0.3 1.7 0 0 1.7 0 0 0 0 0 0 0 0 0 0 0 1.5 0 0.11
66.579 0.27 0.66 40.1 -1.19 0.5 14.69 0 0 23 0 -37 0 0 0 25 0 0 0 1250 0.5 0.1 0.3 0.5 0.1 0.3 1.5 0.5 0.3 1.7 0 0 1.7 0 0 0 0 0 0 0 0 0 0 0 1.5 0 0.11
66.679 0.27 0.66 41.34 -1 0.62 14.75 0 0 23 0 -37 0 0 0 25 0 0 0 1250 0.5 0.1 0.3 0.5 0.1 0.3 1.5 0.5 0.3 1.7 0 0 1.7 0 0 0 0 0 0 0 0 0 0 0 1.5 0 0.11
66.779 0.27 0.66 42.54 -1 0.62 14.69 0 0 23 0 -37 0 0 0 25 0 0 0 1250 0.5 0.1 0.3 0.5 0.1 0.3 1.5 0.5 0.3 1.7 0 0 1.7 0 0 0 0 0 0 0 0 0 0 0 1.5 0 0.11
66.879 0.27 0.66 43.64 -1.12 0.62 14.69 0 0 23 0 -37 0 0 0 25 0 0 0 1250 0.5 0.1 0.3 0.5 0.1 0.3 1.5 0.5 0.3 1.7 0 0 1.7 0 0 0 0 0 0 0 0 0 0 0 1.5 0 0.11
66.979 0.27 0.66 44.89 -1.06 0.62 14.69 0 0 22 0 -37 0 0 0 25 0 0 0 1250 0.5 0.1 0.3 0.5 0.1 0.3 1.5 0.5 0.3 1.7 0 0 1.7 0 0 0 0 0 0 0 0 0 0 0 1.5 0 0.11
67.079 0.27 0.66 45.98 -1.06 0.56 14.75 0 0 23 0 -37 0 0 0 25 0 0 0 1250 0.5 0.1 0.3 0.5 0.1 0.3 1.5 0.5 0.3 1.7 0 0 1.7 0 0 0 0 0 0 0 0 0 0 0 1.5 0 0.11
67.179 0.27 0.66 47.19 -1.06 0.56 14.75 0 0 23 0 -37 0 0 0 25 0 0 0 1250 0.5 0.1 0.3 0.5 0.1 0.3 1.5 0.5 0.3 1.7 0 0 1.7 0 0 0 0 0 0 0 0 0 0 0 1.5 0 0.11
67.279 0.26 0.65 48.26 -1.12 0.56 14.75 0 0 23 0 -37 0 0 0 25 0 0 0 1250 0.5 0.1 0.3 0.5 0.1 0.3 1.5 0.5 0.3 1.7 0 0 1.7 0 0 0 0 0 0 0 0 0 0 0 1.5 0 0.11
67.379 0.26 0.65 49.44 -1.06 0.62 14.69 0 0 23 0 -37 0 0 0 25 0 0 0 1250 0.5 0.1 0.3 0.5 0.1 0.3 1.5 0.5 0.3 1.7 0 0 1.7 0 0 0 0 0 0 0 0 0 0 0 1.5 0 0.11
67.479 0.26 0.65 50.34 -1.06 0.62 14.69 0 0 23 0 -37 0 0 0 25 0 0 0 1250 0.5 0.1 0.3 0.5 0.1 0.3 1.5 0.5 0.3 1.7 0 0 1.7 0 0 0 0 0 0 0 0 0 0 0 1.5 0 0.11
67.579 0.26 0.65 51.37 -1.06 0.62 14.69 0 0 23 0 -37 0 0 0 25 0 0 0 1250 0.5 0.1 0.3 0.5 0.1 0.3 1.5 0.5 0.3 1.7 0 0 1.7 0 0 0 0 0 0 0 0 0 0 0 1.5 0 0.11
67.679 0.26 0.66 52.24 -1 0.69 14.75 0 0 23 0 -37 0 0 0 25 0 0 0 1250 0.5 0.1 0.3 0.5 0.1 0.3 1.5 0.5 0.3 1.7 0 0 1.7 0 0 0 0 0 0 0 0 0 0 0 1.5 0 0.11
67.779 0.26 0.65 53.26 -1.06 0.56 14.56 0 0 23 0 -37 0 0 0 25 0 0 0 1250 0.5 0.1 0.3 0.5 0.1 0.3 1.5 0.5 0.3 1.7 0 0 1.7 0 0 0 0 0 0 0 0 0 0 0 1.5 0 0.11
67.879 0.26 0.65 53.95 -0.94 0.56 14.69 0 0 22 0 -37 0 0 0 25 0 0 0 1250 0.5 0.1 0.3 0.5 0.1 0.3 1.5 0.5 0.3 1.7 0 0 1.7 0 0 0 0 0 0 0 0 0 0 0 1.5 0 0.11
67.979 0.26 0.65 54.91 -1 0.56 14.75 0 0 23 0 -37 0 0 0 25 0 0 0 1250 0.5 0.1 0.3 0.5 0.1 0.3 1.5 0.5 0.3 1.7 0 0 1.7 0 0 0 0 0 0 0 0 0 0 0 1.5 0 0.11
68.079 0.25 0.65 55.59 -0.94 0.62 14.75 0 0 23 0 -37 0 0 0 25 0 0 0 1250 0.5 0.1 0.3 0.5 0.1 0.3 1.5 0.5 0.3 1.7 0 0 1.7 0 0 0 0 0 0 0 0 0 0 0 1.5 0 0.11
68.179 0.25 0.65 56.61 -1.06 0.69 14.69 0 0 23 0 -37 0 0 0 25 0 0 0 1250 0.5 0.1 0.3 0.5 0.1 0.3 1.5 0.5 0.3 1.7 0 0 1.7 0 0 0 0 0 0 0 0 0 0 0 1.5 0 0.11
68.279 0.25 0.65 57.57 -1.12 0.62 14.75 0 0 23 0 -37 0 0 0 25 0 0 0 1250 0.5 0.1 0.3 0.5 0.1 0.3 1.5 0.5 0.3 1.7 0 0 1.7 0 0 0 0 0 0 0 0 0 0 0 1.5 0 0.11
68.379 0.25 0.64 58.15 -1.06 0.69 14.75 0 0 23 0 -37 0 0 0 25 0 0 0 1250 0.5 0.1 0.3 0.5 0.1 0.3 1.5 0.5 0.3 1.7 0 0 1.7 0 0 0 0 0 0 0 0 0 0 0 1.5 0 0.11
68.479 0.25 0.64 59.05 -1.06 0.75 14.69 0 0 23 0 -37 0 0 0 25 0 0 0 1250 0.5 0.1 0.3 0.5 0.1 0.3 1.5 0.5 0.3 1.7 0 0 1.7 0 0 0 0 0 0 0 0 0 0 0 1.5 0 0.11
68.58 0.25 0.65 59.63 -1 0.62 14.75 0 0 23 0 -37 0 0 0 25 0 0 0 1250 0.5 0.1 0.3 0.5 0.1 0.3 1.5 0.5 0.3 1.7 0 0 1.7 0 0 0 0 0 0 0 0 0 0 0 1.5 0 0.11
68.68 0.25 0.64 60.44 -1.12 0.56 14.75 0 0 23 0 -37 0 0 0 25 0 0 0 1250 0.5 0.1 0.3 0.5 0.1 0.3 1.5 0.5 0.3 1.7 0 0 1.7 0 0 0 0 0 0 0 0 0 0 0 1.5 0 0.11
68.78 0.25 0.65 60.96 -1.12 0.62 14.81 0 0 23 0 -37 0 0 0 25 0 0 0 1250 0.5 0.1 0.3 0.5 0.1 0.3 1.5 0.5 0.3 1.7 0 0 1.7 0 0 0 0 0 0 0 0 0 0 0 1.5 0 0.11
68.88 0.25 0.65 61.75 -1.12 0.56 14.81 0 0 23 0 -37 0 0 0 25 0 0 0 1250 0.5 0.1 0.3 0.5 0.1 0.3 1.5 0.5 0.3 1.7 0 0 1.7 0 0 0 0 0 0 0 0 0 0 0 1.5 0 0.11
68.98 0.25 0.65 62.22 -1 0.56 14.69 0 0 23 0 -37 0 0 0 25 0 0 0 1250 0.5 0.1 0.3 0.5 0.1 0.3 1.5 0.5 0.3 1.7 0 0 1.7 0 0 0 0 0 0 0 0 0 0 0 1.5 0 0.11
69.08 0.25 0.64 63.02 -1 0.62 14.81 0 0 23 0 -37 0 0 0 25 0 0 0 1250 0.5 0.1 0.3 0.5 0.1 0.3 1.5 0.5 0.3 1.7 0 0 1.7 0 0 0 0 0 0 0 0 0 0 0 1.5 0 0.11
69.18 0.24 0.65 63.4 -1 0.56 14.75 0 0 23 0 -37 0 0 0 25 0 0 0 1250 0.5 0.1 0.3 0.5 0.1 0.3 1.5 0.5 0.3 1.7 0 0 1.7 0 0 0 0 0 0 0 0 0 0 0 1.5 0 0.11
69.28 0.24 0.65 64.15 -1.06 0.62 14.81 0 0 23 0 -37 0 0 0 25 0 0 0 1250 0.5 0.1 0.3 0.5 0.1 0.3 1.5 0.5 0.3 1.7 0 0 1.7 0 0 0 0 0 0 0 0 0 0 0 1.5 0 0.11
69.38 0.24 0.65 64.54 -1.12 0.69 14.63 0 0 23 0 -37 0 0 0 25 0 0 0 1250 0.5 0.1 0.3 0.5 0.1 0.3 1.5 0.5 0.3 1.7 0 0 1.7 0 0 0 0 0 0 0 0 0 0 0 1.5 0 0.11
69.48 0.24 0.65 65.28 -1 0.5 14.75 0 0 25 0 -37 0 0 0 25 0 0 0 1250 0.5 0.1 0.3 0.5 0.1 0.3 1.5 0.5 0.3 1.7 0 0 1.7 0 0 0 0 0 0 0 0 0 0 0 1.5 0 0.11
69.58 0.23 0.65 65.71 -1 0.62 14.69 0 0 23 0 -37 0 0 0 25 0 0 0 1250 0.5 0.1 0.3 0.5 0.1 0.3 1.5 0.5 0.3 1.7 0 0 1.7 0 0 0 0 0 0 0 0 0 0 0 1.5 0 0.11
69.68 0.23 0.65 66.5 -1.06 0.56 14.63 0 0 23 0 -37 0 0 0 25 0 0 0 1250 0.5 0.1 0.3 0.5 0.1 0.3 1.5 0.5 0.3 1.7 0 0 1.7 0 0 0 0 0 0 0 0 0 0 0 1.5 0 0.11
69.78 0.23 0.65 67.19 -1.06 0.62 14.69 0 0 23 0 -37 0 0 0 25 0 0 0 1250 0.5 0.1 0.3 0.5 0.1 0.3 1.5 0.5 0.3 1.7 0 0 1.7 0 0 0 0 0 0 0 0 0 0 0 1.5 0 0.11
69.88 0.24 0.65 67.54 -1 0.56 14.69 0 0 23 0 -37 0 0 0 25 0 0 0 1250 0.5 0.1 0.3 0.5 0.1 0.3 1.5 0.5 0.3 1.7 0 0 1.7 0 0 0 0 0 0 0 0 0 0 0 1.5 0 0.11
69.98 0.23 0.65 68.25 -1 0.62 14.75 0 0 23 0 -37 0 0 0 25 0 0 0 1250 0.5 0.1 0.3 0.5 0.1 0.3 1.5 0.5 0.3 1.7 0 0 1.7 0 0 0 0 0 0 0 0 0 0 0 1.5 0 0.11
70.08 0.23 0.65 68.64 -1 0.62 14.63 0 0 23 0 -37 0 0 0 25 0 0 0 1250 0.5 0.1 0.3 0.5 0.1 0.3 1.5 0.5 0.3 1.7 0 0 1.7 0 0 0 0 0 0 0 0 0 0 0 1.5 0 0.11
70.18 0.23 0.65 69.33 -1.06 0.56 14.63 0 0 23 0 -37 0 0 0 25 0 0 0 1250 0.5 0.1 0.3 0.5 0.1 0.3 1.5 0.5 0.3 1.7 0 0 1.7 0 0 0 0 0 0 0 0 0 0 0 1.5 0 0.11
70.28 0.23 0.65 69.59 -1 0.56 14.69 0 0 23 0 -37 0 0 0 25 0 0 0 1250 0.5 0.1 0.3 0.5 0.1 0.3 1.5 0.5 0.3 1.7 0 0 1.7 0 0 0 0 0 0 0 0 0 0 0 1.5 0 0.11
70.38 0.23 0.65 70.31 -1.06 0.62 14.69 0 0 23 0 -37 0 0 0 25 0 0 0 1250 0.5 0.1 0.3 0.5 0.1 0.3 1.5 0.5 0.3 1.7 0 0 1.7 0 0 0 0 0 0 0 0 0 0 0 1.5 0 0.11
70.48 0.23 0.65 70.59 -1 0.62 14.69 0 0 23 0 -37 0 0 0 25 0 0 0 1250 0.5 0.1 0.3 0.5 0.1 0.3 1.5 0.5 0.3 1.7 0 0 1.7 0 0 0 0 0 0 0 0 0 0 0 1.5 0 0.11
70.58 0.23 0.65 71.25 -1.19 0.62 14.63 0 0 23 0 -37 0 0 0 25 0 0 0 1250 0.5 0.1 0.3 0.5 0.1 0.3 1.5 0.5 0.3 1.7 0 0 1.7 0 0 0 0 0 0 0 0 0 0 0 1.5 0 0.11
70.68 0.22 0.65 71.56 -1 0.62 14.81 0 0 22 0 -37 0 0 0 25 0 0 0 1250 0.5 0.1 0.3 0.5 0.1 0.3 1.5 0.5 0.3 1.7 0 0 1.7 0 0 0 0 0 0 0 0 0 0 0 1.5 0 0.11
70.78 0.23 0.65 72.19 -1 0.69 14.69 0 0 23 0 -37 0 0 0 25 0 0 0 1250 0.5 0.1 0.3 0.5 0.1 0.3 1.5 0.5 0.3 1.7 0 0 1.7 0 0 0 0 0 0 0 0 0 0 0 1.5 0 0.11
70.88 0.22 0.65 72.48 -1.06 0.69 14.69 0 0 25 0 -37 0 0 0 25 0 0 0 1250 0.5 0.1 0.3 0.5 0.1 0.3 1.5 0.5 0.3 1.7 0 0 1.7 0 0 0 0 0 0 0 0 0 0 0 1.5 0 0.11
70.981 0.22 0.65 73.12 -1.06 0.56 14.81 0 0 23 0 -37 0 0 0 25 0 0 0 1250 0.5 0.1 0.3 0.5 0.1 0.3 1.5 0.5 0.3 1.7 0 0 1.7 0 0 0 0 0 0 0 0 0 0 0 1.5 0 0.11
71.081 0.22 0.66 73.38 -1 0.56 14.69 0 0 23 0 -37 0 0 0 25 0 0 0 1250 0.5 0.1 0.3 0.5 0.1 0.3 1.5 0.5 0.3 1.7 0 0 1.7 0 0 0 0 0 0 0 0 0 0 0 1.5 0 0.11
71.18 0.22 0.66 73.99 -1.06 0.69 14.69 0 0 23 0 -37 0 0 0 25 0 0 0 1250 0.5 0.1 0.3 0.5 0.1 0.3 1.5 0.5 0.3 1.7 0 0 1.7 0 0 0 0 0 0 0 0 0 0 0 1.5 0 0.11
71.281 0.22 0.65 74.14 -1.12 0.62 14.63 0 0 23 0 -37 0 0 0 25 0 0 0 1250 0.5 0.1 0.3 0.5 0.1 0.3 1.5 0.5 0.3 1.7 0 0 1.7 0 0 0 0 0 0 0 0 0 0 0 1.5 0 0.11
71.38 0.22 0.65 74.74 -1 0.62 14.69 0 0 23 0 -37 0 0 0 25 0 0 0 1250 0.5 0.1 0.3 0.5 0.1 0.3 1.5 0.5 0.3 1.7 0 0 1.7 0 0 0 0 0 0 0 0 0 0 0 1.5 0 0.11
71.48 0.22 0.65 75.33 -1 0.62 14.69 0 0 23 0 -37 0 0 0 25 0 0 0 1250 0.5 0.1 0.3 0.5 0.1 0.3 1.5 0.5 0.3 1.7 0 0 1.7 0 0 0 0 0 0 0 0 0 0 0 1.5 0 0.11
71.58 0.22 0.65 75.55 -1.12 0.69 14.69 0 0 23 0 -37 0 0 0 25 0 0 0 1250 0.5 0.1 0.3 0.5 0.1 0.3 1.5 0.5 0.3 1.7 0 0 1.7 0 0 0 0 0 0 0 0 0 0 0 1.5 0 0.11
71.68 0.22 0.65 76.28 -1 0.69 14.69 0 0 23 0 -37 0 0 0 25 0 0 0 1250 0.5 0.1 0.3 0.5 0.1 0.3 1.5 0.5 0.3 1.7 0 0 1.7 0 0 0 0 0 0 0 0 0 0 0 1.5 0 0.11
71.781 0.22 0.65 76.49 -1.06 0.62 14.75 0 0 23 0 -37 0 0 0 25 0 0 0 1250 0.5 0.1 0.3 0.5 0.1 0.3 1.5 0.5 0.3 1.7 0 0 1.7 0 0 0 0 0 0 0 0 0 0 0 1.5 0 0.11
71.88 0.22 0.65 77.16 -1.06 0.62 14.69 0 0 23 0 -37 0 0 0 25 0 0 0 1250 0.5 0.1 0.3 0.5 0.1 0.3 1.5 0.5 0.3 1.7 0 0 1.7 0 0 0 0 0 0 0 0 0 0 0 1.5 0 0.11
71.981 0.22 0.65 77.35 -1.06 0.62 14.69 0 0 23 0 -37 0 0 0 25 0 0 0 1250 0.5 0.1 0.3 0.5 0.1 0.3 1.5 0.5 0.3 1.7 0 0 1.7 0 0 0 0 0 0 0 0 0 0 0 1.5 0 0.11
72.08 0.22 0.65 78.09 -1.06 0.62 14.63 0 0 23 0 -37 0 0 0 25 0 0 0 1250 0.5 0.1 0.3 0.5 0.1 0.3 1.5 0.5 0.3 1.7 0 0 1.7 0 0 0 0 0 0 0 0 0 0 0 1.5 0 0.11
72.181 0.22 0.65 78.38 -1.06 0.56 14.81 0 0 23 0 -37 0 0 0 25 0 0 0 1250 0.5 0.1 0.3 0.5 0.1 0.3 1.5 0.5 0.3 1.7 0 0 1.7 0 0 0 0 0 0 0 0 0 0 0 1.5 0 0.11
72.281 0.23 0.65 79.09 -1 0.62 14.75 0 0 22 0 -37 0 0 0 25 0 0 0 1250 0.5 0.1 0.3 0.5 0.1 0.3 1.5 0.5 0.3 1.7 0 0 1.7 0 0 0 0 0 0 0 0 0 0 0 1.5 0 0.11
72.381 0.23 0.65 79.47 -1.06 0.62 14.69 0 0 23 0 -37 0 0 0 25 0 0 0 1250 0.5 0 3.3 0.5 0.03 3.3 1.5 0.5 0.3 1.7 0 0 1.7 0 0 0 0 0 0 0 0 0 0 0 1.5 0 0.11
72.481 0.23 0.65 80.2 -1 0.62 14.69 0 0 22 0 -37 0 0 0 25 0 0 0 1250 0.5 0 3.3 0.5 0.03 3.3 1.5 0.5 0.3 1.7 0 0 1.7 0 0 0 0 0 0 0 0 0 0 0 1.5 0 0.11
72.581 0.23 0.66 80.53 -1 0.56 14.75 0 0 23 0 -37 0 0 0 25 0 0 0 1250 0.5 0 3.3 0.5 0.03 3.3 1.5 0.5 0.3 1.7 0 0 1.7 0 0 0 0 0 0 0 0 0 0 0 1.5 0 0.11
72.681 0.23 0.66 81.28 -1.12 0.56 14.75 0 0 23 0 -37 0 0 0 25 0 0 0 1250 0.5 0 3.3 0.5 0.03 3.3 1.5 0.5 0.3 1.7 0 0 1.7 0 0 0 0 0 0 0 0 0 0 0 1.5 0 0.11
72.781 0.22 0.65 81.69 -1.12 0.56 14.75 0 0 23 0 -37 0 0 0 25 0 0 0 1250 0.5 0 3.3 0.5 0.03 3.3 1.5 0.5 0.3 1.7 0 0 1.7 0 0 0 0 0 0 0 0 0 0 0 1.5 0 0.11
72.88 0.23 0.65 82.46 -1.12 0.56 14.69 0 0 23 0 -37 0 0 0 25 0 0 0 1250 0.5 0 3.3 0.5 0.03 3.3 1.5 0.5 0.3 1.7 0 0 1.7 0 0 0 0 0 0 0 0 0 0 0 1.5 0 0.11
72.981 0.23 0.65 83.27 -1.06 0.56 14.69 0 0 23 0 -37 0 0 0 25 0 0 0 1250 0.5 0 3.3 0.5 0.03 3.3 1.5 0.5 0.3 1.7 0 0 1.7 0 0 0 0 0 0 0 0 0 0 0 1.5 0 0.11
73.081 0.23 0.65 83.77 -1 0.56 14.69 0 0 23 0 -37 0 0 0 25 0 0 0 1250 0.5 0 3.3 0.5 0.03 3.3 1.5 0.5 0.3 1.7 0 0 1.7 0 0 0 0 0 0 0 0 0 0 0 1.5 0 0.11
73.181 0.23 0.66 84.62 -1.06 0.56 14.69 0 0 23 0 -37 0 0 0 25 0 0 0 1250 0.5 0 3.3 0.5 0.03 3.3 1.5 0.5 0.3 1.7 0 0 1.7 0 0 0 0 0 0 0 0 0 0 0 1.5 0 0.11
73.281 0.23 0.66 85.12 -1.06 0.56 14.75 0 0 23 0 -37 0 0 0 25 0 0 0 1250 0.5 0 3.3 0.5 0.03 3.3 1.5 0.5 0.3 1.7 0 0 1.7 0 0 0 0 0 0 0 0 0 0 0 1.5 0 0.11
73.381 0.24 0.65 85.98 -1.06 0.56 14.69 0 0 23 0 -37 0 0 0 25 0 0 0 1250 0.5 0 3.3 0.5 0.03 3.3 1.5 0.5 0.3 1.7 0 0 1.7 0 0 0 0 0 0 0 0 0 0 0 1.5 0 0.11
73.481 0.23 0.66 86.61 -1.12 0.62 14.69 0 0 23 0 -37 0 0 0 25 0 0 0 1250 0.5 0 3.3 0.5 0.03 3.3 1.5 0.5 0.3 1.7 0 0 1.7 0 0 0 0 0 0 0 0 0 0 0 1.5 0 0.11
73.581 0.23 0.66 87.56 -1 0.56 14.69 0 0 23 0 -37 0 0 0 25 0 0 0 1250 0.5 0 3.3 0.5 0.03 3.3 1.5 0.5 0.3 1.7 0 0 1.7 0 0 0 0 0 0 0 0 0 0 0 1.5 0 0.11
73.681 0.23 0.66 88.35 -1 0.62 14.69 0 0 23 0 -37 0 0 0 25 0 0 0 1250 0.5 0 3.3 0.5 0.03 3.3 1.5 0.5 0.3 1.7 0 0 1.7 0 0 0 0 0 0 0 0 0 0 0 1.5 0 0.11
73.781 0.23 0.65 89.44 -1 0.56 14.75 0 0 23 0 -37 0 0 0 25 0 0 0 1250 0.5 0 3.3 0.5 0.03 3.3 1.5 0.5 0.3 1.7 0 0 1.7 0 0 0 0 0 0 0 0 0 0 0 1.5 0 0.11
73.881 0.23 0.66 90.35 -1 0.62 14.75 0 0 23 0 -37 0 0 0 25 0 0 0 1250 0.5 0 3.3 0.5 0.03 3.3 1.5 0.5 0.3 1.7 0 0 1.7 0 0 0 0 0 0 0 0 0 0 0 1.5 0 0.11
73.981 0.23 0.66 91.56 -1.06 0.69 14.75 0 0 23 0 -37 0 0 0 25 0 0 0 1250 0.5 0 3.3 0.5 0.03 3.3 1.5 0.5 0.3 1.7 0 0 1.7 0 0 0 0 0 0 0 0 0 0 0 1.5 0 0.11
74.081 0.24 0.66 92.79 -1 0.56 14.63 0 0 23 0 -37 0 0 0 25 0 0 0 1250 0.5 0 3.3 0.5 0.03 3.3 1.5 0.5 0.3 1.7 0 0 1.7 0 0 0 0 0 0 0 0 0 0 0 1.5 0 0.11
74.181 0.24 0.66 94.13 -1.06 0.56 14.69 0 0 23 0 -37 0 0 0 25 0 0 0 1250 0.5 0 3.3 0.5 0.03 3.3 1.5 0.5 0.3 1.7 0 0 1.7 0 0 0 0 0 0 0 0 0 0 0 1.5 0 0.11
74.281 0.24 0.66 95.49 -1.19 0.56 14.63 0 0 23 0 -37 0 0 0 25 0 0 0 1250 0.5 0 3.3 0.5 0.03 3.3 1.5 0.5 0.3 1.7 0 0 1.7 0 0 0 0 0 0 0 0 0 0 0 1.5 0 0.11
74.381 0.25 0.65 97.02 -0.94 0.62 14.75 0 0 23 0 -37 0 0 0 25 0 0 0 1250 0.5 0 3.3 0.5 0.03 3.3 1.5 0.5 0.3 1.7 0 0 1.7 0 0 0 0 0 0 0 0 0 0 0 1.5 0 0.11
74.481 0.25 0.65 98.58 -1.12 0.56 14.69 0 0 23 0 -37 0 0 0 25 0 0 0 1250 0.5 0 3.3 0.5 0.03 3.3 1.5 0.5 0.3 1.7 0 0 1.7 0 0 0 0 0 0 0 0 0 0 0 1.5 0 0.11
74.581 0.25 0.65 100.35 -1.06 0.69 14.75 0 0 23 0 -37 0 0 0 25 0 0 0 1250 0.5 0 3.3 0.5 0.03 3.3 1.5 0.5 0.3 1.7 0 0 1.7 0 0 0 0 0 0 0 0 0 0 0 1.5 0 0.11
74.681 0.25 0.65 102.16 -1.06 0.62 14.75 0 0 23 0 -37 0 0 0 25 0 0 0 1250 0.5 0 3.3 0.5 0.03 3.3 1.5 0.5 0.3 1.7 0 0 1.7 0 0 0 0 0 0 0 0 0 0 0 1.5 0 0.11
74.781 0.25 0.65 104.29 -1.12 0.62 14.75 0 0 23 0 -37 0 0 0 25 0 0 0 1250 0.5 0 3.3 0.5 0.03 3.3 1.5 0.5 0.3 1.7 0 0 1.7 0 0 0 0 0 0 0 0 0 0 0 1.5 0 0.11
74.881 0.26 0.65 106.29 -1.12 0.56 14.75 0 0 22 0 -37 0 0 0 25 0 0 0 1250 0.5 0 3.3 0.5 0.03 3.3 1.5 0.5 0.3 1.7 0 0 1.7 0 0 0 0 0 0 0 0 0 0 0 1.5 0 0.11
74.981 0.26 0.65 108.71 -1.06 0.62 14.75 0 0 23 0 -37 0 0 0 25 0 0 0 1250 0.5 0 3.3 0.5 0.03 3.3 1.5 0.5 0.3 1.7 0 0 1.7 0 0 0 0 0 0 0 0 0 0 0 1.5 0 0.11
75.081 0.26 0.65 110.83 -1.12 0.62 14.63 0 0 23 0 -37 0 0 0 25 0 0 0 1250 0.5 0 3.3 0.5 0.03 3.3 1.5 0.5 0.3 1.7 0 0 1.7 0 0 0 0 0 0 0 0 0 0 0 1.5 0 0.11
75.181 0.27 0.64 113.29 -1 0.56 14.69 0 0 23 0 -37 0 0 0 25 0 0 0 1250 0.5 0 3.3 0.5 0.03 3.3 1.5 0.5 0.3 1.7 0 0 1.7 0 0 0 0 0 0 0 0 0 0 0 1.5 0 0.11
75.281 0.27 0.64 115.5 -1.06 0.62 14.69 0 0 22 0 -37 0 0 0 25 0 0 0 1250 0.5 0 3.3 0.5 0.03 3.3 1.5 0.5 0.3 1.7 0 0 1.7 0 0 0 0 0 0 0 0 0 0 0 1.5 0 0.11
75.381 0.27 0.65 118.05 -1.06 0.69 14.75 0 0 23 0 -37 0 0 0 25 0 0 0 1250 0.5 0 3.3 0.5 0.03 3.3 1.5 0.5 0.3 1.7 0 0 1.7 0 0 0 0 0 0 0 0 0 0 0 1.5 0 0.11
75.481 0.29 0.65 120.26 -1.06 0.62 14.69 0 0 23 0 -37 0 0 0 25 0 0 0 1250 0.5 0 3.3 0.5 0.03 3.3 1.5 0.5 0.3 1.7 0 0 1.7 0 0 0 0 0 0 0 0 0 0 0 1.5 0 0.11
75.581 0.29 0.65 122.73 -0.94 0.62 14.69 0 0 23 0 -37 0 0 0 25 0 0 0 1250 0.5 0 3.3 0.5 0.03 3.3 1.5 0.5 0.3 1.7 0.02 0 1.7 0.02 0 0 0 0 0 0 0 0 0 0 1.5 0 0.11
75.681 0.29 0.65 124.88 -1 0.5 14.69 0 0 23 0 -37 0 0 0 25 0 0 0 1250 0.5 0 3.3 0.5 0.03 3.3 1.5 0.5 0.3 1.7 0.02 0 1.7 0.02 0 0 0 0 0 0 0 0 0 0 1.5 0 0.11
75.781 0.3 0.65 127.28 -1.06 0.56 14.75 0 0 23 0 -37 0 0 0 25 0 0 0 1250 0.5 0 3.3 0.5 0.03 3.3 1.5 0.5 0.3 1.7 0.02 0 1.7 0.02 0 0 0 0 0 0 0 0 0 0 1.5 0 0.11
75.881 0.3 0.65 129.32 -1 0.62 14.75 0 0 23 0 -37 0 0 0 25 0 0 0 1250 0.5 0 3.3 0.5 0.03 3.3 1.5 0.5 0.3 1.7 0.02 0 1.7 0.02 0 0 0 0 0 0 0 0 0 0 1.5 0 0.11
75.981 0.3 0.65 131.31 -1.06 0.69 14.75 0 0 23 0 -37 0 0 0 25 0 0 0 1250 0.5 0 3.3 0.5 0.03 3.3 1.5 0.5 0.3 1.7 0.02 0 1.7 0.02 0 0 0 0 0 0 0 0 0 0 1.5 0 0.11
76.081 0.3 0.65 133.52 -1 0.56 14.75 0 0 23 0 -37 0 0 0 25 0 0 0 1250 0.5 0 3.3 0.5 0.03 3.3 1.5 0.5 0.3 1.7 0.02 0 1.7 0.02 0 0 0 0 0 0 0 0 0 0 1.5 0 0.11
76.181 0.3 0.65 135.44 -1.06 0.56 14.75 0 0 23 0 -37 0 0 0 25 0 0 0 1250 0.5 0 3.3 0.5 0.03 3.3 1.5 0.5 0.3 1.7 0.02 0 1.7 0.02 0 0 0 0 0 0 0 0 0 0 1.5 0 0.11
76.281 0.31 0.65 137.48 -1 0.56 14.56 0 0 23 0 -37 0 0 0 25 0 0 0 1250 0.5 0 3.3 0.5 0.03 3.3 1.5 0.5 0.3 1.7 0.02 0 1.7 0.02 0 0 0 0 0 0 0 0 0 0 1.5 0 0.11
76.381 0.31 0.65 139.31 -1.06 0.62 14.81 0 0 23 0 -37 0 0 0 25 0 0 0 1250 0.5 0 3.3 0.5 0.03 3.3 1.5 0.5 0.3 1.7 0.02 0 1.7 0.02 0 0 0 0 0 0 0 0 0 0 1.5 0 0.11
76.481 0.31 0.65 141.21 -1.06 0.56 14.69 0 0 23 0 -37 0 0 0 25 0 0 0 1250 0.5 0 3.3 0.5 0.03 3.3 1.5 0.5 0.3 1.7 0.02 0 1.7 0.02 0 0 0 0 0 0 0 0 0 0 1.5 0 0.11
76.581 0.31 0.65 142.91 -1 0.56 14.63 0 0 23 0 -37 0 0 0 25 0 0 0 1250 0.5 0 3.3 0.5 0.03 3.3 1.5 0.5 0.3 1.7 0.02 0 1.7 0.02 0 0 0 0 0 0 0 0 0 0 1.5 0 0.11
76.681 0.31 0.64 144.72 -1.06 0.56 14.69 0 0 23 0 -37 0 0 0 25 0 0 0 1250 0.5 0 3.3 0.5 0.03 3.3 1.5 0.5 0.3 1.7 0.02 0 1.7 0.02 0 0 0 0 0 0 0 0 0 0 1.5 0 0.11
76.781 0.31 0.64 146.38 -1.06 0.62 14.69 0 0 23 0 -37 0 0 0 25 0 0 0 1250 0.5 0 3.3 0.5 0.03 3.3 1.5 0.5 0.3 1.7 0.02 0 1.7 0.02 0 0 0 0 0 0 0 0 0 0 1.5 0 0.11
76.881 0.31 0.64 148.07 -1 0.56 14.75 0 0 22 0 -37 0 0 0 25 0 0 0 1250 0.5 0 3.3 0.5 0.03 3.3 1.5 0.5 0.3 1.7 0.02 0 1.7 0.02 0 0 0 0 0 0 0 0 0 0 1.5 0 0.11
76.981 0.31 0.64 149.72 -1 0.56 14.69 0 0 23 0 -37 0 0 0 25 0 0 0 1250 0.5 0 3.3 0.5 0.03 3.3 1.5 0.5 0.3 1.7 0.02 0 1.7 0.02 0 0 0 0 0 0 0 0 0 0 1.5 0 0.11
77.081 0.31 0.64 151.37 -1.12 0.62 14.69 0 0 23 0 -37 0 0 0 25 0 0 0 1250 0.5 0 3.3 0.5 0.03 3.3 1.5 0.5 0.3 1.7 0.02 0 1.7 0.02 0 0 0 0 0 0 0 0 0 0 1.5 0 0.11
77.181 0.3 0.64 152.91 -1.06 0.56 14.75 0 0 23 0 -37 0 0 0 25 0 0 0 1250 0.5 0 3.3 0.5 0.03 3.3 1.5 0.5 0.3 1.7 0.02 0 1.7 0.02 0 0 0 0 0 0 0 0 0 0 1.5 0 0.11
77.281 0.3 0.64 154.45 -1.12 0.62 14.75 0 0 23 0 -37 0 0 0 25 0 0 0 1250 0.5 0 3.3 0.5 0.03 3.3 1.5 0.5 0.3 1.7 0.02 0 1.7 0.02 0 0 0 0 0 0 0 0 0 0 1.5 0 0.11
77.381 0.3 0.64 155.96 -1 0.44 14.69 0 0 23 0 -37 0 0 0 25 0 0 0 1250 0.5 0 3.3 0.5 0.03 3.3 1.5 0.5 0.3 1.7 0.02 0 1.7 0.02 0 0 0 0 0 0 0 0 0 0 1.5 0 0.11
77.481 0.29 0.64 157.41 -1 0.5 14.69 0 0 23 0 -37 0 0 0 25 0 0 0 1250 0.5 0 3.3 0.5 0.03 3.3 1.5 0.5 0.3 1.7 0.02 0 1.7 0.02 0 0 0 0 0 0 0 0 0 0 1.5 0 0.11
77.581 0.29 0.64 158.93 -1.06 0.69 14.75 0 0 23 0 -37 0 0 0 25 0 0 0 1250 0.5 0 3.3 0.5 0.03 3.3 1.5 0.5 0.3 1.7 0.02 0 1.7 0.02 0 0 0 0 0 0 0 0 0 0 1.5 0 0.11
77.681 0.3 0.64 160.4 -1 0.56 14.75 0 0 23 0 -37 0 0 0 25 0 0 0 1250 0.5 0 3.3 0.5 0.03 3.3 1.5 0.5 0.3 1.7 0.02 0 1.7 0.02 0 0 0 0 0 0 0 0 0 0 1.5 0 0.11
77.781 0.29 0.64 161.83 -1.06 0.56 14.69 0 0 22 0 -37 0 0 0 25 0 0 0 1250 0.5 0 3.3 0.5 0.03 3.3 1.5 0.5 0.3 1.7 0.02 0 1.7 0.02 0 0 0 0 0 0 0 0 0 0 1.5 0 0.11
77.881 0.29 0.64 163.28 -1 0.62 14.75 0 0 23 0 -37 0 0 0 25 0 0 0 1250 0.5 0 3.3 0.5 0.03 3.3 1.5 0.5 0.3 1.7 0.02 0 1.7 0.02 0 0 0 0 0 0 0 0 0 0 1.5 0 0.11
77.981 0.29 0.64 164.7 -1.12 0.56 14.69 0 0 23 0 -37 0 0 0 25 0 0 0 1250 0.5 0 3.3 0.5 0.03 3.3 1.5 0.5 0.3 1.7 0.02 0 1.7 0.02 0 0 0 0 0 0 0 0 0 0 1.5 0 0.11
78.081 0.29 0.64 166.1 -1.06 0.56 14.69 0 0 23 0 -37 0 0 0 25 0 0 0 1250 0.5 0 3.3 0.5 0.03 3.3 1.5 0.5 0.3 1.7 0.02 0 1.7 0.02 0 0 0 0 0 0 0 0 0 0 1.5 0 0.11
78.181 0.29 0.64 167.5 -1.06 0.56 14.69 0 0 23 0 -37 0 0 0 25 0 0 0 1250 0.5 0 3.3 0.5 0.03 3.3 1.5 0.5 0.3 1.7 0.02 0 1.7 0.02 0 0 0 0 0 0 0 0 0 0 1.5 0 0.11
78.281 0.29 0.64 168.94 -1.06 0.62 14.75 0 0 22 0 -37 0 0 0 25 0 0 0 1250 0.5 0 3.3 0.5 0.03 3.3 1.5 0.5 0.3 1.7 0.02 0 1.7 0.02 0 0 0 0 0 0 0 0 0 0 1.5 0 0.11
78.381 0.27 0.64 170.31 -1 0.56 14.69 0 0 23 0 -37 0 0 0 25 0 0 0 1250 0.5 0 3.3 0.5 0.03 3.3 1.5 0.5 0.3 1.7 0.02 0 1.7 0.02 0 0 0 0 0 0 0 0 0 0 1.5 0 0.11
78.481 0.27 0.64 171.76 -1 0.69 14.75 0 0 23 0 -37 0 0 0 25 0 0 0 1250 0.5 0 3.3 0.5 0.03 3.3 1.5 0.5 0.3 1.7 0.02 0 1.7 0.02 0 0 0 0 0 0 0 0 0 0 1.5 0 0.11
78.581 0.27 0.64 173.13 -1.06 0.56 14.75 0 0 23 0 -37 0 0 0 25 0 0 0 1250 0.5 0 3.3 0.5 0.03 3.3 1.5 0.5 0.3 1.7 0.02 0 1.7 0.02 0 0 0 0 0 0 0 0 0 0 1.5 0 0.11
78.681 0.27 0.64 174.53 -1.12 0.56 14.69 0 0 23 0 -37 0 0 0 25 0 0 0 1250 0.5 0 3.3 0.5 0.03 3.3 1.5 0.5 0.3 1.7 0.02 0 1.7 0.02 0 0 0 0 0 0 0 0 0 0 1.5 0 0.11
78.781 0.27 0.64 175.91 -1.06 0.62 14.69 0 0 23 0 -37 0 0 0 25 0 0 0 1250 0.5 0 3.3 0.5 0.03 3.3 1.5 0.5 0.3 1.7 0.02 0 1.7 0.02 0 0 0 0 0 0 0 0 0 0 1.5 0 0.11
78.881 0.27 0.64 177.32 -1.12 0.62 14.75 0 0 23 0 -37 0 0 0 25 0 0 0 1250 0.5 0 3.3 0.5 0.03 3.3 1.5 0.5 0.3 1.7 0.02 0 1.7 0.02 0 0 0 0 0 0 0 0 0 0 1.5 0 0.11
78.981 0.27 0.65 178.75 -1 0.56 14.75 0 0 23 0 -37 0 0 0 25 0 0 0 1250 0.5 0 3.3 0.5 0.03 3.3 1.5 0.5 0.3 1.7 0.02 0 1.7 0.02 0 0 0 0 0 0 0 0 0 0 1.5 0 0.11
79.081 0.27 0.65 180.12 -1.06 0.56 14.75 0 0 23 0 -37 0 0 0 25 0 0 0 1250 0.5 0 3.3 0.5 0.03 3.3 1.5 0.5 0.3 1.7 0.02 0 1.7 0.02 0 0 0 0 0 0 0 0 0 0 1.5 0 0.11
79.181 0.27 0.64 181.52 -1 0.62 14.75 0 0 23 0 -37 0 0 0 25 0 0 0 1250 0.5 0 3.3 0.5 0.03 3.3 1.5 0.5 0.3 1.7 0.02 0 1.7 0.02 0 0 0 0 0 0 0 0 0 0 1.5 0 0.11
79.281 0.26 0.64 182.86 -1.06 0.56 14.69 0 0 23 0 -37 0 0 0 25 0 0 0 1250 0.5 0 3.3 0.5 0.03 3.3 1.5 0.5 0.3 1.7 0.02 0 1.7 0.02 0 0 0 0 0 0 0 0 0 0 1.5 0 0.11
79.381 0.27 0.65 184.26 -1 0.62 14.69 0 0 23 0 -37 0 0 0 25 0 0 0 1250 0.5 0 3.3 0.5 0.03 3.3 1.5 0.5 0.3 1.7 0.02 0 1.7 0.02 0 0 0 0 0 0 0 0 0 0 1.5 0 0.11
79.481 0.27 0.65 185.6 -1.06 0.56 14.69 0 0 23 0 -37 0 0 0 25 0 0 0 1250 0.5 0 3.3 0.5 0.03 3.3 1.5 0.5 0.3 1.7 0.02 0 1.7 0.02 0 0 0 0 0 0 0 0 0 0 1.5 0 0.11
79.581 0.27 0.65 187 -1 0.62 14.69 0 0 23 0 -37 0 0 0 25 0 0 0 1250 0.5 0 3.3 0.5 0.03 3.3 1.5 0.5 0.3 1.7 0.02 0 1.7 0.02 0 0 0 0 0 0 0 0 0 0 1.5 0 0.11
79.681 0.27 0.65 188.34 -1.06 0.62 14.75 0 0 23 0 -37 0 0 0 25 0 0 0 1250 0.5 0 3.3 0.5 0.03 3.3 1.5 0.5 0.3 1.7 0.02 0 1.7 0.02 0 0 0 0 0 0 0 0 0 0 1.5 0 0.11
79.781 0.27 0.65 189.74 -1.06 0.56 14.81 0 0 23 0 -37 0 0 0 25 0 0 0 1250 0.5 0 3.3 0.5 0.03 3.3 1.5 0.5 0.3 1.7 0.02 0 1.7 0.02 0 0 0 0 0 0 0 0 0 0 1.5 0 0.11
79.881 0.27 0.65 191.08 -1 0.56 14.75 0 0 23 0 -37 0 0 0 25 0 0 0 1250 0.5 0 3.3 0.5 0.03 3.3 1.5 0.5 0.3 1.7 0.02 0 1.7 0.02 0 0 0 0 0 0 0 0 0 0 1.5 0 0.11
79.981 0.27 0.65 192.49 -1 0.56 14.69 0 0 23 0 -37 0 0 0 25 0 0 0 1250 0.5 0 3.3 0.5 0.03 3.3 1.5 0.5 0.3 1.7 0.02 0 1.7 0.02 0 0 0 0 0 0 0 0 0 0 1.5 0 0.11
80.081 0.27 0.65 193.88 -1.06 0.69 14.69 0 0 23 0 -37 0 0 0 25 0 0 0 1250 0.5 0 3.3 0.5 0.03 3.3 1.5 0.5 0.3 1.7 0.02 0 1.7 0.02 0 0 0 0 0 0 0 0 0 0 1.5 0 0.11
80.181 0.26 0.65 195.28 -1.12 0.62 14.69 0 0 23 0 -37 0 0 0 25 0 0 0 1250 0.5 0 3.3 0.5 0.03 3.3 1.5 0.5 0.3 1.7 0.02 0 1.7 0.02 0 0 0 0 0 0 0 0 0 0 1.5 0 0.11
80.281 0.26 0.65 196.61 -1.06 0.56 14.69 0 0 23 0 -37 0 0 0 25 0 0 0 1250 0.5 0 3.3 0.5 0.03 3.3 1.5 0.5 0.3 1.7 0.02 0 1.7 0.02 0 0 0 0 0 0 0 0 0 0 1.5 0 0.11
80.381 0.26 0.65 198.01 -1 0.69 14.63 0 0 25 0 -37 0 0 0 25 0 0 0 1250 0.5 0 3.3 0.5 0.03 3.3 1.5 0.5 0.3 1.7 0.02 0 1.7 0.02 0 0 0 0 0 0 0 0 0 0 1.5 0 0.11
80.481 0.26 0.65 199.37 -1.12 0.56 14.69 0 0 25 0 -37 0 0 0 25 0 0 0 1250 0.5 0 3.3 0.5 0.03 3.3 1.5 0.5 0.3 1.7 0.02 0 1.7 0.02 0 0 0 0 0 0 0 0 0 0 1.5 0 0.11
80.581 0.26 0.64 200.73 -1.06 0.56 14.69 0 0 23 0 -37 0 0 0 25 0 0 0 1250 0.5 0 3.3 0.5 0.03 3.3 1.5 0.5 0.3 1.7 0.02 0 1.7 0.02 0 0 0 0 0 0 0 0 0 0 1.5 0 0.11
80.681 0.26 0.64 202.15 -1.06 0.62 14.63 0 0 23 0 -37 0 0 0 25 0 0 0 1250 0.5 0 3.3 0.5 0.03 3.3 1.5 0.5 0.3 1.7 0.02 0 1.7 0.02 0 0 0 0 0 0 0 0 0 0 1.5 0 0.11
80.781 0.26 0.64 203.47 -1.06 0.56 14.75 0 0 23 0 -37 0 0 0 25 0 0 0 1250 0.5 0 3.3 0.5 0.03 3.3 1.5 0.5 0.3 1.7 0.02 0 1.7 0.02 0 0 0 0 0 0 0 0 0 0 1.5 0 0.11
80.881 0.26 0.64 204.82 -1 0.69 14.69 0 0 25 0 -37 0 0 0 25 0 0 0 1250 0.5 0 3.3 0.5 0.03 3.3 1.5 0.5 0.3 1.7 0.02 0 1.7 0.02 0 0 0 0 0 0 0 0 0 0 1.5 0 0.11
80.981 0.26 0.64 206.1 -1 0.62 14.75 0 0 25 0 -37 0 0 0 25 0 0 0 1250 0.5 0 3.3 0.5 0.03 3.3 1.5 0.5 0.3 1.7 0.02 0 1.7 0.02 0 0 0 0 0 0 0 0 0 0 1.5 0 0.11
81.081 0.25 0.64 207.41 -1.06 0.56 14.75 0 0 23 0 -37 0 0 0 25 0 0 0 1250 0.5 0 3.3 0.5 0.03 3.3 1.5 0.5 0.3 1.7 0.02 0 1.7 0.02 0 0 0 0 0 0 0 0 0 0 1.5 0 0.11
81.181 0.26 0.64 208.72 -1 0.56 14.75 0 0 23 0 -37 0 0 0 25 0 0 0 1250 0.5 0 3.3 0.5 0.03 3.3 1.5 0.5 0.3 1.7 0.02 0 1.7 0.02 0 0 0 0 0 0 0 0 0 0 1.5 0 0.11
81.281 0.26 0.64 210.08 -1.06 0.62 14.63 0 0 23 0 -37 0 0 0 25 0 0 0 1250 0.5 0 3.3 0.5 0.03 3.3 1.5 0.5 0.3 1.7 0.02 0 1.7 0.02 0 0 0 0 0 0 0 0 0 0 1.5 0 0.11
81.381 0.26 0.64 211.29 -1 0.5 14.56 0 0 25 0 -37 0 0 0 25 0 0 0 1250 0.5 0 3.3 0.5 0.03 3.3 1.5 0.5 0.3 1.7 0.02 0 1.7 0.02 0 0 0 0 0 0 0 0 0 0 1.5 0 0.11
81.481 0.26 0.64 212.57 -1 0.56 14.75 0 0 25 0 -37 0 0 0 25 0 0 0 1250 0.5 0 3.3 0.5 0.03 3.3 1.5 0.5 0.3 1.7 0.02 0 1.7 0.02 0 0 0 0 0 0 0 0 0 0 1.5 0 0.11
81.581 0.26 0.65 213.78 -1.12 0.62 14.69 0 0 23 0 -37 0 0 0 25 0 0 0 1250 0.5 0 3.3 0.5 0.03 3.3 1.5 0.5 0.3 1.7 0.02 0 1.7 0.02 0 0 0 0 0 0 0 0 0 0 1.5 0 0.11
81.681 0.26 0.64 215.11 -0.94 0.56 14.81 0 0 23 0 -37 0 0 0 25 0 0 0 1250 0.5 0 3.3 0.5 0.03 3.3 1.5 0.5 0.3 1.7 0.02 0 1.7 0.02 0 0 0 0 0 0 0 0 0 0 1.5 0 0.11
81.781 0.26 0.64 216.31 -1 0.62 14.75 0 0 23 0 -37 0 0 0 25 0 0 0 1250 0.5 0 3.3 0.5 0.03 3.3 1.5 0.5 0.3 1.7 0.02 0 1.7 0.02 0 0 0 0 0 0 0 0 0 0 1.5 0 0.11
81.881 0.26 0.64 217.63 -1.19 0.62 14.69 0 0 25 0 -37 0 0 0 25 0 0 0 1250 0.5 0 3.3 0.5 0.03 3.3 1.5 0.5 0.3 1.7 0.02 0 1.7 0.02 0 0 0 0 0 0 0 0 0 0 1.5 0 0.11
81.981 0.26 0.64 218.75 -1.06 0.62 14.69 0 0 25 0 -37 0 0 0 25 0 0 0 1250 0.5 0 3.3 0.5 0.03 3.3 1.5 0.5 0.3 1.7 0.02 0 1.7 0.02 0 0 0 0 0 0 0 0 0 0 1.5 0 0.11
82.081 0.27 0.64 219.93 -1.06 0.56 14.69 0 0 23 0 -37 0 0 0 25 0 0 0 1250 0.5 0 3.3 0.5 0.03 3.3 1.5 0.5 0.3 1.7 0.02 0 1.7 0.02 0 0 0 0 0 0 0 0 0 0 1.5 0 0.11
82.181 0.27 0.64 221.15 -1.06 0.56 14.75 0 0 23 0 -37 0 0 0 25 0 0 0 1250 0.5 0 3.3 0.5 0.03 3.3 1.5 0.5 0.3 1.7 0.02 0 1.7 0.02 0 0 0 0 0 0 0 0 0 0 1.5 0 0.11
82.281 0.26 0.64 222.2 -1 0.56 14.75 0 0 23 0 -37 0 0 0 25 0 0 0 1250 0.5 0 3.3 0.5 0.03 3.3 1.5 0.5 0.3 1.7 0.02 0 1.7 0.02 0 0 0 0 0 0 0 0 0 0 1.5 0 0.11
82.381 0.26 0.64 223.43 -1.12 0.69 14.56 0 0 25 0 -37 0 0 0 25 0 0 0 1250 0.5 0 3.3 0.5 0.03 3.3 1.5 0.5 0.3 1.7 0.02 0 1.7 0.02 0 0 0 0 0 0 0 0 0 0 1.5 0 0.11
82.481 0.26 0.65 224.45 -1.12 0.62 14.75 0 0 25 0 -37 0 0 0 25 0 0 0 1250 0.5 0 3.3 0.5 0.03 3.3 1.5 0.5 0.3 1.7 0.02 0 1.7 0.02 0 0 0 0 0 0 0 0 0 0 1.5 0 0.11
82.581 0.26 0.64 225.58 -1.12 0.62 14.69 0 0 23 0 -37 0 0 0 25 0 0 0 1250 0.5 0 3.3 0.5 0.03 3.3 1.5 0.5 0.3 1.7 0.02 0 1.7 0.02 0 0 0 0 0 0 0 0 0 0 1.5 0 0.11
82.681 0.26 0.65 226.48 -1.12 0.56 14.69 0 0 23 0 -37 0 0 0 25 0 0 0 1250 0.5 0 3.3 0.5 0.03 3.3 1.5 0.5 0.3 1.7 0.02 0 1.7 0.02 0 0 0 0 0 0 0 0 0 0 1.5 0 0.11
82.781 0.26 0.65 227.58 -1.06 0.56 14.81 0 0 23 0 -37 0 0 0 25 0 0 0 1250 0.5 0 3.3 0.5 0.03 3.3 1.5 0.5 0.3 1.7 0.02 0 1.7 0.02 0 0 0 0 0 0 0 0 0 0 1.5 0 0.11
82.881 0.26 0.65 228.47 -1.06 0.56 14.69 0 0 23 0 -37 0 0 0 25 0 0 0 1250 0.5 0 3.3 0.5 0.03 3.3 1.5 0.5 0.3 1.7 0.02 0 1.7 0.02 0 0 0 0 0 0 0 0 0 0 1.5 0 0.11
82.982 0.26 0.65 229.54 -1.06 0.62 14.75 0 0 23 0 -37 0 0 0 25 0 0 0 1250 0.5 0 3.3 0.5 0.03 3.3 1.5 0.5 0.3 1.7 0.02 0 1.7 0.02 0 0 0 0 0 0 0 0 0 0 1.5 0 0.11
83.082 0.26 0.65 230.38 -1 0.56 14.75 0 0 23 0 -37 0 0 0 25 0 0 0 1250 0.5 0 3.3 0.5 0.03 3.3 1.5 0.5 0.3 1.7 0.02 0 1.7 0.02 0 0 0 0 0 0 0 0 0 0 1.5 0 0.11
83.181 0.26 0.65 231.29 -1.06 0.56 14.75 0 0 23 0 -37 0 0 0 25 0 0 0 1250 0.5 0 3.3 0.5 0.03 3.3 1.5 0.5 0.3 1.7 0.02 0 1.7 0.02 0 0 0 0 0 0 0 0 0 0 1.5 0 0.11
83.281 0.25 0.65 231.95 -0.94 0.69 14.81 0 0 23 0 -37 0 0 0 25 0 0 0 1250 0.5 0 3.3 0.5 0.03 3.3 1.5 0.5 0.3 1.7 0.02 0 1.7 0.02 0 0 0 0 0 0 0 0 0 0 1.5 0 0.11
83.382 0.26 0.65 232.89 -1.06 0.62 14.75 0 0 23 0 -37 0 0 0 25 0 0 0 1250 0.5 0 3.3 0.5 0.03 3.3 1.5 0.5 0.3 1.7 0.02 0 1.7 0.02 0 0 0 0 0 0 0 0 0 0 1.5 0 0.11
83.482 0.26 0.66 233.54 -1 0.62 14.63 0 0 23 0 -37 0 0 0 25 0 0 0 1250 0.5 0 3.3 0.5 0.03 3.3 1.5 0.5 0.3 1.7 0.02 0 1.7 0.02 0 0 0 0 0 0 0 0 0 0 1.5 0 0.11
83.581 0.25 0.66 234.47 -1 0.62 14.69 0 0 23 0 -37 0 0 0 25 0 0 0 1250 0.5 0 3.3 0.5 0.03 3.3 1.5 0.5 0.3 1.7 0.02 0 1.7 0.02 0 0 0 0 0 0 0 0 0 0 1.5 0 0.11
83.681 0.25 0.66 235.45 -1 0.62 14.75 0 0 23 0 -37 0 0 0 25 0 0 0 1250 0.5 0 3.3 0.5 0.03 3.3 1.5 0.5 0.3 1.7 0.02 0 1.7 0.02 0 0 0 0 0 0 0 0 0 0 1.5 0 0.11
83.781 0.25 0.66 236.04 -1.06 0.69 14.63 0 0 23 0 -37 0 0 0 25 0 0 0 1250 0.5 0 3.3 0.5 0.03 3.3 1.5 0.5 0.3 1.7 0.02 0 1.7 0.02 0 0 0 0 0 0 0 0 0 0 1.5 0 0.11
83.881 0.25 0.66 236.95 -1.06 0.62 14.69 0 0 25 0 -37 0 0 0 25 0 0 0 1250 0.5 0 3.3 0.5 0.03 3.3 1.5 0.5 0.3 1.7 0.02 0 1.7 0.02 0 0 0 0 0 0 0 0 0 0 1.5 0 0.11
83.981 0.25 0.66 237.47 -1 0.56 14.63 0 0 25 0 -37 0 0 0 25 0 0 0 1250 0.5 0 3.3 0.5 0.03 3.3 1.5 0.5 0.3 1.7 0.02 0 1.7 0.02 0 0 0 0 0 0 0 0 0 0 1 0 0.05
84.082 0.25 0.66 238.35 -0.94 0.69 14.75 0 0 23 0 -37 0 0 0 25 0 0 0 1250 0.5 0 3.3 0.5 0.03 3.3 1.5 0.5 0.3 1.7 0.02 0 1.7 0.02 0 0 0 0 0 0 0 0 0 0 1 0 0.05
84.182 0.25 0.66 238.95 -1.12 0.56 14.63 0 0 23 0 -37 0 0 0 25 0 0 0 1250 0.5 0 3.3 0.5 0.03 3.3 1.5 0.5 0.3 1.7 0.02 0 1.7 0.02 0 0 0 0 0 0 0 0 0 0 1 0 0.05
84.282 0.25 0.66 239.78 -1 0.62 14.81 0 0 23 0 -37 0 0 0 25 0 0 0 1250 0.5 0 3.3 0.5 0.03 3.3 1.5 0.5 0.3 1.7 0.02 0 1.7 0.02 0 0 0 0 0 0 0 0 0 0 1 0 0.05
84.382 0.25 0.67 240.12 -1 0.56 14.69 0 0 23 0 -37 0 0 0 25 0 0 0 1250 0.5 0 3.3 0.5 0.03 3.3 1.5 0.5 0.3 1.7 0.02 0 1.7 0.02 0 0 0 0 0 0 0 0 0 0 1 0 0.05
84.482 0.25 0.66 240.82 -1.06 0.56 14.63 0 0 23 0 -37 0 0 0 25 0 0 0 1250 0.5 0 3.3 0.5 0.03 3.3 1.5 0.5 0.3 1.7 0.02 0 1.7 0.02 0 0 0 0 0 0 0 0 0 0 1 0 0.05
84.582 0.25 0.66 241.17 -1.06 0.56 14.75 0 0 23 0 -37 0 0 0 25 0 0 0 1250 0.5 0 3.3 0.5 0.03 3.3 1.5 0.5 0.3 1.7 0.02 0 1.7 0.02 0 0 0 0 0 0 0 0 0 0 1 0 0.05
84.682 0.25 0.66 241.83 -0.94 0.62 14.75 0 0 23 0 -37 0 0 0 25 0 0 0 1250 0.5 0 3.3 0.5 0.03 3.3 1.5 0.5 0.3 1.7 0.02 0 1.7 0.02 0 0 0 0 0 0 0 0 0 0 1 0 0.05
84.781 0.25 0.66 242.18 -1 0.69 14.69 0 0 23 0 -37 0 0 0 25 0 0 0 1250 0.5 0 3.3 0.5 0.03 3.3 1.5 0.5 0.3 1.7 0.02 0 1.7 0.02 0 0 0 0 0 0 0 0 0 0 1 0 0.05
84.881 0.25 0.66 242.98 -1 0.69 14.63 0 0 23 0 -37 0 0 0 25 0 0 0 1250 0.5 0 3.3 0.5 0.03 3.3 1.5 0.5 0.3 1.7 0.02 0 1.7 0.02 0 0 0 0 0 0 0 0 0 0 1 0 0.05
84.981 0.24 0.65 243.37 -1.06 0.62 14.75 0 0 23 0 -37 0 0 0 25 0 0 0 1250 0.5 0 3.3 0.5 0.03 3.3 1.5 0.5 0.3 1.7 0.02 0 1.7 0.02 0 0 0 0 0 0 0 0 0 0 1 0 0.05
85.082 0.25 0.66 244.05 -1.06 0.56 14.69 0 0 23 0 -37 0 0 0 25 0 0 0 1250 0.5 0 3.3 0.5 0.03 3.3 1.5 0.5 0.3 1.7 0.02 0 1.7 0.02 0 0 0 0 0 0 0 0 0 0 1 0 0.05
85.182 0.25 0.66 244.73 -1.06 0.56 14.81 0 0 23 0 -37 0 0 0 25 0 0 0 1250 0.5 0 3.3 0.5 0.03 3.3 1.5 0.5 0.3 1.7 0.02 0 1.7 0.02 0 0 0 0 0 0 0 0 0 0 1 0 0.05
85.281 0.25 0.66 245.02 -1.06 0.62 14.75 0 0 23 0 -37 0 0 0 25 0 0 0 1250 0.5 0 3.3 0.5 0.03 3.3 1.5 0.5 0.3 1.7 0.02 0 1.7 0.02 0 0 0 0 0 0 0 0 0 0 1 0 0.05
85.382 0.25 0.65 245.73 -1 0.62 14.63 0 0 22 0 -37 0 0 0 25 0 0 0 1250 0.5 0 3.3 0.5 0.03 3.3 1.5 0.5 0.3 1.7 0.02 0 1.7 0.02 0 0 0 0 0 0 0 0 0 0 1 0 0.05
85.482 0.25 0.65 245.99 -1.06 0.56 14.75 0 0 23 0 -37 0 0 0 25 0 0 0 1250 0.5 0 3.3 0.5 0.03 3.3 1.5 0.5 0.3 1.7 0.02 0 1.7 0.02 0 0 0 0 0 0 0 0 0 0 1 0 0.05
85.582 0.25 0.65 246.64 -1.12 0.56 14.69 0 0 23 0 -37 0 0 0 25 0 0 0 1250 0.5 0 3.3 0.5 0.03 3.3 1.5 0.5 0.3 1.7 0.02 0 1.7 0.02 0 0 0 0 0 0 0 0 0 0 1 0 0.05
85.682 0.25 0.65 246.83 -1.06 0.56 14.69 0 0 23 0 -37 0 0 0 25 0 0 0 1250 0.5 0 3.3 0.5 0.03 3.3 1.5 0.5 0.3 1.7 0.02 0 1.7 0.02 0 0 0 0 0 0 0 0 0 0 1 0 0.05
85.782 0.25 0.65 247.43 -1.06 0.69 14.69 0 0 23 0 -37 0 0 0 25 0 0 0 1250 0.5 0 3.3 0.5 0.03 3.3 1.5 0.5 0.3 1.7 0.02 0 1.7 0.02 0 0 0 0 0 0 0 0 0 0 1 0 0.05
85.882 0.24 0.65 247.6 -1 0.56 14.69 0 0 23 0 -37 0 0 0 25 0 0 0 1250 0.5 0 3.3 0.5 0.03 3.3 1.5 0.5 0.3 1.7 0.02 0 1.7 0.02 0 0 0 0 0 0 0 0 0 0 1 0 0.05
85.982 0.24 0.65 248.19 -1 0.62 14.75 0 0 23 0 -37 0 0 0 25 0 0 0 1250 0.5 0 3.3 0.5 0.03 3.3 1.5 0.5 0.3 1.7 0.02 0 1.7 0.02 0 0 0 0 0 0 0 0 0 0 1 0 0.05
86.082 0.24 0.65 248.31 -1 0.56 14.75 0 0 23 0 -37 0 0 0 25 0 0 0 1250 0.5 0 3.3 0.5 0.03 3.3 1.5 0.5 0.3 1.7 0.02 0 1.7 0.02 0 0 0 0 0 0 0 0 0 0 1 0 0.05
86.182 0.24 0.65 248.97 -1.06 0.62 14.69 0 0 23 0 -37 0 0 0 25 0 0 0 1250 0.5 0 3.3 0.5 0.03 3.3 1.5 0.5 0.3 1.7 0.02 0 1.7 0.02 0 0 0 0 0 0 0 0 0 0 1 0 0.05
86.282 0.23 0.66 249.21 -1 0.69 14.63 0 0 23 0 -37 0 0 0 25 0 0 0 1250 0.5 0 3.3 0.5 0.03 3.3 1.5 0.5 0.3 1.7 0.02 0 1.7 0.02 0 0 0 0 0 0 0 0 0 0 1 0 0.05
86.382 0.23 0.66 249.83 -1 0.69 14.69 0 0 23 0 -37 0 0 0 25 0 0 0 1250 0.5 0 3.3 0.5 0.03 3.3 1.5 0.5 0.3 1.7 0.02 0 1.7 0.02 0 0 0 0 0 0 0 0 0 0 1 0 0.05
86.482 0.23 0.66 249.96 -1.06 0.62 14.69 0 0 23 0 -37 0 0 0 25 0 0 0 1250 0.5 0 3.3 0.5 0.03 3.3 1.5 0.5 0.3 1.7 0.02 0 1.7 0.02 0 0 0 0 0 0 0 0 0 0 1 0 0.05
86.582 0.23 0.66 250.64 -1 0.62 14.63 0 0 23 0 -37 0 0 0 25 0 0 0 1250 0.5 0 3.3 0.5 0.03 3.3 1.5 0.5 0.3 1.7 0.02 0 1.7 0.02 0 0 0 0 0 0 0 0 0 0 1 0 0.05
86.682 0.23 0.67 251.28 -1.12 0.62 14.75 0 0 23 0 -37 0 0 0 25 0 0 0 1250 0.5 0 3.3 0.5 0.03 3.3 1.5 0.5 0.3 1.7 0.02 0 1.7 0.02 0 0 0 0 0 0 0 0 0 0 1 0 0.05
86.782 0.23 0.67 251.42 -1 0.5 14.75 0 0 23 0 -37 0 0 0 25 0 0 0 1250 0.5 0 3.3 0.5 0.03 3.3 1.5 0.5 0.3 1.7 0.02 0 1.7 0.02 0 0 0 0 0 0 0 0 0 0 1 0 0.05
86.882 0.23 0.67 252.01 -1 0.62 14.69 0 0 22 0 -37 0 0 0 25 0 0 0 1250 0.5 0 3.3 0.5 0.03 3.3 1.5 0.5 0.3 1.7 0.02 0 1.7 0.02 0 0 0 0 0 0 0 0 0 0 1 0 0.05
86.982 0.23 0.67 252.21 -1.06 0.62 14.69 0 0 23 0 -37 0 0 0 25 0 0 0 1250 0.5 0 3.3 0.5 0.03 3.3 1.5 0.5 0.3 1.7 0.02 0 1.7 0.02 0 0 0 0 0 0 0 0 0 0 1 0 0.05
87.082 0.23 0.66 252.82 -1.06 0.62 14.75 0 0 22 0 -37 0 0 0 25 0 0 0 1250 0.5 0 3.3 0.5 0.03 3.3 1.5 0.5 0.3 1.7 0.02 0 1.7 0.02 0 0 0 0 0 0 0 0 0 0 1 0 0.05
87.182 0.23 0.66 252.95 -1.12 0.62 14.75 0 0 23 0 -37 0 0 0 25 0 0 0 1250 0.5 0 3.3 0.5 0.03 3.3 1.5 0.5 0.3 1.7 0.02 0 1.7 0.02 0 0 0 0 0 0 0 0 0 0 1 0 0.05
87.282 0.23 0.66 253.46 -1.06 0.56 14.81 0 0 23 0 -37 0 0 0 25 0 0 0 1250 0.5 0 3.3 0.5 0.03 3.3 1.5 0.5 0.3 1.7 0.02 0 1.7 0.02 0 0 0 0 0 0 0 0 0 0 1 0 0.05
87.382 0.23 0.66 253.51 -1.12 0.62 14.75 0 0 23 0 -37 0 0 0 25 0 0 0 1250 0.5 0 3.3 0.5 0.03 3.3 1.5 0.5 0.3 1.7 0.02 0 1.7 0.02 0 0 0 0 0 0 0 0 0 0 1 0 0.05
87.482 0.23 0.66 254.08 -1.06 0.56 14.75 0 0 23 0 -37 0 0 0 25 0 0 0 1250 0.5 0 3.3 0.5 0.03 3.3 1.5 0.5 0.3 1.7 0.02 0 1.7 0.02 0 0 0 0 0 0 0 0 0 0 1 0 0.05
87.582 0.23 0.66 254.2 -1.06 0.69 14.63 0 0 23 0 -37 0 0 0 25 0 0 0 1250 0.5 0 3.3 0.5 0.03 3.3 1.5 0.5 0.3 1.7 0.02 0 1.7 0.02 0 0 0 0 0 0 0 0 0 0 1 0 0.05
87.682 0.23 0.66 254.83 -1 0.69 14.69 0 0 23 0 -37 0 0 0 25 0 0 0 1250 0.5 0 3.3 0.5 0.03 3.3 1.5 0.5 0.3 1.7 0.02 0 1.7 0.02 0 0 0 0 0 0 0 0 0 0 1 0 0.05
87.782 0.23 0.66 254.98 -1 0.69 14.69 0 0 23 0 -37 0 0 0 25 0 0 0 1250 0.5 0 3.3 0.5 0.03 3.3 1.5 0.5 0.3 1.7 0.02 0 1.7 0.02 0 0 0 0 0 0 0 0 0 0 1 0 0.05
87.882 0.23 0.66 255.59 -1.06 0.62 14.69 0 0 23 0 -37 0 0 0 25 0 0 0 1250 0.5 0 3.3 0.5 0.03 3.3 1.5 0.5 0.3 1.7 0.02 0 1.7 0.02 0 0 0 0 0 0 0 0 0 0 1 0 0.05
87.982 0.23 0.67 255.79 -1.06 0.56 14.75 0 0 23 0 -37 0 0 0 25 0 0 0 1250 0.5 0 3.3 0.5 0.03 3.3 1.5 0.5 0.3 1.7 0.02 0 1.7 0.02 0 0 0 0 0 0 0 0 0 0 1 0 0.05
88.082 0.23 0.67 256.44 -1.06 0.62 14.75 0 0 23 0 -37 0 0 0 25 0 0 0 1250 0.5 0 3.3 0.5 0.03 3.3 1.5 0.5 0.3 1.7 0.02 0 1.7 0.02 0 0 0 0 0 0 0 0 0 0 1 0 0.05
88.182 0.23 0.67 257.04 -0.94 0.62 14.75 0 0 23 0 -37 0 0 0 25 0 0 0 1250 0.5 0 3.3 0.5 0.03 3.3 1.5 0.5 0.3 1.7 0.02 0 1.7 0.02 0 0 0 0 0 0 0 0 0 0 1 0 0.05
88.282 0.23 0.67 257.23 -1 0.62 14.81 0 0 23 0 -37 0 0 0 25 0 0 0 1250 0.5 0 3.3 0.5 0.03 3.3 1.5 0.5 0.3 1.7 0.02 0 1.7 0.02 0 0 0 0 0 0 0 0 0 0 1 0 0.05
88.382 0.23 0.67 257.87 -1.06 0.69 14.69 0 0 23 0 -37 0 0 0 25 0 0 0 1250 0.5 0 3.3 0.5 0.03 3.3 1.5 0.5 0.3 1.7 0.02 0 1.7 0.02 0 0 0 0 0 0 0 0 0 0 1 0 0.05
88.482 0.23 0.67 258.15 -1.06 0.62 14.69 0 0 23 0 -37 0 0 0 25 0 0 0 1250 0.5 0 3.3 0.5 0.03 3.3 1.5 0.5 0.3 1.7 0.02 0 1.7 0.02 0 0 0 0 0 0 0 0 0 0 1 0 0.05
88.582 0.24 0.67 258.87 -1 0.56 14.69 0 0 23 0 -37 0 0 0 25 0 0 0 1250 0.5 0 3.3 0.5 0.03 3.3 1.5 0.5 0.3 1.7 0.02 0 1.7 0.02 0 0 0 0 0 0 0 0 0 0 1 0 0.05
88.682 0.23 0.67 259.24 -1.12 0.56 14.69 0 0 23 0 -37 0 0 0 25 0 0 0 1250 0.5 0 3.3 0.5 0.03 3.3 1.5 0.5 0.3 1.7 0.02 0 1.7 0.02 0 0 0 0 0 0 0 0 0 0 1 0 0.05
88.782 0.23 0.67 259.94 -1.06 0.56 14.81 0 0 22 0 -37 0 0 0 25 0 0 0 1250 0.5 0 3.3 0.5 0.03 3.3 1.5 0.5 0.3 1.7 0.02 0 1.7 0.02 0 0 0 0 0 0 0 0 0 0 1 0 0.05
88.882 0.23 0.67 260.3 -1 0.69 14.63 0 0 23 0 -37 0 0 0 25 0 0 0 1250 0.5 0 3.3 0.5 0.03 3.3 1.5 0.5 0.3 1.7 0.02 0 1.7 0.02 0 0 0 0 0 0 0 0 0 0 1 0 0.05
88.982 0.24 0.67 261.05 -1.12 0.5 14.69 0 0 23 0 -37 0 0 0 25 0 0 0 1250 0.5 0 3.3 0.5 0.03 3.3 1.5 0.5 0.3 1.7 0.02 0 1.7 0.02 0 0 0 0 0 0 0 0 0 0 1 0 0.05
89.082 0.23 0.67 261.39 -1.06 0.69 14.75 0 0 23 0 -37 0 0 0 25 0 0 0 1250 0.5 0 3.3 0.5 0.03 3.3 1.5 0.5 0.3 1.7 0.02 0 1.7 0.02 0 0 0 0 0 0 0 0 0 0 1 0 0.05
89.182 0.23 0.67 262.1 -1 0.69 14.63 0 0 28 0 -37 0 0 0 25 0 0 0 1250 0.5 0 3.3 0.5 0.03 3.3 1.5 0.5 0.3 1.7 0.02 0 1.7 0.02 0 0 0 0 0 0 0 0 0 0 1 0 0.05
89.282 0.23 0.67 262.43 -1 0.62 14.75 0 0 23 0 -37 0 0 0 25 0 0 0 1250 0.5 0 3.3 0.5 0.03 3.3 1.5 0.5 0.3 1.7 0.02 0 1.7 0.02 0 0 0 0 0 0 0 0 0 0 1 0 0.05
89.382 0.23 0.67 263.21 -1 0.56 14.75 0 0 23 0 -37 0 0 0 25 0 0 0 1250 0.5 0 3.3 0.5 0.03 3.3 1.5 0.5 0.3 1.7 0.02 0 1.7 0.02 0 0 0 0 0 0 0 0 0 0 1 0 0.05
89.482 0.23 0.67 263.8 -1 0.69 14.75 0 0 23 0 -37 0 0 0 25 0 0 0 1250 0.5 0 3.3 0.5 0.03 3.3 1.5 0.5 0.3 1.7 0.02 0 1.7 0.02 0 0 0 0 0 0 0 0 0 0 1 0 0.05
89.582 0.23 0.67 264.67 -1.12 0.56 14.75 0 0 23 0 -37 0 0 0 25 0 0 0 1250 0.5 0 3.3 0.5 0.03 3.3 1.5 0.5 0.3 1.7 0.02 0 1.7 0.02 0 0 0 0 0 0 0 0 0 0 1 0 0.05
89.682 0.23 0.68 265.51 -1.06 0.62 14.75 0 0 23 0 -37 0 0 0 25 0 0 0 1250 0.5 0 3.3 0.5 0.03 3.3 1.5 0.5 0.3 1.7 0.02 0 1.7 0.02 0 0 0 0 0 0 0 0 0 0 1 0 0.05
89.782 0.24 0.68 266.12 -1 0.56 14.75 0 0 23 0 -37 0 0 0 25 0 0 0 1250 0.5 0 3.3 0.5 0.03 3.3 1.5 0.5 0.3 1.7 0.02 0 1.7 0.02 0 0 0 0 0 0 0 0 0 0 1 0 0.05
89.882 0.24 0.68 267.08 -1.12 0.62 14.75 0 0 22 0 -37 0 0 0 25 0 0 0 1250 0.5 0 3.3 0.5 0.03 3.3 1.5 0.5 0.3 1.7 0.02 0 1.7 0.02 0 0 0 0 0 0 0 0 0 0 1 0 0.05
89.982 0.24 0.68 267.93 -1 0.56 14.69 0 0 23 0 -37 0 0 0 25 0 0 0 1250 0.5 0 3.3 0.5 0.03 3.3 1.5 0.5 0.3 1.7 0.02 0 1.7 0.02 0 0 0 0 0 0 0 0 0 0 1 0 0.05
90.082 0.24 0.68 269.05 -1.06 0.5 14.69 0 0 23 0 -37 0 0 0 25 0 0 0 1250 0.5 0 3.3 0.5 0.03 3.3 1.5 0.5 0.3 1.7 0.02 0 1.7 0.02 0 0 0 0 0 0 0 0 0 0 1 0 0.05
90.182 0.24 0.68 270.11 -1 0.62 14.75 0 0 23 0 -37 0 0 0 25 0 0 0 1250 0.5 0 3.3 0.5 0.03 3.3 1.5 0.5 0.3 1.7 0.02 0 1.7 0.02 0 0 0 0 0 0 0 0 0 0 1 0 0.05
90.282 0.24 0.68 271.35 -1.06 0.62 14.75 0 0 23 0 -37 0 0 0 25 0 0 0 1250 0.5 0 3.3 0.5 0.03 3.3 1.5 0.5 0.3 1.7 0.02 0 1.7 0.02 0 0 0 0 0 0 0 0 0 0 1 0 0.05
90.382 0.25 0.68 272.73 -1 0.62 14.69 0 0 23 0 -37 0 0 0 25 0 0 0 1250 0.5 0 3.3 0.5 0.03 3.3 1.5 0.5 0.3 1.7 0.02 0 1.7 0.02 0 0 0 0 0 0 0 0 0 0 1 0 0.05
90.482 0.25 0.68 274.23 -0.94 0.69 14.69 0 0 22 0 -37 0 0 0 25 0 0 0 1250 0.5 0 3.3 0.5 0.03 3.3 1.5 0.5 0.3 1.7 0.02 0 1.7 0.02 0 0 0 0 0 0 0 0 0 0 1 0 0.05
90.582 0.25 0.67 275.83 -1.12 0.56 14.63 0 0 23 0 -37 0 0 0 25 0 0 0 1250 0.5 0 3.3 0.5 0.03 3.3 1.5 0.5 0.3 1.7 0.02 0 1.7 0.02 0 0 0 0 0 0 0 0 0 0 1 0 0.05
90.682 0.26 0.67 277.54 -1.06 0.56 14.75 0 0 23 0 -37 0 0 0 25 0 0 0 1250 0.5 0 3.3 0.5 0.03 3.3 1.5 0.5 0.3 1.7 0.02 0 1.7 0.02 0 0 0 0 0 0 0 0 0 0 1 0 0.05
90.782 0.26 0.67 279.49 -1 0.56 14.69 0 0 22 0 -37 0 0 0 25 0 0 0 1250 0.5 0 3.3 0.5 0.03 3.3 1.5 0.5 0.3 1.7 0.02 0 1.7 0.02 0 0 0 0 0 0 0 0 0 0 1 0 0.05
90.882 0.26 0.67 281.39 -0.94 0.69 14.69 0 0 23 0 -37 0 0 0 25 0 0 0 1250 0.5 0 3.3 0.5 0.03 3.3 1.5 0.5 0.3 1.7 0.02 0 1.7 0.02 0 0 0 0 0 0 0 0 0 0 1 0 0.05
90.982 0.26 0.67 283.67 -0.94 0.69 14.69 0 0 22 0 -37 0 0 0 25 0 0 0 1250 0.5 0 3.3 0.5 0.03 3.3 1.5 0.5 0.3 1.7 0.02 0 1.7 0.02 0 0 0 0 0 0 0 0 0 0 1 0 0.05
91.082 0.27 0.67 285.83 -1 0.62 14.75 0 0 23 0 -37 0 0 0 25 0 0 0 1250 0.5 0 3.3 0.5 0.03 3.3 1.5 0.5 0.3 1.7 0.02 0 1.7 0.02 0 0 0 0 0 0 0 0 0 0 1 0 0.05
91.182 0.29 0.67 288.48 -1 0.69 14.63 0 0 25 0 -37 0 0 0 25 0 0 0 1250 0.5 0 3.3 0.5 0.03 3.3 1.5 0.5 0.3 1.7 0.02 0 1.7 0.02 0 0 0 0 0 0 0 0 0 0 1 0 0.05
91.282 0.29 0.67 290.83 -1.06 0.62 14.75 0 0 23 0 -37 0 0 0 25 0 0 0 1250 0.5 0 3.3 0.5 0.03 3.3 1.5 0.5 0.3 1.7 0.02 0 1.7 0.02 0 0 0 0 0 0 0 0 0 0 1 0 0.05
91.382 0.29 0.67 293.22 -1.06 0.56 14.75 0 0 23 0 -37 0 0 0 25 0 0 0 1250 0.5 0 3.3 0.5 0.03 3.3 1.5 0.5 0.3 1.7 0.02 0 1.7 0.02 0 0 0 0 0 0 0 0 0 0 1 0 0.05
91.482 0.29 0.67 296.12 -1.12 0.62 14.63 0 0 23 0 -37 0 0 0 25 0 0 0 1250 0.5 0 3.3 0.5 0.03 3.3 1.5 0.5 0.3 1.7 0.02 0 1.7 0.02 0 0 0 0 0 0 0 0 0 0 1 0 0.05
91.582 0.3 0.67 298.53 -1.06 0.69 14.81 0 0 25 0 -37 0 0 0 25 0 0 0 1250 0.5 0 3.3 0.5 0.03 3.3 1.5 0.5 0.3 1.7 0.02 0 1.7 0.02 0 0 0 0 0 0 0 0 0 0 1 0 0.05
91.682 0.3 0.67 301.4 -1 0.62 14.75 0 0 23 0 -37 0 0 0 25 0 0 0 1250 0.5 0 3.3 0.5 0.03 3.3 1.5 0.5 0.3 1.7 0.02 0 1.7 0.02 0 0 0 0 0 0 0 0 0 0 1 0 0.05
91.782 0.3 0.67 303.79 -1.06 0.56 14.75 0 0 23 0 -37 0 0 0 25 0 0 0 1250 0.5 0 3.3 0.5 0.03 3.3 1.5 0.5 0.3 1.7 0.02 0 1.7 0.02 0 0 0 0 0 0 0 0 0 0 1 0 0.05
91.882 0.31 0.67 306.57 -1.06 0.69 14.81 0 0 23 0 -37 0 0 0 25 0 0 0 1250 0.5 0 3.3 0.5 0.03 3.3 1.5 0.5 0.3 1.7 0.02 0 1.7 0.02 0 0 0 0 0 0 0 0 0 0 1 0 0.05
91.982 0.31 0.67 308.85 -0.94 0.62 14.75 0 0 22 0 -37 0 0 0 25 0 0 0 1250 0.5 0 3.3 0.5 0.03 3.3 1.5 0.5 0.3 1.7 0.02 0 1.7 0.02 0 0 0 0 0 0 0 0 0 0 1 0 0.05
92.082 0.31 0.67 311.47 -1 0.56 14.75 0 0 23 0 -37 0 0 0 25 0 0 0 1250 0.5 0 3.3 0.5 0.03 3.3 1.5 0.5 0.3 1.7 0.02 0 1.7 0.02 0 0 0 0 0 0 0 0 0 0 1 0 0.05
92.182 0.32 0.67 313.7 -1.12 0.62 14.81 0 0 23 0 -37 0 0 0 25 0 0 0 1250 0.5 0 3.3 0.5 0.03 3.3 1.5 0.5 0.3 1.7 0.02 0 1.7 0.02 0 0 0 0 0 0 0 0 0 0 1 0 0.05
92.282 0.32 0.67 316.22 -1 0.62 14.75 0 0 25 0 -37 0 0 0 25 0 0 0 1250 0.5 0 3.3 0.5 0.03 3.3 1.5 0.5 0.3 1.7 0.02 0 1.7 0.02 0 0 0 0 0 0 0 0 0 0 1 0 0.05
92.382 0.32 0.66 318.26 -1.06 0.62 14.81 0 0 23 0 -37 0 0 0 25 0 0 0 1250 0.5 0 3.3 0.5 0.03 3.3 1.5 0.5 0.3 1.7 0.02 0 1.7 0.02 0 0 0 0 0 0 0 0 0 0 1 0 0.05
92.482 0.32 0.66 320.51 -1.06 0.56 14.75 0 0 23 0 -37 0 0 0 25 0 0 0 1250 0.5 0 3.3 0.5 0.03 3.3 1.5 0.5 0.3 1.7 0.02 0 1.7 0.02 0 0 0 0 0 0 0 0 0 0 1 0 0.05
92.582 0.32 0.66 322.55 -1.06 0.62 14.69 0 0 25 0 -37 0 0 0 25 0 0 0 1250 0.5 0 3.3 0.5 0.03 3.3 1.5 0.5 0.3 1.7 0.02 0 1.7 0.02 0 0 0 0 0 0 0 0 0 0 1 0 0.05
92.682 0.32 0.66 324.67 -1 0.62 14.63 0 0 25 0 -37 0 0 0 25 0 0 0 1250 0.5 0 3.3 0.5 0.03 3.3 1.5 0.5 0.3 1.7 0.02 0 1.7 0.02 0 0 0 0 0 0 0 0 0 0 1 0 0.05
92.782 0.32 0.66 326.53 -1 0.56 14.75 0 0 23 0 -37 0 0 0 25 0 0 0 1250 0.5 0 3.3 0.5 0.03 3.3 1.5 0.5 0.3 1.7 0.02 0 1.7 0.02 0 0 0 0 0 0 0 0 0 0 1 0 0.05
92.882 0.32 0.66 328.34 -1.06 0.62 14.75 0 0 23 0 -37 0 0 0 25 0 0 0 1250 0.5 0 3.3 0.5 0.03 3.3 1.5 0.5 0.3 1.7 0.02 0 1.7 0.02 0 0 0 0 0 0 0 0 0 0 1 0 0.05
92.982 0.32 0.65 330.31 -1.06 0.69 14.75 0 0 23 0 -37 0 0 0 25 0 0 0 1250 0.5 0 3.3 0.5 0.03 3.3 1.5 0.5 0.3 1.7 0.02 0 1.7 0.02 0 0 0 0 0 0 0 0 0 0 1 0 0.05
93.082 0.32 0.65 332.07 -1 0.56 14.69 0 0 23 0 -37 0 0 0 25 0 0 0 1250 0.5 0 3.3 0.5 0.03 3.3 1.5 0.5 0.3 1.7 0.02 0 1.7 0.02 0 0 0 0 0 0 0 0 0 0 1 0 0.05
93.182 0.32 0.65 333.95 -1.06 0.62 14.75 0 0 23 0 -37 0 0 0 25 0 0 0 1250 0.5 0 3.3 0.5 0.03 3.3 1.5 0.5 0.3 1.7 0.02 0 1.7 0.02 0 0 0 0 0 0 0 0 0 0 1 0 0.05
93.282 0.31 0.65 335.68 -1.06 0.69 14.75 0 0 23 0 -37 0 0 0 25 0 0 0 1250 0.5 0 3.3 0.5 0.03 3.3 1.5 0.5 0.3 1.7 0.02 0 1.7 0.02 0 0 0 0 0 0 0 0 0 0 1 0 0.05
93.382 0.31 0.65 337.5 -1.06 0.69 14.69 0 0 23 0 -37 0 0 0 25 0 0 0 1250 0.5 0 3.3 0.5 0.03 3.3 1.5 0.5 0.3 1.7 0.02 0 1.7 0.02 0 0 0 0 0 0 0 0 0 0 1 0 0.05
93.482 0.31 0.65 339.19 -1.12 0.69 14.69 0 0 23 0 -37 0 0 0 25 0 0 0 1250 0.5 0 3.3 0.5 0.03 3.3 1.5 0.5 0.3 1.7 0.02 0 1.7 0.02 0 0 0 0 0 0 0 0 0 0 1 0 0.05
93.582 0.31 0.65 340.97 -1.06 0.62 14.81 0 0 23 0 -37 0 0 0 25 0 0 0 1250 0.5 0 3.3 0.5 0.03 3.3 1.5 0.5 0.3 1.7 0.02 0 1.7 0.02 0 0 0 0 0 0 0 0 0 0 1 0 0.05
93.682 0.31 0.65 342.6 -1.06 0.75 14.81 0 0 23 0 -37 0 0 0 25 0 0 0 1250 0.5 0 3.3 0.5 0.03 3.3 1.5 0.5 0.3 1.7 0.02 0 1.7 0.02 0 0 0 0 0 0 0 0 0 0 1 0 0.05
93.782 0.31 0.65 344.29 -1.06 0.75 14.69 0 0 25 0 -37 0 0 0 25 0 0 0 1250 0.5 0 3.3 0.5 0.03 3.3 1.5 0.5 0.3 1.7 0.02 0 1.7 0.02 0 0 0 0 0 0 0 0 0 0 1 0 0.05
93.882 0.31 0.65 345.9 -1.06 0.62 14.75 0 0 23 0 -37 0 0 0 25 0 0 0 1250 0.5 0 3.3 0.5 0.03 3.3 1.5 0.5 0.3 1.7 0.02 0 1.7 0.02 0 0 0 0 0 0 0 0 0 0 1 0 0.05
93.982 0.31 0.65 347.56 -1.12 0.62 14.63 0 0 23 0 -37 0 0 0 25 0 0 0 1250 0.5 0 3.3 0.5 0.03 3.3 1.5 0.5 0.3 1.7 0.02 0 1.7 0.02 0 0 0 0 0 0 0 0 0 0 1 0 0.05
94.082 0.3 0.65 349.16 -1 0.56 14.69 0 0 25 0 -37 0 0 0 25 0 0 0 1250 0.5 0 3.3 0.5 0.03 3.3 1.5 0.5 0.3 1.7 0.02 0 1.7 0.02 0 0 0 0 0 0 0 0 0 0 1 0 0.05
94.183 0.3 0.65 350.75 -1.12 0.56 14.75 0 0 23 0 -37 0 0 0 25 0 0 0 1250 0.5 0 3.3 0.5 0.03 3.3 1.5 0.5 0.3 1.7 0.02 0 1.7 0.02 0 0 0 0 0 0 0 0 0 0 1 0 0.05
94.282 0.3 0.65 352.33 -1.06 0.56 14.69 0 0 23 0 -37 0 0 0 25 0 0 0 1250 0.5 0 3.3 0.5 0.03 3.3 1.5 0.5 0.3 1.7 0.02 0 1.7 0.02 0 0 0 0 0 0 0 0 0 0 1 0 0.05
94.382 0.3 0.65 353.91 -1.06 0.56 14.75 0 0 23 0 -37 0 0 0 25 0 0 0 1250 0.5 0 3.3 0.5 0.03 3.3 1.5 0.5 0.3 1.7 0.02 0 1.7 0.02 0 0 0 0 0 0 0 0 0 0 1 0 0.05
94.482 0.3 0.65 355.49 -1.06 0.56 14.75 0 0 23 0 -37 0 0 0 25 0 0 0 1250 0.5 0 3.3 0.5 0.03 3.3 1.5 0.5 0.3 1.7 0.02 0 1.7 0.02 0 0 0 0 0 0 0 0 0 0 1 0 0.05
94.582 0.3 0.65 357.05 -1 0.62 14.75 0 0 23 0 -37 0 0 0 25 0 0 0 1250 0.5 0 3.3 0.5 0.03 3.3 1.5 0.5 0.3 1.7 0.02 0 1.7 0.02 0 0 0 0 0 0 0 0 0 0 1 0 0.05
94.682 0.3 0.65 358.65 -1.06 0.62 14.75 0 0 25 0 -37 0 0 0 25 0 0 0 1250 0.5 0 3.3 0.5 0.03 3.3 1.5 0.5 0.3 1.7 0.02 0 1.7 0.02 0 0 0 0 0 0 0 0 0 0 1 0 0.05
94.782 0.3 0.65 0.19 -1.06 0.62 14.75 0 0 23 0 -37 0 0 0 25 0 0 0 1250 0.5 0 3.3 0.5 0.03 3.3 1.5 0.5 0.3 1.7 0.02 0 1.7 0.02 0 0 0 0 0 0 0 0 0 0 1 0 0.05
94.882 0.3 0.65 1.75 -1 0.62 14.75 0 0 23 0 -37 0 0 0 25 0 0 0 1250 0.5 0 3.3 0.5 0.03 3.3 1.5 0.5 0.3 1.7 0.02 0 1.7 0.02 0 0 0 0 0 0 0 0 0 0 1 0 0.05
94.982 0.3 0.66 3.27 -1.06 0.62 14.75 0 0 28 0 -37 0 0 0 25 0 0 0 1250 0.5 0 3.3 0.5 0.03 3.3 1.5 0.5 0.3 1.7 0.02 0 1.7 0.02 0 0 0 0 0 0 0 0 0 0 1 0 0.05
95.082 0.3 0.66 4.87 -1 0.62 14.81 0 0 23 0 -37 0 0 0 25 0 0 0 1250 0.5 0 3.3 0.5 0.03 3.3 1.5 0.5 0.3 1.7 0.02 0 1.7 0.02 0 0 0 0 0 0 0 0 0 0 1 0 0.05
95.182 0.3 0.66 6.38 -1.12 0.56 14.69 0 0 23 0 -37 0 0 0 25 0 0 0 1250 0.5 0 3.3 0.5 0.03 3.3 1.5 0.5 0.3 1.7 0.02 0 1.7 0.02 0 0 0 0 0 0 0 0 0 0 1 0 0.05
95.282 0.3 0.66 7.95 -1.12 0.56 14.63 0 0 23 0 -37 0 0 0 25 0 0 0 1250 0.5 0 3.3 0.5 0.03 3.3 1.5 0.5 0.3 1.7 0.02 0 1.7 0.02 0 0 0 0 0 0 0 0 0 0 1 0 0.05
95.382 0.3 0.66 9.5 -1.06 0.69 14.75 0 0 23 0 -37 0 0 0 25 0 0 0 1250 0.5 0 3.3 0.5 0.03 3.3 1.5 0.5 0.3 1.7 0.02 0 1.7 0.02 0 0 0 0 0 0 0 0 0 0 1 0 0.05
95.482 0.3 0.66 11.06 -1.06 0.62 14.75 0 0 22 0 -37 0 0 0 25 0 0 0 1250 0.5 0 3.3 0.5 0.03 3.3 1.5 0.5 0.3 1.7 0.02 0 1.7 0.02 0 0 0 0 0 0 0 0 0 0 1 0 0.05
95.582 0.3 0.66 12.61 -1.06 0.62 14.69 0 0 23 0 -37 0 0 0 25 0 0 0 1250 0.5 0 3.3 0.5 0.03 3.3 1.5 0.5 0.3 1.7 0.02 0 1.7 0.02 0 0 0 0 0 0 0 0 0 0 1 0 0.05
95.682 0.3 0.66 14.17 -1 0.62 14.75 0 0 23 0 -37 0 0 0 25 0 0 0 1250 0.5 0 3.3 0.5 0.03 3.3 1.5 0.5 0.3 1.7 0.02 0 1.7 0.02 0 0 0 0 0 0 0 0 0 0 1 0 0.05
95.782 0.3 0.66 15.75 -1.06 0.69 14.69 0 0 23 0 -37 0 0 0 25 0 0 0 1250 0.5 0 3.3 0.5 0.03 3.3 1.5 0.5 0.3 1.7 0.02 0 1.7 0.02 0 0 0 0 0 0 0 0 0 0 1 0 0.05
95.883 0.3 0.66 17.31 -1.06 0.69 14.63 0 0 23 0 -37 0 0 0 25 0 0 0 1250 0.5 0 3.3 0.5 0.03 3.3 1.5 0.5 0.3 1.7 0.02 0 1.7 0.02 0 0 0 0 0 0 0 0 0 0 1 0 0.05
95.982 0.3 0.66 18.87 -1.06 0.62 14.63 0 0 25 0 -37 0 0 0 25 0 0 0 1250 0.5 0 3.3 0.5 0.03 3.3 1.5 0.5 0.3 1.7 0.02 0 1.7 0.02 0 0 0 0 0 0 0 0 0 0 1 0 0.05
96.082 0.3 0.65 20.39 -1.12 0.62 14.75 0 0 23 0 -37 0 0 0 25 0 0 0 1250 0.5 0 3.3 0.5 0.03 3.3 1.5 0.5 0.3 1.7 0.02 0 1.7 0.02 0 0 0 0 0 0 0 0 0 0 1 0 0.05
96.182 0.3 0.65 21.92 -1 0.56 14.69 0 0 22 0 -37 0 0 0 25 0 0 0 1250 0.5 0 3.3 0.5 0.03 3.3 1.5 0.5 0.3 1.7 0.02 0 1.7 0.02 0 0 0 0 0 0 0 0 0 0 1 0 0.05
96.282 0.3 0.65 23.42 -1.06 0.56 14.75 0 0 23 0 -37 0 0 0 25 0 0 0 1250 0.5 0 3.3 0.5 0.03 3.3 1.5 0.5 0.3 1.7 0.02 0 1.7 0.02 0 0 0 0 0 0 0 0 0 0 1 0 0.05
96.383 0.3 0.65 24.97 -1 0.62 14.69 0 0 23 0 -37 0 0 0 25 0 0 0 1250 0.5 0 3.3 0.5 0.03 3.3 1.5 0.5 0.3 1.7 0.02 0 1.7 0.02 0 0 0 0 0 0 0 0 0 0 1 0 0.05
96.482 0.3 0.65 26.47 -1.06 0.62 14.69 0 0 22 0 -37 0 0 0 25 0 0 0 1250 0.5 0 3.3 0.5 0.03 3.3 1.5 0.5 0.3 1.7 0.02 0 1.7 0.02 0 0 0 0 0 0 0 0 0 0 1 0 0.05
96.583 0.29 0.65 27.93 -1.12 0.62 14.75 0 0 23 0 -37 0 0 0 25 0 0 0 1250 0.5 0 3.3 0.5 0.03 3.3 1.5 0.5 0.3 1.7 0.02 0 1.7 0.02 0 0 0 0 0 0 0 0 0 0 1 0 0.05
96.683 0.29 0.65 29.44 -1.12 0.62 14.69 0 0 23 0 -37 0 0 0 25 0 0 0 1250 0.5 0 3.3 0.5 0.03 3.3 1.5 0.5 0.3 1.7 0.02 0 1.7 0.02 0 0 0 0 0 0 0 0 0 0 1 0 0.05
96.783 0.29 0.65 30.93 -1.06 0.62 14.75 0 0 23 0 -37 0 0 0 25 0 0 0 1250 0.5 0 3.3 0.5 0.03 3.3 1.5 0.5 0.3 1.7 0.02 0 1.7 0.02 0 0 0 0 0 0 0 0 0 0 1 0 0.05
96.883 0.29 0.65 32.39 -1 0.62 14.75 0 0 23 0 -37 0 0 0 25 0 0 0 1250 0.5 0 3.3 0.5 0.03 3.3 1.5 0.5 0.3 1.7 0.02 0 1.7 0.02 0 0 0 0 0 0 0 0 0 0 1 0 0.05
96.983 0.29 0.65 33.74 -1 0.62 14.69 0 0 22 0 -37 0 0 0 25 0 0 0 1250 0.5 0 3.3 0.5 0.03 3.3 1.5 0.5 0.3 1.7 0.02 0 1.7 0.02 0 0 0 0 0 0 0 0 0 0 1 0 0.05
97.083 0.29 0.65 35.13 -1.12 0.69 14.69 0 0 23 0 -37 0 0 0 25 0 0 0 1250 0.5 0 3.3 0.5 0.03 3.3 1.5 0.5 0.3 1.7 0.02 0 1.7 0.02 0 0 0 0 0 0 0 0 0 0 1 0 0.05
97.183 0.29 0.65 36.4 -1 0.62 14.75 0 0 22 0 -37 0 0 0 25 0 0 0 1250 0.5 0 3.3 0.5 0.03 3.3 1.5 0.5 0.3 1.7 0.02 0 1.7 0.02 0 0 0 0 0 0 0 0 0 0 1 0 0.05
97.283 0.29 0.65 37.72 -1 0.62 14.69 0 0 23 0 -37 0 0 0 25 0 0 0 1250 0.5 0 3.3 0.5 0.03 3.3 1.5 0.5 0.3 1.7 0.02 0 1.7 0.02 0 0 0 0 0 0 0 0 0 0 1 0 0.05
97.382 0.29 0.65 39.03 -1.06 0.62 14.81 0 0 23 0 -37 0 0 0 25 0 0 0 1250 0.5 0 3.3 0.5 0.03 3.3 1.5 0.5 0.3 1.7 0.02 0 1.7 0.02 0 0 0 0 0 0 0 0 0 0 1 0 0.05
97.482 0.29 0.65 40.24 -1 0.5 14.75 0 0 23 0 -37 0 0 0 25 0 0 0 1250 0.5 0 3.3 0.5 0.03 3.3 1.5 0.5 0.3 1.7 0.02 0 1.7 0.02 0 0 0 0 0 0 0 0 0 0 1 0 0.05
97.583 0.29 0.65 41.52 -0.94 0.62 14.75 0 0 23 0 -37 0 0 0 25 0 0 0 1250 0.5 0 3.3 0.5 0.03 3.3 1.5 0.5 0.3 1.7 0.02 0 1.7 0.02 0 0 0 0 0 0 0 0 0 0 1 0 0.05
97.683 0.29 0.65 42.68 -1 0.62 14.69 0 0 23 0 -37 0 0 0 25 0 0 0 1250 0.5 0 3.3 0.5 0.03 3.3 1.5 0.5 0.3 1.7 0.02 0 1.7 0.02 0 0 0 0 0 0 0 0 0 0 1 0 0.05
97.783 0.29 0.65 43.92 -1.06 0.69 14.69 0 0 23 0 -37 0 0 0 25 0 0 0 1250 0.5 0 3.3 0.5 0.03 3.3 1.5 0.5 0.3 1.7 0.02 0 1.7 0.02 0 0 0 0 0 0 0 0 0 0 1 0 0.05
97.883 0.29 0.65 45 -1.12 0.62 14.75 0 0 23 0 -37 0 0 0 25 0 0 0 1250 0.5 0 3.3 0.5 0.03 3.3 1.5 0.5 0.3 1.7 0.02 0 1.7 0.02 0 0 0 0 0 0 0 0 0 0 1 0 0.05
