time roll pitch yaw roll_d pitch_d yaw_d longitude latitude height roll_t pitch_t yaw_t longitude_t latitude_t height_t roll_signal pitch_signal yaw_signal throttle Kp_r_d Ki_r_d Kd_r_d Kp_p_d Ki_p_d Kd_p_d Kp_y_d Ki_y_d Kd_y_d Kp_r Ki_r Kd_r Kp_p Ki_p Kd_p Kp_y Ki_y Kd_y Kp_lon Ki_lon Kd_lon Kp_lat Ki_lat Kd_lat Kp_h Ki_h Kd_h
0 0 0 0 0 0 0 0 0 0 0 0 0 0 0 25 0 0 0 1250 0.5 0.1 0.3 0.5 0.1 0.3 1.5 0.5 0.3 1.7 0 0 1.7 0 0 0 0 0 0 0 0 0 0 0 1.5 0 0.11
20.246 0.65 0.34 18.65 -0.13 0.06 1 0 0 21 2 0 0 0 0 59 7.17 -0.9 -57.53 1596 0.5 0.1 0.3 0.5 0.1 0.3 1.5 0.5 0.3 1.7 0 0 1.7 0 0 0 0 0 0 0 0 0 0 0 1.5 0 0.11
20.345 0.65 0.34 18.76 -0.06 0.13 1 0 0 21 2 0 0 0 0 59 1.34 -1.06 -57.47 1596 0.5 0.1 0.3 0.5 0.1 0.3 1.5 0.5 0.3 1.7 0 0 1.7 0 0 0 0 0 0 0 0 0 0 0 1.5 0 0.11
20.445 0.65 0.34 18.86 -0.13 0.06 1.06 0 0 21 2 0 0 0 0 59 1.57 -1 -55.68 1596 0.5 0.1 0.3 0.5 0.1 0.3 1.5 0.5 0.3 1.7 0 0 1.7 0 0 0 0 0 0 0 0 0 0 0 1.5 0 0.11
20.545 0.65 0.34 18.96 -0.06 0.19 1 0 0 19 2 0 0 0 0 59 1.5 -1.23 -57.5 1596 0.5 0.1 0.3 0.5 0.1 0.3 1.5 0.5 0.3 1.7 0 0 1.7 0 0 0 0 0 0 0 0 0 0 0 1.5 0 0.11
20.646 0.65 0.34 19.06 -0.06 0.13 0.88 0 0 21 2 0 0 0 0 59 1.55 -1.23 -57.39 1596 0.5 0.1 0.3 0.5 0.1 0.3 1.5 0.5 0.3 1.7 0 0 1.7 0 0 0 0 0 0 0 0 0 0 0 1.5 0 0.11
20.746 0.64 0.34 19.16 -0.13 0.19 0.94 0 0 21 2 0 0 0 0 59 1.73 -1.16 -55.96 1597 0.5 0.1 0.3 0.5 0.1 0.3 1.5 0.5 0.3 1.7 0 0 1.7 0 0 0 0 0 0 0 0 0 0 0 1.5 0 0.11
20.846 0.64 0.35 19.27 -0.06 0 0.88 0 0 21 1 0 0 0 0 59 0.72 -0.95 -57.36 1596 0.5 0.1 0.3 0.5 0.1 0.3 1.5 0.5 0.3 1.7 0 0 1.7 0 0 0 0 0 0 0 0 0 0 0 1.5 0 0.11
20.946 0.65 0.34 19.37 -0.25 0.13 1 0 0 21 2 0 0 0 0 59 1.87 -1.08 -57.47 1597 0.5 0.1 0.3 0.5 0.1 0.3 1.5 0.5 0.3 1.7 0 0 1.7 0 0 0 0 0 0 0 0 0 0 0 1.5 0 0.11
21.046 0.65 0.34 19.47 -0.06 0.13 0.94 0 0 22 2 0 0 0 0 59 1.54 -1.16 -57.38 1596 0.5 0.1 0.3 0.5 0.1 0.3 1.5 0.5 0.3 1.7 0 0 1.7 0 0 0 0 0 0 0 0 0 0 0 1.5 0 0.11
21.146 0.65 0.34 19.57 -0.06 0 1.06 0 0 21 2 0 0 0 0 59 1.42 -1.08 -57.47 1596 0.5 0.1 0.3 0.5 0.1 0.3 1.5 0.5 0.3 1.7 0 0 1.7 0 0 0 0 0 0 0 0 0 0 0 1.5 0 0.11
21.246 0.65 0.34 19.67 -0.19 0.13 1 0 0 22 2 0 0 0 0 59 1.66 -1.17 -57.5 1596 0.5 0.1 0.3 0.5 0.1 0.3 1.5 0.5 0.3 1.7 0 0 1.7 0 0 0 0 0 0 0 0 0 0 0 1.5 0 0.11
21.346 0.66 0.34 19.78 -0.06 0.19 1.06 0 0 21 2 0 0 0 0 59 1.47 -1.19 -56.01 1596 0.5 0.1 0.3 0.5 0.1 0.3 1.5 0.5 0.3 1.7 0 0 1.7 0 0 0 0 0 0 0 0 0 0 0 1.5 0 0.11
21.446 0.65 0.34 19.87 -0.13 0.13 0.94 0 0 21 2 0 0 0 0 59 1.63 -1.06 -57.44 1596 0.5 0.1 0.3 0.5 0.1 0.3 1.5 0.5 0.3 1.7 0 0 1.7 0 0 0 0 0 0 0 0 0 0 0 1.5 0 0.11
21.546 0.66 0.34 19.97 -0.06 0 0.94 0 0 22 2 0 0 0 0 59 1.55 -0.92 -57.43 1596 0.5 0.1 0.3 0.5 0.1 0.3 1.5 0.5 0.3 1.7 0 0 1.7 0 0 0 0 0 0 0 0 0 0 0 1.5 0 0.11
21.646 0.66 0.34 20.07 -0.13 0.06 0.94 0 0 22 2 0 0 0 0 59 1.56 -1.05 -57.46 1597 0.5 0.1 0.3 0.5 0.1 0.3 1.5 0.5 0.3 1.7 0 0 1.7 0 0 0 0 0 0 0 0 0 0 0 1.5 0 0.11
21.746 0.66 0.35 20.17 -0.06 0.13 1 0 0 21 2 0 0 0 0 59 1.42 -1.12 -57.44 1596 0.5 0.1 0.3 0.5 0.1 0.3 1.5 0.5 0.3 1.7 0 0 1.7 0 0 0 0 0 0 0 0 0 0 0 1.5 0 0.11
21.846 0.66 0.35 20.28 -0.13 0.19 1 0 0 20 2 0 0 0 0 59 1.63 -1.29 -56 1595 0.5 0.1 0.3 0.5 0.1 0.3 1.5 0.5 0.3 1.7 0 0 1.7 0 0 0 0 0 0 0 0 0 0 0 1.5 0 0.11
21.946 0.66 0.35 20.38 -0.19 0.06 1 0 0 22 2 0 0 0 0 59 1.65 -1.07 -57.5 1596 0.5 0.1 0.3 0.5 0.1 0.3 1.5 0.5 0.3 1.7 0 0 1.7 0 0 0 0 0 0 0 0 0 0 0 1.5 0 0.11
22.046 0.66 0.35 20.48 -0.06 0.06 0.94 0 0 22 2 0 0 0 0 59 1.57 -1.1 -57.41 1596 0.5 0.1 0.3 0.5 0.1 0.3 1.5 0.5 0.3 1.7 0 0 1.7 0 0 0 0 0 0 0 0 0 0 0 1.5 0 0.11
22.146 0.66 0.34 20.59 -0.06 0.06 1 0 0 21 2 0 0 0 0 59 1.56 -1.06 -55.73 1596 0.5 0.1 0.3 0.5 0.1 0.3 1.5 0.5 0.3 1.7 0 0 1.7 0 0 0 0 0 0 0 0 0 0 0 1.5 0 0.11
22.246 0.65 0.34 20.69 -0.13 0.13 1 0 0 22 2 0 0 0 0 59 1.58 -1.15 -55.97 1596 0.5 0.1 0.3 0.5 0.1 0.3 1.5 0.5 0.3 1.7 0 0 1.7 0 0 0 0 0 0 0 0 0 0 0 1.5 0 0.11
22.346 0.66 0.34 20.79 -0.13 0.06 1 0 0 22 2 0 0 0 0 59 1.45 -1.15 -57.44 1596 0.5 0.1 0.3 0.5 0.1 0.3 1.5 0.5 0.3 1.7 0 0 1.7 0 0 0 0 0 0 0 0 0 0 0 1.5 0 0.11
22.446 0.65 0.34 20.88 -0.06 0.06 1.06 0 0 22 2 0 0 0 0 59 1.58 -1.1 -57.54 1595 0.5 0.1 0.3 0.5 0.1 0.3 1.5 0.5 0.3 1.7 0 0 1.7 0 0 0 0 0 0 0 0 0 0 0 1.5 0 0.11
22.546 0.65 0.34 20.99 0 0.13 1 0 0 21 2 0 0 0 0 59 1.45 -1.24 -55.94 1595 0.5 0.1 0.3 0.5 0.1 0.3 1.5 0.5 0.3 1.7 0 0 1.7 0 0 0 0 0 0 0 0 0 0 0 1.5 0 0.11
22.646 0.66 0.34 21.09 -0.13 0.06 1 0 0 21 2 0 0 0 0 59 1.67 -1.07 -57.87 1596 0.5 0.1 0.3 0.5 0.1 0.3 1.5 0.5 0.3 1.7 0 0 1.7 0 0 0 0 0 0 0 0 0 0 0 1.5 0 0.11
22.746 0.65 0.34 21.19 -0.13 0 0.94 0 0 22 2 0 0 0 0 59 1.55 -1.09 -57.46 1595 0.5 0.1 0.3 0.5 0.1 0.3 1.5 0.5 0.3 1.7 0 0 1.7 0 0 0 0 0 0 0 0 0 0 0 1.5 0 0.11
22.846 0.65 0.34 21.29 -0.06 0.13 0.94 0 0 21 2 0 0 0 0 59 1.68 -1.17 -57.44 1596 0.5 0.1 0.3 0.5 0.1 0.3 1.5 0.5 0.3 1.7 0 0 1.7 0 0 0 0 0 0 0 0 0 0 0 1.5 0 0.11
22.946 0.65 0.34 21.4 -0.13 0.06 0.88 0 0 21 2 0 0 0 0 59 1.77 -1.17 -55.87 1597 0.5 0.1 0.3 0.5 0.1 0.3 1.5 0.5 0.3 1.7 0 0 1.7 0 0 0 0 0 0 0 0 0 0 0 1.5 0 0.11
23.046 0.65 0.34 21.5 -0.13 0.13 0.88 0 0 21 2 0 0 0 0 59 1.61 -1.24 -55.89 1596 0.5 0.1 0.3 0.5 0.1 0.3 1.5 0.5 0.3 1.7 0 0 1.7 0 0 0 0 0 0 0 0 0 0 0 1.5 0 0.11
23.146 0.65 0.34 21.6 -0.06 0.13 1 0 0 22 2 0 0 0 0 59 1.54 -1.19 -57.44 1596 0.5 0.1 0.3 0.5 0.1 0.3 1.5 0.5 0.3 1.7 0 0 1.7 0 0 0 0 0 0 0 0 0 0 0 1.5 0 0.11
23.246 0.65 0.34 21.7 -0.06 0 0.94 0 0 21 2 0 0 0 0 59 1.62 -1.12 -57.46 1596 0.5 0.1 0.3 0.5 0.1 0.3 1.5 0.5 0.3 1.7 0 0 1.7 0 0 0 0 0 0 0 0 0 0 0 1.5 0 0.11
23.346 0.65 0.34 21.8 -0.13 0.13 1 0 0 22 2 0 0 0 0 59 1.68 -1.3 -57.77 1596 0.5 0.1 0.3 0.5 0.1 0.3 1.5 0.5 0.3 1.7 0 0 1.7 0 0 0 0 0 0 0 0 0 0 0 1.5 0 0.11
23.446 0.65 0.34 21.91 -0.13 0.06 1.06 0 0 21 2 0 0 0 0 59 1.54 -1.19 -57.54 1596 0.5 0.1 0.3 0.5 0.1 0.3 1.5 0.5 0.3 1.7 0 0 1.7 0 0 0 0 0 0 0 0 0 0 0 1.5 0 0.11
23.546 0.65 0.34 22.01 -0.13 0.06 1.06 0 0 21 2 0 0 0 0 59 1.63 -1.22 -57.51 1596 0.5 0.1 0.3 0.5 0.1 0.3 1.5 0.5 0.3 1.7 0 0 1.7 0 0 0 0 0 0 0 0 0 0 0 1.5 0 0.11
23.646 0.65 0.34 22.1 -0.06 0.13 1 0 0 22 2 0 0 0 0 59 1.54 -1.29 -57.46 1595 0.5 0.1 0.3 0.5 0.1 0.3 1.5 0.5 0.3 1.7 0 0 1.7 0 0 0 0 0 0 0 0 0 0 0 1.5 0 0.11
23.746 0.65 0.34 22.21 -0.13 0.13 1 0 0 21 1 0 0 0 0 59 0.92 -1.31 -57.48 1596 0.5 0.1 0.3 0.5 0.1 0.3 1.5 0.5 0.3 1.7 0 0 1.7 0 0 0 0 0 0 0 0 0 0 0 1.5 0 0.11
23.846 0.65 0.34 22.31 0 0.13 0.88 0 0 20 2 0 0 0 0 59 1.47 -1.27 -57.43 1595 0.5 0.1 0.3 0.5 0.1 0.3 1.5 0.5 0.3 1.7 0 0 1.7 0 0 0 0 0 0 0 0 0 0 0 1.5 0 0.11
23.946 0.65 0.34 22.41 -0.06 0.06 1 0 0 20 2 0 0 0 0 59 1.62 -1.29 -55.96 1596 0.5 0.1 0.3 0.5 0.1 0.3 1.5 0.5 0.3 1.7 0 0 1.7 0 0 0 0 0 0 0 0 0 0 0 1.5 0 0.11
24.047 0.65 0.34 22.52 -0.13 0.06 1 0 0 20 1 0 0 0 0 59 0.79 -1.16 -57.47 1596 0.5 0.1 0.3 0.5 0.1 0.3 1.5 0.5 0.3 1.7 0 0 1.7 0 0 0 0 0 0 0 0 0 0 0 1.5 0 0.11
24.147 0.65 0.34 22.62 -0.06 0.06 0.94 0 0 20 2 0 0 0 0 59 1.6 -1.24 -57.43 1597 0.5 0.1 0.3 0.5 0.1 0.3 1.5 0.5 0.3 1.7 0 0 1.7 0 0 0 0 0 0 0 0 0 0 0 1.5 0 0.11
24.247 0.65 0.34 22.72 -0.13 0.06 1 0 0 21 2 0 0 0 0 59 1.71 -1.17 -54.44 1595 0.5 0.1 0.3 0.5 0.1 0.3 1.5 0.5 0.3 1.7 0 0 1.7 0 0 0 0 0 0 0 0 0 0 0 1.5 0 0.11
24.346 0.65 0.34 22.82 -0.13 0.06 0.94 0 0 21 1 0 0 0 0 59 1.75 -1.19 -57.43 1599 0.5 0.1 0.3 0.5 0.1 0.3 1.5 0.5 0.3 1.7 0 0 1.7 0 0 0 0 0 0 0 0 0 0 0 1.5 0 0.11
24.447 0.66 0.34 22.93 -0.13 0.06 1 0 0 21 2 0 0 0 0 59 1.54 -1.19 -57.51 1596 0.5 0.1 0.3 0.5 0.1 0.3 1.5 0.5 0.3 1.7 0 0 1.7 0 0 0 0 0 0 0 0 0 0 0 1.5 0 0.11
24.546 0.65 0.34 23.03 -0.13 0.13 0.88 0 0 20 2 0 0 0 0 59 1.57 -1.26 -55.64 1595 0.5 0.1 0.3 0.5 0.1 0.3 1.5 0.5 0.3 1.7 0 0 1.7 0 0 0 0 0 0 0 0 0 0 0 1.5 0 0.11
24.647 0.65 0.34 23.13 -0.13 0.06 1 0 0 21 2 0 0 0 0 59 1.65 -1.2 -57.46 1596 0.5 0.1 0.3 0.5 0.1 0.3 1.5 0.5 0.3 1.7 0 0 1.7 0 0 0 0 0 0 0 0 0 0 0 1.5 0 0.11
24.747 0.65 0.34 23.23 -0.13 0.06 0.94 0 0 22 1 0 0 0 0 59 0.8 -1.18 -57.53 1598 0.5 0.1 0.3 0.5 0.1 0.3 1.5 0.5 0.3 1.7 0 0 1.7 0 0 0 0 0 0 0 0 0 0 0 1.5 0 0.11
24.847 0.65 0.34 23.33 -0.06 0.06 1 0 0 22 1 0 0 0 0 35 1.55 -6.72 -49.38 1353 0.5 0.1 0.3 0.5 0.1 0.3 1.5 0.5 0.3 1.7 0 0 1.7 0 0 0 0 0 0 0 0 0 0 0 1.5 0 0.11
24.947 0.65 0.34 23.43 -0.13 0.06 1 0 0 21 1 0 0 0 0 22 0.79 -1.25 -64.97 1223 0.5 0.1 0.3 0.5 0.1 0.3 1.5 0.5 0.3 1.7 0 0 1.7 0 0 0 0 0 0 0 0 0 0 0 1.5 0 0.11
25.046 0.65 0.34 23.53 -0.06 0.06 1 0 0 22 2 0 0 0 0 22 1.58 -1.21 -57.73 1221 0.5 0.1 0.3 0.5 0.1 0.3 1.5 0.5 0.3 1.7 0 0 1.7 0 0 0 0 0 0 0 0 0 0 0 1.5 0 0.11
25.147 0.65 0.34 23.64 -0.06 0.06 0.94 0 0 21 2 0 0 0 0 22 1.58 -1.28 -57.41 1226 0.5 0.1 0.3 0.5 0.1 0.3 1.5 0.5 0.3 1.7 0 0 1.7 0 0 0 0 0 0 0 0 0 0 0 1.5 0 0.11
25.247 0.65 0.34 23.74 -0.06 0.19 1 0 0 22 2 -3 0 0 0 22 1.59 -3.93 -51.53 1224 0.5 0.1 0.3 0.5 0.1 0.3 1.5 0.5 0.3 1.7 0 0 1.7 0 0 0 0 0 0 0 0 0 0 0 1.5 0 0.11
25.347 0.65 0.34 23.84 0 0.13 0.94 0 0 21 2 1 0 0 0 22 1.5 -0.38 -59.3 1221 0.5 0.1 0.3 0.5 0.1 0.3 1.5 0.5 0.3 1.7 0 0 1.7 0 0 0 0 0 0 0 0 0 0 0 1.5 0 0.11
25.447 0.65 0.34 23.94 0 0.19 0.94 0 0 21 2 0 0 0 0 22 1.56 -1.49 -57.44 1224 0.5 0.1 0.3 0.5 0.1 0.3 1.5 0.5 0.3 1.7 0 0 1.7 0 0 0 0 0 0 0 0 0 0 0 1.5 0 0.11
25.547 0.65 0.34 24.05 -0.06 0.06 1 0 0 21 2 0 0 0 0 22 1.69 -1.22 -57.74 1221 0.5 0.1 0.3 0.5 0.1 0.3 1.5 0.5 0.3 1.7 0 0 1.7 0 0 0 0 0 0 0 0 0 0 0 1.5 0 0.11
25.647 0.65 0.34 24.15 0 0.06 1 0 0 20 2 0 0 0 0 22 1.62 -1.35 -57.53 1221 0.5 0.1 0.3 0.5 0.1 0.3 1.5 0.5 0.3 1.7 0 0 1.7 0 0 0 0 0 0 0 0 0 0 0 1.5 0 0.11
25.747 0.65 0.34 24.25 -0.06 0.06 1.06 0 0 21 1 1 0 0 0 22 0.81 -0.41 -57.45 1220 0.5 0.1 0.3 0.5 0.1 0.3 1.5 0.5 0.3 1.7 0 0 1.7 0 0 0 0 0 0 0 0 0 0 0 1.5 0 0.11
25.846 0.65 0.34 24.36 -0.06 0.13 1.06 0 0 21 2 0 0 0 0 22 1.59 -1.3 -57.59 1221 0.5 0.1 0.3 0.5 0.1 0.3 1.5 0.5 0.3 1.7 0 0 1.7 0 0 0 0 0 0 0 0 0 0 0 1.5 0 0.11
25.947 0.65 0.34 24.46 0 0 1.06 0 0 21 1 0 0 0 0 22 0.65 -1.16 -57.47 1222 0.5 0.1 0.3 0.5 0.1 0.3 1.5 0.5 0.3 1.7 0 0 1.7 0 0 0 0 0 0 0 0 0 0 0 1.5 0 0.11
26.047 0.65 0.34 24.55 -0.19 0.13 1 0 0 21 1 0 0 0 0 22 0.9 -1.33 -55.61 1221 0.5 0.1 0.3 0.5 0.1 0.3 1.5 0.5 0.3 1.7 0 0 1.7 0 0 0 0 0 0 0 0 0 0 0 1.5 0 0.11
26.147 0.65 0.34 24.65 -0.13 0.06 1.06 0 0 22 2 1 0 0 0 21 1.68 -0.39 -57.51 1217 0.5 0.1 0.3 0.5 0.1 0.3 1.5 0.5 0.3 1.7 0 0 1.7 0 0 0 0 0 0 0 0 0 0 0 1.5 0 0.11
26.246 0.65 0.34 24.76 -0.19 0.13 1 0 0 21 2 0 0 0 0 22 1.91 -1.39 -57.5 1221 0.5 0.1 0.3 0.5 0.1 0.3 1.5 0.5 0.3 1.7 0 0 1.7 0 0 0 0 0 0 0 0 0 0 0 1.5 0 0.11
26.346 0.65 0.34 24.86 -0.06 0 0.94 0 0 21 2 0 0 0 0 22 1.67 -1.18 -57.5 1221 0.5 0.1 0.3 0.5 0.1 0.3 1.5 0.5 0.3 1.7 0 0 1.7 0 0 0 0 0 0 0 0 0 0 0 1.5 0 0.11
26.447 0.65 0.34 24.96 -0.06 0.06 1 0 0 22 2 0 0 0 0 22 1.74 -1.29 -57.46 1222 0.5 0.1 0.3 0.5 0.1 0.3 1.5 0.5 0.3 1.7 0 0 1.7 0 0 0 0 0 0 0 0 0 0 0 1.5 0 0.11
26.547 0.65 0.34 25.07 -0.13 0.13 1 0 0 20 2 0 0 0 0 22 1.62 -1.4 -57.47 1221 0.5 0.1 0.3 0.5 0.1 0.3 1.5 0.5 0.3 1.7 0 0 1.7 0 0 0 0 0 0 0 0 0 0 0 1.5 0 0.11
26.647 0.65 0.34 25.17 -0.19 0.06 0.94 0 0 21 2 0 0 0 0 22 1.81 -1.34 -57.46 1222 0.5 0.1 0.3 0.5 0.1 0.3 1.5 0.5 0.3 1.7 0 0 1.7 0 0 0 0 0 0 0 0 0 0 0 1.5 0 0.11
26.747 0.65 0.35 25.27 -0.13 0.13 1 0 0 21 2 0 0 0 0 22 1.7 -1.42 -57.5 1220 0.5 0.1 0.3 0.5 0.1 0.3 1.5 0.5 0.3 1.7 0 0 1.7 0 0 0 0 0 0 0 0 0 0 0 1.5 0 0.11
26.847 0.65 0.35 25.37 -0.06 0.13 1 0 0 22 2 1 0 0 0 21 1.67 5.16 -57.49 1219 0.5 0.1 0.3 0.5 0.1 0.3 1.5 0.5 0.3 1.7 0 0 1.7 0 0 0 0 0 0 0 0 0 0 0 1.5 0 0.11
26.947 0.65 0.35 25.48 -0.06 0.19 1 0 0 22 2 0 0 0 0 22 1.55 -1.45 -56.01 1220 0.5 0.1 0.3 0.5 0.1 0.3 1.5 0.5 0.3 1.7 0 0 1.7 0 0 0 0 0 0 0 0 0 0 0 1.5 0 0.11
27.047 0.65 0.35 25.58 -0.13 0.06 1 0 0 21 2 1 0 0 0 21 1.68 -0.51 -55.67 1217 0.5 0.1 0.3 0.5 0.1 0.3 1.5 0.5 0.3 1.7 0 0 1.7 0 0 0 0 0 0 0 0 0 0 0 1.5 0 0.11
27.147 0.66 0.35 25.67 -0.06 0.13 0.94 0 0 21 2 0 0 0 0 22 1.57 -1.45 -55.92 1221 0.5 0.1 0.3 0.5 0.1 0.3 1.5 0.5 0.3 1.7 0 0 1.7 0 0 0 0 0 0 0 0 0 0 0 1.5 0 0.11
27.247 0.66 0.35 25.78 -0.06 0.13 1 0 0 22 1 0 0 0 0 22 0.69 -1.29 -57.44 1228 0.5 0.1 0.3 0.5 0.1 0.3 1.5 0.5 0.3 1.7 0 0 1.7 0 0 0 0 0 0 0 0 0 0 0 1.5 0 0.11
27.347 0.66 0.35 25.88 -0.13 0.19 0.88 0 0 21 2 1 0 0 0 21 1.76 -0.63 -55.86 1215 0.5 0.1 0.3 0.5 0.1 0.3 1.5 0.5 0.3 1.7 0 0 1.7 0 0 0 0 0 0 0 0 0 0 0 1.5 0 0.11
27.447 0.66 0.35 25.98 -0.62 0.31 0.31 0 0 21 1 0 0 0 0 22 0 -1.9 -55.85 1224 0.5 0.1 0.3 0.5 0.1 0.3 1.5 0.5 0.3 1.7 0 0 1.7 0 0 0 0 0 0 0 0 0 0 0 1.5 0 0.11
27.547 0.66 0.35 26.08 -0.44 0.62 1.44 0 0 21 2 1 0 0 0 22 2.85 -1.13 -58.42 1220 0.5 0.1 0.3 0.5 0.1 0.3 1.5 0.5 0.3 1.7 0 0 1.7 0 0 0 0 0 0 0 0 0 0 0 1.5 0 0.11
27.647 0.65 0.34 26.19 -2.12 -0.06 1.06 0 0 20 2 0 0 0 0 21 5.71 -0.4 -56.22 1219 0.5 0.1 0.3 0.5 0.1 0.3 1.5 0.5 0.3 1.7 0 0 1.7 0 0 0 0 0 0 0 0 0 0 0 1.5 0 0.11
27.747 0.66 0.34 26.3 0.88 -0.88 1.44 0 0 21 2 0 0 0 0 21 -0.19 1.26 -57.08 1219 0.5 0.1 0.3 0.5 0.1 0.3 1.5 0.5 0.3 1.7 0 0 1.7 0 0 0 0 0 0 0 0 0 0 0 1.5 0 0.11
27.847 0.67 0.35 26.41 1.19 2 -0.56 0 0 22 2 0 0 0 0 22 -3.95 -3.73 -56.75 1223 0.5 0.1 0.3 0.5 0.1 0.3 1.5 0.5 0.3 1.7 0 0 1.7 0 0 0 0 0 0 0 0 0 0 0 1.5 0 0.11
27.947 0.65 0.35 26.5 1 0.31 1.75 0 0 22 2 1 0 0 0 22 3.41 -0.51 -56.83 1220 0.5 0.1 0.3 0.5 0.1 0.3 1.5 0.5 0.3 1.7 0 0 1.7 0 0 0 0 0 0 0 0 0 0 0 1.5 0 0.11
28.047 0.66 0.35 26.61 1.87 -0.69 1 0 0 23 1 0 0 0 0 22 3.47 0.02 -57.32 1222 0.5 0.1 0.3 0.5 0.1 0.3 1.5 0.5 0.3 1.7 0 0 1.7 0 0 0 0 0 0 0 0 0 0 0 1.5 0 0.11
28.147 0.64 0.38 26.71 -2.5 -2.62 1.56 0 0 22 2 0 0 0 0 22 6.56 2.03 -57.06 1222 0.5 0.1 0.3 0.5 0.1 0.3 1.5 0.5 0.3 1.7 0 0 1.7 0 0 0 0 0 0 0 0 0 0 0 1.5 0 0.11
28.247 0.65 0.35 26.83 0.75 -1.06 -0.06 0 0 22 2 0 0 0 0 22 1.2 1.81 -55.2 1223 0.5 0.1 0.3 0.5 0.1 0.3 1.5 0.5 0.3 1.7 0 0 1.7 0 0 0 0 0 0 0 0 0 0 0 1.5 0 0.11
28.347 0.69 0.33 26.92 -1.69 0.81 2 0 0 23 2 0 0 0 0 22 1.27 -4.38 -55.88 1223 0.5 0.1 0.3 0.5 0.1 0.3 1.5 0.5 0.3 1.7 0 0 1.7 0 0 0 0 0 0 0 0 0 0 0 1.5 0 0.11
28.447 0.66 0.32 27.04 2.31 -0.13 0.25 0 0 25 1 0 0 0 0 22 -0.14 0.85 -56.33 1222 0.5 0.1 0.3 0.5 0.1 0.3 1.5 0.5 0.3 1.7 0 0 1.7 0 0 0 0 0 0 0 0 0 0 0 1.5 0 0.11
28.547 0.66 0.31 27.16 -1 -2.12 0.37 0 0 0 2 0 0 0 0 22 8.9 0.24 -57.66 1221 0.5 0.1 0.3 0.5 0.1 0.3 1.5 0.5 0.3 1.7 0 0 1.7 0 0 0 0 0 0 0 0 0 0 0 1.5 0 0.11
28.647 0.69 0.3 27.28 0.62 0.31 3.12 0 0 0 2 0 0 0 0 22 -1.81 -1.03 -57.86 1221 0.5 0.1 0.3 0.5 0.1 0.3 1.5 0.5 0.3 1.7 0 0 1.7 0 0 0 0 0 0 0 0 0 0 0 1.5 0 0.11
28.747 0.69 0.29 27.37 2.69 -0.75 1.94 0 0 27 2 0 0 0 0 22 -0.03 -0.5 -56.21 1224 0.5 0.1 0.3 0.5 0.1 0.3 1.5 0.5 0.3 1.7 0 0 1.7 0 0 0 0 0 0 0 0 0 0 0 1.5 0 0.11
28.847 0.69 0.27 27.48 -1.56 1.25 0.44 0 0 24 2 0 0 0 0 21 10.89 -4.24 -58.42 1216 0.5 0.1 0.3 0.5 0.1 0.3 1.5 0.5 0.3 1.7 0 0 1.7 0 0 0 0 0 0 0 0 0 0 0 1.5 0 0.11
28.947 0.68 0.26 27.58 -3.31 -0.62 -1.37 0 0 23 2 1 0 0 0 22 4.64 0.65 -56.24 1220 0.5 0.1 0.3 0.5 0.1 0.3 1.5 0.5 0.3 1.7 0 0 1.7 0 0 0 0 0 0 0 0 0 0 0 1.5 0 0.11
29.047 0.69 0.25 27.66 3.56 1.31 0.94 0 0 24 2 0 0 0 0 21 -4.33 -4.87 -55.46 1219 0.5 0.1 0.3 0.5 0.1 0.3 1.5 0.5 0.3 1.7 0 0 1.7 0 0 0 0 0 0 0 0 0 0 0 1.5 0 0.11
29.147 0.68 0.23 27.77 0 -0.56 1.5 0 0 23 2 0 0 0 0 22 4.82 1.91 -56.25 1222 0.5 0.1 0.3 0.5 0.1 0.3 1.5 0.5 0.3 1.7 0 0 1.7 0 0 0 0 0 0 0 0 0 0 0 1.5 0 0.11
29.247 0.68 0.23 27.87 -2 0.19 0 0 0 25 2 0 0 0 0 22 2.07 -1.8 -56.27 1222 0.5 0.1 0.3 0.5 0.1 0.3 1.5 0.5 0.3 1.7 0 0 1.7 0 0 0 0 0 0 0 0 0 0 0 1.5 0 0.11
29.347 0.67 0.23 27.98 0.69 1.5 2.94 0 0 24 2 0 0 0 0 22 -2.95 -2.93 -58.74 1222 0.5 0.1 0.3 0.5 0.1 0.3 1.5 0.5 0.3 1.7 0 0 1.7 0 0 0 0 0 0 0 0 0 0 0 1.5 0 0.11
29.447 0.67 0.23 28.09 -0.06 -0.94 1.56 0 0 24 2 0 0 0 0 22 3.02 -0.36 -57.18 1221 0.5 0.1 0.3 0.5 0.1 0.3 1.5 0.5 0.3 1.7 0 0 1.7 0 0 0 0 0 0 0 0 0 0 0 1.5 0 0.11
29.547 0.67 0.24 28.19 0.25 0.62 -1.56 0 0 28 2 0 0 0 0 22 1.22 -3.73 -57.52 1222 0.5 0.1 0.3 0.5 0.1 0.3 1.5 0.5 0.3 1.7 0 0 1.7 0 0 0 0 0 0 0 0 0 0 0 1.5 0 0.11
29.647 0.67 0.23 28.28 -2.94 -0.44 -1.06 0 0 25 2 0 0 0 0 22 2.84 0.27 -56.08 1222 0.5 0.1 0.3 0.5 0.1 0.3 1.5 0.5 0.3 1.7 0 0 1.7 0 0 0 0 0 0 0 0 0 0 0 1.5 0 0.11
29.747 0.67 0.24 28.38 4.06 1.31 1.25 0 0 24 2 0 0 0 0 22 -6.65 -5.24 -55.9 1221 0.5 0.1 0.3 0.5 0.1 0.3 1.5 0.5 0.3 1.7 0 0 1.7 0 0 0 0 0 0 0 0 0 0 0 1.5 0 0.11
29.847 0.63 0.23 28.49 -0.31 0.19 2.56 0 0 24 2 0 0 0 0 22 5.95 0.03 -58.55 1228 0.5 0.1 0.3 0.5 0.1 0.3 1.5 0.5 0.3 1.7 0 0 1.7 0 0 0 0 0 0 0 0 0 0 0 1.5 0 0.11
29.947 0.62 0.23 28.59 -1.87 -1.94 -0.44 0 0 23 1 0 0 0 0 22 1.8 0.67 -56.7 1228 0.5 0.1 0.3 0.5 0.1 0.3 1.5 0.5 0.3 1.7 0 0 1.7 0 0 0 0 0 0 0 0 0 0 0 1.5 0 0.11
30.047 0.63 0.23 28.7 -1.06 1.12 -0.31 0 0 23 2 0 0 0 0 22 0.72 -4.53 -59.28 1227 0.5 0.1 0.3 0.5 0.1 0.3 1.5 0.5 0.3 1.7 0 0 1.7 0 0 0 0 0 0 0 0 0 0 0 1.5 0 0.11
30.147 0.64 0.22 28.78 0.69 0 0.69 0 0 23 1 0 0 0 0 22 -5.15 -0.99 -56.79 1226 0.5 0.1 0.3 0.5 0.1 0.3 1.5 0.5 0.3 1.7 0 0 1.7 0 0 0 0 0 0 0 0 0 0 0 1.5 0 0.11
30.247 0.64 0.23 28.88 1.81 2.25 1.87 0 0 24 2 1 0 0 0 22 -4.32 0.79 -57.11 1226 0.5 0.1 0.3 0.5 0.1 0.3 1.5 0.5 0.3 1.7 0 0 1.7 0 0 0 0 0 0 0 0 0 0 0 1.5 0 0.11
30.347 0.6 0.21 28.99 1.19 0 2.12 0 0 23 1 0 0 0 0 22 0.8 -0.3 -56.78 1228 0.5 0.1 0.3 0.5 0.1 0.3 1.5 0.5 0.3 1.7 0 0 1.7 0 0 0 0 0 0 0 0 0 0 0 1.5 0 0.11
30.447 0.58 0.21 29.08 -0.75 -0.06 0 0 0 24 2 0 0 0 0 27 9.06 0.41 -54.24 1271 0.5 0.1 0.3 0.5 0.1 0.3 1.5 0.5 0.3 1.7 0 0 1.7 0 0 0 0 0 0 0 0 0 0 0 1.5 0 0.11
30.547 0.59 0.21 29.17 0.31 -0.37 2.87 0 0 24 1 0 0 0 0 28 5.71 -1.18 -58.04 1282 0.5 0.1 0.3 0.5 0.1 0.3 1.5 0.5 0.3 1.7 0 0 1.7 0 0 0 0 0 0 0 0 0 0 0 1.5 0 0.11
30.647 0.63 0.14 29.27 -0.19 -0.37 -0.75 0 0 24 1 0 0 0 0 31 -0.65 1.34 -57.02 1310 0.5 0.1 0.3 0.5 0.1 0.3 1.5 0.5 0.3 1.7 0 0 1.7 0 0 0 0 0 0 0 0 0 0 0 1.5 0 0.11
30.747 0.64 0.1 29.36 -1.5 -2.12 2.31 0 0 24 2 0 0 0 0 33 3.69 0.5 -60.76 1337 0.5 0.1 0.3 0.5 0.1 0.3 1.5 0.5 0.3 1.7 0 0 1.7 0 0 0 0 0 0 0 0 0 0 0 1.5 0 0.11
30.847 0.71 0.08 29.33 8.06 4.81 -5.5 0 0 24 2 0 0 0 0 34 -1.84 -3.1 -56.04 1341 0.5 0.1 0.3 0.5 0.1 0.3 1.5 0.5 0.3 1.7 0 0 1.7 0 0 0 0 0 0 0 0 0 0 0 1.5 0 0.11
30.947 0.89 0.18 29 10.5 5.75 -9.13 0 0 24 1 -2 0 0 0 35 -4.9 -2.05 -48.34 1352 0.5 0.1 0.3 0.5 0.1 0.3 1.5 0.5 0.3 1.7 0 0 1.7 0 0 0 0 0 0 0 0 0 0 0 1.5 0 0.11
31.047 0.83 0.15 28.45 3.75 2.62 -5.06 0 0 24 2 -3 0 0 0 36 -0.71 -2.61 -45.08 1365 0.5 0.1 0.3 0.5 0.1 0.3 1.5 0.5 0.3 1.7 0 0 1.7 0 0 0 0 0 0 0 0 0 0 0 1.5 0 0.11
31.147 0.81 0.15 27.75 -9.81 -2.62 -4.06 0 0 24 1 -7 0 0 0 36 5.4 -7.2 -43.2 1365 0.5 0.1 0.3 0.5 0.1 0.3 1.5 0.5 0.3 1.7 0 0 1.7 0 0 0 0 0 0 0 0 0 0 0 1.5 0 0.11
31.247 0.26 -0.38 26.78 -0.37 -5.5 -8.63 0 0 113 1 -15 0 0 0 36 9.29 -23.3 -38.79 1365 0.5 0.1 0.3 0.5 0.1 0.3 1.5 0.5 0.3 1.7 0 0 1.7 0 0 0 0 0 0 0 0 0 0 0 1.5 0 0.11
31.347 0.24 -0.81 25.8 -6.81 -7.87 -5.25 0 0 25 1 -14 0 0 0 36 -0.24 -12.42 -36.86 1366 0.5 0.1 0.3 0.5 0.1 0.3 1.5 0.5 0.3 1.7 0 0 1.7 0 0 0 0 0 0 0 0 0 0 0 1.5 0 0.11
31.447 0.14 -1.25 24.7 0.88 -4.62 -16.31 0 0 34 1 -17 0 0 0 36 -6.08 -14.93 -32.28 1365 0.5 0.1 0.3 0.5 0.1 0.3 1.5 0.5 0.3 1.7 0 0 1.7 0 0 0 0 0 0 0 0 0 0 0 1.5 0 0.11
31.547 0.15 -1.71 23.51 -9.56 -13.13 -7.37 0 0 25 2 -15 0 0 0 38 25.53 0.15 -36.66 1381 0.5 0.1 0.3 0.5 0.1 0.3 1.5 0.5 0.3 1.7 0 0 1.7 0 0 0 0 0 0 0 0 0 0 0 1.5 0 0.11
31.647 0.05 -2.81 22.12 8.94 -13.38 -19.31 0 0 25 2 -12 0 0 0 38 -11.74 -2.18 -27.37 1381 0.5 0.1 0.3 0.5 0.1 0.3 1.5 0.5 0.3 1.7 0 0 1.7 0 0 0 0 0 0 0 0 0 0 0 1.5 0 0.11
31.747 0.4 -4.15 20.52 -2.94 -18.62 -8.5 0 0 20 2 -8 0 0 0 39 17.3 17.51 -28.33 1393 0.5 0.1 0.3 0.5 0.1 0.3 1.5 0.5 0.3 1.7 0 0 1.7 0 0 0 0 0 0 0 0 0 0 0 1.5 0 0.11
31.847 0.73 -4.93 18.87 -5.37 -15.19 -22.06 0 0 19 1 -12 0 0 0 39 -9.53 -6.88 -23.45 1392 0.5 0.1 0.3 0.5 0.1 0.3 1.5 0.5 0.3 1.7 0 0 1.7 0 0 0 0 0 0 0 0 0 0 0 1.5 0 0.11
31.947 0.71 -5.68 17.02 -6.5 -12.81 -27.62 0 0 20 1 -23 0 0 0 40 -0.63 -8.78 -16.51 1407 0.5 0.1 0.3 0.5 0.1 0.3 1.5 0.5 0.3 1.7 0 0 1.7 0 0 0 0 0 0 0 0 0 0 0 1.5 0 0.11
32.047 0.24 -7.1 14.96 -27.06 -27 -16.12 0 0 20 1 -20 0 0 0 40 17.67 11.58 -18.27 1406 0.5 0.1 0.3 0.5 0.1 0.3 1.5 0.5 0.3 1.7 0 0 1.7 0 0 0 0 0 0 0 0 0 0 0 1.5 0 0.11
32.147 -0.03 -8.83 12.63 11.44 -12.81 -23.44 0 0 33 1 -5 0 0 0 40 -0.99 6.95 -13 1407 0.5 0.1 0.3 0.5 0.1 0.3 1.5 0.5 0.3 1.7 0 0 1.7 0 0 0 0 0 0 0 0 0 0 0 1.5 0 0.11
32.247 1.21 -7.1 10.69 -2.06 29.56 -12.69 0 0 20 1 2 0 0 0 41 9.68 -12.79 -16.32 1410 0.5 0.1 0.3 0.5 0.1 0.3 1.5 0.5 0.3 1.7 0 0 1.7 0 0 0 0 0 0 0 0 0 0 0 1.5 0 0.11
32.347 0.87 -1.74 9.17 6.81 64.25 -22.87 0 0 20 1 15 0 0 0 41 -11.39 -22.82 -17.81 1412 0.5 0.1 0.3 0.5 0.1 0.3 1.5 0.5 0.3 1.7 0 0 1.7 0 0 0 0 0 0 0 0 0 0 0 1.5 0 0.11
32.447 0.35 3.93 7.76 -1.69 62.13 -20.81 0 0 23 1 9 0 0 0 41 -11.61 -50.99 -17.06 1412 0.5 0.1 0.3 0.5 0.1 0.3 1.5 0.5 0.3 1.7 0 0 1.7 0 0 0 0 0 0 0 0 0 0 0 1.5 0 0.11
32.547 1.81 8.25 6.41 31.25 36.5 -9.75 0 0 41 2 0 0 0 0 41 -12.25 -16 -27.42 1411 0.5 0.1 0.3 0.5 0.1 0.3 1.5 0.5 0.3 1.7 0 0 1.7 0 0 0 0 0 0 0 0 0 0 0 1.5 0 0.11
32.647 2.81 7.58 5.01 -12.94 -19.25 -22.25 0 0 51 1 0 0 0 0 40 -13.13 -4.12 -12.11 1406 0.5 0.1 0.3 0.5 0.1 0.3 1.5 0.5 0.3 1.7 0 0 1.7 0 0 0 0 0 0 0 0 0 0 0 1.5 0 0.11
32.747 1.7 4.55 3.61 -9.5 -16.12 -21.75 0 0 58 1 -12 0 0 0 40 -12.5 -8.74 -10.32 1407 0.5 0.1 0.3 0.5 0.1 0.3 1.5 0.5 0.3 1.7 0 0 1.7 0 0 0 0 0 0 0 0 0 0 0 1.5 0 0.11
32.847 -0.3 2.98 2.14 -29.62 -2.62 -7.69 0 0 72 2 -19 0 0 0 39 14.64 -24.89 -18.85 1392 0.5 0.1 0.3 0.5 0.1 0.3 1.5 0.5 0.3 1.7 0 0 1.7 0 0 0 0 0 0 0 0 0 0 0 1.5 0 0.11
32.947 -2.08 2.43 0.81 -3.5 -4.94 -20 0 0 76 1 -14 0 0 0 39 6.43 -2.63 -16.92 1393 0.5 0.1 0.3 0.5 0.1 0.3 1.5 0.5 0.3 1.7 0 0 1.7 0 0 0 0 0 0 0 0 0 0 0 1.5 0 0.11
33.047 -2.31 -0.16 -0.51 -7.06 -33.63 -4.81 0 0 86 2 -4 0 0 0 39 13.84 15.37 -19.77 1393 0.5 0.1 0.3 0.5 0.1 0.3 1.5 0.5 0.3 1.7 0 0 1.7 0 0 0 0 0 0 0 0 0 0 0 1.5 0 0.11
33.147 -1.37 -2.69 -1.98 -2.94 -21.06 -10.06 0 0 95 2 0 0 0 0 39 -3.49 5.92 -11.48 1391 0.5 0.1 0.3 0.5 0.1 0.3 1.5 0.5 0.3 1.7 0 0 1.7 0 0 0 0 0 0 0 0 0 0 0 1.5 0 0.11
33.247 -0.44 -1.89 -3.36 -2.87 28.19 -13.81 0 0 107 2 0 0 0 0 39 -1.4 -21.55 1.61 1392 0.5 0.1 0.3 0.5 0.1 0.3 1.5 0.5 0.3 1.7 0 0 1.7 0 0 0 0 0 0 0 0 0 0 0 1.5 0 0.11
33.347 -0.43 1.31 -4.41 -15.38 28.06 -12.63 0 0 116 2 0 0 0 0 39 9.77 -13.02 1.02 1392 0.5 0.1 0.3 0.5 0.1 0.3 1.5 0.5 0.3 1.7 0 0 1.7 0 0 0 0 0 0 0 0 0 0 0 1.5 0 0.11
33.447 -0.88 2.27 -5.14 3.94 -6.87 -9.63 0 0 126 2 0 0 0 0 39 -10.85 4.36 11.8 1391 0.5 0.1 0.3 0.5 0.1 0.3 1.5 0.5 0.3 1.7 0 0 1.7 0 0 0 0 0 0 0 0 0 0 0 1.5 0 0.11
33.547 -0.86 0.53 -5.52 -1.56 -17.62 -4 0 0 135 2 0 0 0 0 39 5.24 5.17 17.17 1392 0.5 0.1 0.3 0.5 0.1 0.3 1.5 0.5 0.3 1.7 0 0 1.7 0 0 0 0 0 0 0 0 0 0 0 1.5 0 0.11
33.647 -1.12 -0.52 -5.49 -14.44 0.25 7.56 0 0 149 2 0 0 0 0 39 14.59 -14.88 16.71 1391 0.5 0.1 0.3 0.5 0.1 0.3 1.5 0.5 0.3 1.7 0 0 1.7 0 0 0 0 0 0 0 0 0 0 0 1.5 0 0.11
33.747 -1.65 0.3 -4.99 -11.44 13.94 -2.44 0 0 0 1 0 0 0 0 39 8.09 -6.24 16.69 1390 0.5 0.1 0.3 0.5 0.1 0.3 1.5 0.5 0.3 1.7 0 0 1.7 0 0 0 0 0 0 0 0 0 0 0 1.5 0 0.11
33.847 -1.59 0.82 -4.09 -1.69 -1.12 23.25 0 0 0 1 0 0 0 0 37 0.47 -1.46 17.15 1377 0.5 0.1 0.3 0.5 0.1 0.3 1.5 0.5 0.3 1.7 0 0 1.7 0 0 0 0 0 0 0 0 0 0 0 1.5 0 0.11
33.947 -1.31 0.32 -2.81 -8.44 -12.56 20.69 0 0 0 1 0 0 0 0 37 5.39 1.58 17.4 1377 0.5 0.1 0.3 0.5 0.1 0.3 1.5 0.5 0.3 1.7 0 0 1.7 0 0 0 0 0 0 0 0 0 0 0 1.5 0 0.11
34.047 -2.01 -0.33 -1.23 -10.06 -3.12 17.19 0 0 0 2 0 0 0 0 37 9.46 -5.48 16.2 1377 0.5 0.1 0.3 0.5 0.1 0.3 1.5 0.5 0.3 1.7 0 0 1.7 0 0 0 0 0 0 0 0 0 0 0 1.5 0 0.11
34.147 -2.71 -0.25 0.57 -2.81 3.87 20.31 0 0 0 8 1 0 0 0 37 11.3 -3.74 8.46 1378 0.5 0.1 0.3 0.5 0.1 0.3 1.5 0.5 0.3 1.7 0 0 1.7 0 0 0 0 0 0 0 0 0 0 0 1.5 0 0.11
34.247 -1.98 -0.02 2.59 10.94 2.12 27.06 0 0 0 19 1 0 0 0 38 15.96 -1.16 -5.73 1380 0.5 0.1 0.3 0.5 0.1 0.3 1.5 0.5 0.3 1.7 0 0 1.7 0 0 0 0 0 0 0 0 0 0 0 1.5 0 0.11
34.347 0.33 -0.2 4.59 25.31 -4.69 18.5 0 0 0 28 0 0 0 0 38 6.31 4.29 -8.25 1380 0.5 0.1 0.3 0.5 0.1 0.3 1.5 0.5 0.3 1.7 0 0 1.7 0 0 0 0 0 0 0 0 0 0 0 1.5 0 0.11
34.447 3.52 -0.49 6.46 48.75 3.81 15.06 0 0 0 31 1 0 0 0 37 1.43 -2.84 -18.98 1379 0.5 0.1 0.3 0.5 0.1 0.3 1.5 0.5 0.3 1.7 0 0 1.7 0 0 0 0 0 0 0 0 0 0 0 1.5 0 0.11
34.547 7.13 -0.04 8.26 48.56 9.31 18.69 0 0 0 31 0 0 0 0 37 -7.94 -10.72 -25.05 1379 0.5 0.1 0.3 0.5 0.1 0.3 1.5 0.5 0.3 1.7 0 0 1.7 0 0 0 0 0 0 0 0 0 0 0 1.5 0 0.11
34.648 9.7 0.11 9.68 33.5 0.13 7.44 0 0 0 30 0 0 0 0 37 -1.95 0.6 -32.34 1378 0.5 0.1 0.3 0.5 0.1 0.3 1.5 0.5 0.3 1.7 0 0 1.7 0 0 0 0 0 0 0 0 0 0 0 1.5 0 0.11
34.747 10.76 -0.32 10.74 14.13 -10.56 10.06 0 0 0 28 0 0 0 0 37 10.45 0.61 -29 1379 0.5 0.1 0.3 0.5 0.1 0.3 1.5 0.5 0.3 1.7 0 0 1.7 0 0 0 0 0 0 0 0 0 0 0 1.5 0 0.11
34.847 11.01 -0.45 11.6 1.62 -0.37 9.63 0 0 0 28 0 0 0 0 37 4.29 -6.43 -31.78 1379 0.5 0.1 0.3 0.5 0.1 0.3 1.5 0.5 0.3 1.7 0 0 1.7 0 0 0 0 0 0 0 0 0 0 0 1.5 0 0.11
34.947 11.79 0.69 12.29 12.44 17.5 8.19 0 0 0 28 0 0 0 0 37 -1.43 -20.83 -34.52 1379 0.5 0.1 0.3 0.5 0.1 0.3 1.5 0.5 0.3 1.7 0 0 1.7 0 0 0 0 0 0 0 0 0 0 0 1.5 0 0.11
35.047 13.43 1.97 12.69 28.75 14.38 1.87 0 0 0 28 0 0 0 0 38 -9.76 -9.88 -26.46 1380 0.5 0.1 0.3 0.5 0.1 0.3 1.5 0.5 0.3 1.7 0 0 1.7 0 0 0 0 0 0 0 0 0 0 0 1.5 0 0.11
35.147 14.99 1.96 12.72 24.75 -4.81 -3.25 0 0 0 27 1 0 0 0 38 13.6 6.25 -22.23 1380 0.5 0.1 0.3 0.5 0.1 0.3 1.5 0.5 0.3 1.7 0 0 1.7 0 0 0 0 0 0 0 0 0 0 0 1.5 0 0.11
35.248 15.08 0.96 12.63 -3.06 -8.25 -1.06 0 0 0 11 0 0 0 0 38 0.04 -1.37 -20.58 1380 0.5 0.1 0.3 0.5 0.1 0.3 1.5 0.5 0.3 1.7 0 0 1.7 0 0 0 0 0 0 0 0 0 0 0 1.5 0 0.11
35.347 13.37 0.63 12.55 -21.25 4.69 -4.62 0 0 0 1 -9 0 0 0 39 -0.83 -15.31 -16.61 1394 0.5 0.1 0.3 0.5 0.1 0.3 1.5 0.5 0.3 1.7 0 0 1.7 0 0 0 0 0 0 0 0 0 0 0 1.5 0 0.11
35.447 9.71 0.18 12.25 -23.81 -9.94 -8.31 0 0 0 1 -31 0 0 0 39 1.77 -35.54 -16.59 1394 0.5 0.1 0.3 0.5 0.1 0.3 1.5 0.5 0.3 1.7 0 0 1.7 0 0 0 0 0 0 0 0 0 0 0 1.5 0 0.11
35.547 5.56 -3.19 11.81 -43.31 -62.81 3.56 0 0 0 1 -33 0 0 0 39 23.47 14.66 -15.34 1394 0.5 0.1 0.3 0.5 0.1 0.3 1.5 0.5 0.3 1.7 0 0 1.7 0 0 0 0 0 0 0 0 0 0 0 1.5 0 0.11
35.647 2.63 -10.18 11.09 -8.81 -76.56 -17.12 0 0 0 1 -27 0 0 0 39 -7.77 24.53 -2.6 1393 0.5 0.1 0.3 0.5 0.1 0.3 1.5 0.5 0.3 1.7 0 0 1.7 0 0 0 0 0 0 0 0 0 0 0 1.5 0 0.11
35.747 1.87 -15 10.48 -15.44 -38.56 10.44 0 0 0 2 -11 0 0 0 39 3.15 9.83 -14.8 1393 0.5 0.1 0.3 0.5 0.1 0.3 1.5 0.5 0.3 1.7 0 0 1.7 0 0 0 0 0 0 0 0 0 0 0 1.5 0 0.11
35.847 1.24 -13.33 10.23 2.06 35.25 0.13 0 0 0 2 0 0 0 0 39 5.76 -17.29 -15.16 1393 0.5 0.1 0.3 0.5 0.1 0.3 1.5 0.5 0.3 1.7 0 0 1.7 0 0 0 0 0 0 0 0 0 0 0 1.5 0 0.11
35.947 -0.18 -7.03 10.24 -15.5 65.19 -5.56 0 0 0 1 0 0 0 0 39 11.58 -29.08 -13.07 1393 0.5 0.1 0.3 0.5 0.1 0.3 1.5 0.5 0.3 1.7 0 0 1.7 0 0 0 0 0 0 0 0 0 0 0 1.5 0 0.11
36.047 -2.47 -2.04 10.48 -31.37 20.25 0.06 0 0 0 1 0 0 0 0 39 14.52 -4.76 -18.99 1393 0.5 0.1 0.3 0.5 0.1 0.3 1.5 0.5 0.3 1.7 0 0 1.7 0 0 0 0 0 0 0 0 0 0 0 1.5 0 0.11
36.147 -4.22 -2 10.73 -16.44 -12.31 0.69 0 0 0 2 0 0 0 0 39 -2.87 8.14 -22.8 1393 0.5 0.1 0.3 0.5 0.1 0.3 1.5 0.5 0.3 1.7 0 0 1.7 0 0 0 0 0 0 0 0 0 0 0 1.5 0 0.11
36.247 -3.94 -3.57 10.67 4.5 -14.25 -7.5 0 0 0 2 0 0 0 0 39 9.08 0.78 -22.66 1392 0.5 0.1 0.3 0.5 0.1 0.3 1.5 0.5 0.3 1.7 0 0 1.7 0 0 0 0 0 0 0 0 0 0 0 1.5 0 0.11
36.347 -3.61 -2.92 10.52 7.56 23.37 -2.81 0 0 0 2 0 0 0 0 39 12.6 -12.12 -17.99 1393 0.5 0.1 0.3 0.5 0.1 0.3 1.5 0.5 0.3 1.7 0 0 1.7 0 0 0 0 0 0 0 0 0 0 0 1.5 0 0.11
36.448 -5.3 -0.4 10.51 -37.06 23.12 0.19 0 0 0 2 0 0 0 0 39 38.17 -18.63 -15.98 1394 0.5 0.1 0.3 0.5 0.1 0.3 1.5 0.5 0.3 1.7 0 0 1.7 0 0 0 0 0 0 0 0 0 0 0 1.5 0 0.11
36.548 -7.24 1.08 10.67 -9.38 5.87 -6.25 0 0 0 1 0 0 0 0 39 5.74 6.04 -23.55 1392 0.5 0.1 0.3 0.5 0.1 0.3 1.5 0.5 0.3 1.7 0 0 1.7 0 0 0 0 0 0 0 0 0 0 0 1.5 0 0.11
36.648 -6.59 0.74 10.77 20.37 -5.75 -4.12 0 0 0 2 0 0 0 0 39 -5.71 -3.67 -23.74 1391 0.5 0.1 0.3 0.5 0.1 0.3 1.5 0.5 0.3 1.7 0 0 1.7 0 0 0 0 0 0 0 0 0 0 0 1.5 0 0.11
36.748 -4.11 0.36 10.65 6.31 2.12 1.56 0 0 0 1 0 0 0 0 39 12.36 -2.99 -23.67 1392 0.5 0.1 0.3 0.5 0.1 0.3 1.5 0.5 0.3 1.7 0 0 1.7 0 0 0 0 0 0 0 0 0 0 0 1.5 0 0.11
36.848 -3.45 0.92 10.48 -7.31 12.75 -2.56 0 0 0 4 0 0 0 0 39 10.49 -13.42 -18.82 1392 0.5 0.1 0.3 0.5 0.1 0.3 1.5 0.5 0.3 1.7 0 0 1.7 0 0 0 0 0 0 0 0 0 0 0 1.5 0 0.11
36.948 -3.99 2.07 10.33 -0.62 13.44 -0.69 0 0 0 15 -1 0 0 0 39 19 -7.46 -20.24 1392 0.5 0.1 0.3 0.5 0.1 0.3 1.5 0.5 0.3 1.7 0 0 1.7 0 0 0 0 0 0 0 0 0 0 0 1.5 0 0.11
37.047 -3.67 1.8 10.13 -3.37 -11.75 1.44 0 0 0 9 0 0 0 0 39 8.34 7.37 -19.33 1390 0.5 0.1 0.3 0.5 0.1 0.3 1.5 0.5 0.3 1.7 0 0 1.7 0 0 0 0 0 0 0 0 0 0 0 1.5 0 0.11
37.147 -1.97 0.3 9.72 7.31 -11 -6.69 0 0 0 2 1 0 0 0 39 -4.04 -0.79 -16.84 1391 0.5 0.1 0.3 0.5 0.1 0.3 1.5 0.5 0.3 1.7 0 0 1.7 0 0 0 0 0 0 0 0 0 0 0 1.5 0 0.11
37.247 -0.04 0.26 9.2 21.75 14.56 0.06 0 0 0 1 0 0 0 0 39 -13.71 -18.99 -17.08 1392 0.5 0.1 0.3 0.5 0.1 0.3 1.5 0.5 0.3 1.7 0 0 1.7 0 0 0 0 0 0 0 0 0 0 0 1.5 0 0.11
37.348 -0.75 1.6 8.79 -35.81 2.25 -1.75 0 0 0 13 0 0 0 0 39 36.82 -0.38 -15.99 1394 0.5 0.1 0.3 0.5 0.1 0.3 1.5 0.5 0.3 1.7 0 0 1.7 0 0 0 0 0 0 0 0 0 0 0 1.5 0 0.11
37.448 -2.92 1.88 8.35 -21 1.44 -6.62 0 0 0 29 0 0 0 0 39 34.72 -6.01 -15.49 1391 0.5 0.1 0.3 0.5 0.1 0.3 1.5 0.5 0.3 1.7 0 0 1.7 0 0 0 0 0 0 0 0 0 0 0 1.5 0 0.11
37.548 0 2.01 7.79 54.44 9.06 -6.94 0 0 0 23 0 0 0 0 39 -18.56 -12.18 -10.35 1391 0.5 0.1 0.3 0.5 0.1 0.3 1.5 0.5 0.3 1.7 0 0 1.7 0 0 0 0 0 0 0 0 0 0 0 1.5 0 0.11
37.648 7.61 1.96 7.11 70.75 -0.56 -4.12 0 0 0 32 0 0 0 0 39 -16.23 1.05 -14.13 1391 0.5 0.1 0.3 0.5 0.1 0.3 1.5 0.5 0.3 1.7 0 0 1.7 0 0 0 0 0 0 0 0 0 0 0 1.5 0 0.11
37.748 12.96 0.77 6.38 50.38 -14.06 -4.19 0 0 159 36 1 0 0 0 39 7.28 4.67 -5.97 1390 0.5 0.1 0.3 0.5 0.1 0.3 1.5 0.5 0.3 1.7 0 0 1.7 0 0 0 0 0 0 0 0 0 0 0 1.5 0 0.11
37.848 13.82 -0.2 5.8 -3.06 -9.56 -0.31 0 0 0 26 1 0 0 0 39 14.74 -4.99 -13.92 1391 0.5 0.1 0.3 0.5 0.1 0.3 1.5 0.5 0.3 1.7 0 0 1.7 0 0 0 0 0 0 0 0 0 0 0 1.5 0 0.11
37.947 12.65 0.64 5.33 -14.38 10.81 2.37 0 0 0 16 0 0 0 0 39 5.12 -9.22 -17.32 1391 0.5 0.1 0.3 0.5 0.1 0.3 1.5 0.5 0.3 1.7 0 0 1.7 0 0 0 0 0 0 0 0 0 0 0 1.5 0 0.11
38.048 11.83 1.97 4.76 -4.25 7.37 -0.94 0 0 0 8 0 0 0 0 39 -3.77 -9.57 -18.96 1391 0.5 0.1 0.3 0.5 0.1 0.3 1.5 0.5 0.3 1.7 0 0 1.7 0 0 0 0 0 0 0 0 0 0 0 1.5 0 0.11
38.148 12.11 2.56 4 19.81 6 -10.19 0 0 0 2 0 0 0 0 39 -30.42 -7.98 -12.12 1394 0.5 0.1 0.3 0.5 0.1 0.3 1.5 0.5 0.3 1.7 0 0 1.7 0 0 0 0 0 0 0 0 0 0 0 1.5 0 0.11
38.248 11.04 1.68 3.34 -22.62 -19.37 -3.5 0 0 0 1 0 0 0 0 39 25.86 10.89 -12.33 1393 0.5 0.1 0.3 0.5 0.1 0.3 1.5 0.5 0.3 1.7 0 0 1.7 0 0 0 0 0 0 0 0 0 0 0 1.5 0 0.11
38.348 6.71 0.14 2.75 -44.44 -8 -9.38 0 0 0 2 0 0 0 0 39 15.06 -4.66 -12.71 1392 0.5 0.1 0.3 0.5 0.1 0.3 1.5 0.5 0.3 1.7 0 0 1.7 0 0 0 0 0 0 0 0 0 0 0 1.5 0 0.11
38.448 3.76 0.23 2.3 -19.12 4.37 -1.37 0 0 0 2 0 0 0 0 39 7.33 -10.06 -15.62 1391 0.5 0.1 0.3 0.5 0.1 0.3 1.5 0.5 0.3 1.7 0 0 1.7 0 0 0 0 0 0 0 0 0 0 0 1.5 0 0.11
38.548 3.63 0.7 1.86 -6 -2.19 2.19 0 0 0 2 0 0 0 0 39 -2.81 -7.19 -11.58 1391 0.5 0.1 0.3 0.5 0.1 0.3 1.5 0.5 0.3 1.7 0 0 1.7 0 0 0 0 0 0 0 0 0 0 0 1.5 0 0.11
38.648 4.13 -0.26 1.3 -4.12 -13.56 -4.5 0 0 0 2 0 0 0 0 39 -2.48 5.83 -9.6 1391 0.5 0.1 0.3 0.5 0.1 0.3 1.5 0.5 0.3 1.7 0 0 1.7 0 0 0 0 0 0 0 0 0 0 0 1.5 0 0.11
38.748 3.75 -1.61 0.8 -0.13 -11 -3.25 0 0 0 2 0 0 0 0 39 8.4 1.13 -17.57 1391 0.5 0.1 0.3 0.5 0.1 0.3 1.5 0.5 0.3 1.7 0 0 1.7 0 0 0 0 0 0 0 0 0 0 0 1.5 0 0.11
38.848 1.53 -2.07 0.42 -38.94 -7.81 0.44 0 0 0 1 0 0 0 0 39 35.75 2.05 -15.48 1391 0.5 0.1 0.3 0.5 0.1 0.3 1.5 0.5 0.3 1.7 0 0 1.7 0 0 0 0 0 0 0 0 0 0 0 1.5 0 0.11
38.948 -1.11 -1.64 0.1 -24.44 6.06 4.62 0 0 0 1 0 0 0 0 39 8.62 -4.67 -16.58 1391 0.5 0.1 0.3 0.5 0.1 0.3 1.5 0.5 0.3 1.7 0 0 1.7 0 0 0 0 0 0 0 0 0 0 0 1.5 0 0.11
39.048 -1.44 -1.25 -0.18 -3.5 -0.94 2.69 0 0 0 1 0 0 0 0 39 6.33 -0.27 -14.77 1390 0.5 0.1 0.3 0.5 0.1 0.3 1.5 0.5 0.3 1.7 0 0 1.7 0 0 0 0 0 0 0 0 0 0 0 1.5 0 0.11
39.148 -0.05 -1.48 -0.44 6.62 -4.94 -3.19 0 0 0 2 0 0 0 0 37 7.79 0.33 -15.02 1379 0.5 0.1 0.3 0.5 0.1 0.3 1.5 0.5 0.3 1.7 0 0 1.7 0 0 0 0 0 0 0 0 0 0 0 1.5 0 0.11
39.248 0.96 -1.59 -0.7 0 -2.87 -1.25 0 0 0 1 0 0 0 0 37 -1.81 -0.12 -17.16 1379 0.5 0.1 0.3 0.5 0.1 0.3 1.5 0.5 0.3 1.7 0 0 1.7 0 0 0 0 0 0 0 0 0 0 0 1.5 0 0.11
39.348 0.85 -1.36 -0.88 -15.31 1.25 -4.56 0 0 0 2 0 0 0 0 37 12.19 -2.82 -18.05 1379 0.5 0.1 0.3 0.5 0.1 0.3 1.5 0.5 0.3 1.7 0 0 1.7 0 0 0 0 0 0 0 0 0 0 0 1.5 0 0.11
39.448 -0.33 -1.04 -1.13 -19.44 6.44 -6.44 0 0 0 1 0 0 0 0 37 5.64 -4.95 -16.75 1378 0.5 0.1 0.3 0.5 0.1 0.3 1.5 0.5 0.3 1.7 0 0 1.7 0 0 0 0 0 0 0 0 0 0 0 1.5 0 0.11
39.548 -1.63 -0.75 -1.36 -17.5 2.31 0.75 0 0 0 1 0 0 0 0 37 10.37 -2.6 -19.27 1379 0.5 0.1 0.3 0.5 0.1 0.3 1.5 0.5 0.3 1.7 0 0 1.7 0 0 0 0 0 0 0 0 0 0 0 1.5 0 0.11
39.648 -2.5 -0.76 -1.56 -17.62 -3.5 -0.37 0 0 0 2 0 0 0 0 37 20.12 0.05 -19.07 1379 0.5 0.1 0.3 0.5 0.1 0.3 1.5 0.5 0.3 1.7 0 0 1.7 0 0 0 0 0 0 0 0 0 0 0 1.5 0 0.11
39.748 -2.87 -1.29 -1.85 -9 -7.19 6.69 0 0 0 2 0 0 0 0 38 9.97 1.39 -22.25 1380 0.5 0.1 0.3 0.5 0.1 0.3 1.5 0.5 0.3 1.7 0 0 1.7 0 0 0 0 0 0 0 0 0 0 0 1.5 0 0.11
39.848 -2.54 -1.46 -2.21 -4.94 3.62 0.19 0 0 0 1 0 0 0 0 38 9.86 -5.67 -14.85 1380 0.5 0.1 0.3 0.5 0.1 0.3 1.5 0.5 0.3 1.7 0 0 1.7 0 0 0 0 0 0 0 0 0 0 0 1.5 0 0.11
39.948 -2.3 -0.88 -2.55 -4.62 7.31 -5.06 0 0 0 1 0 0 0 0 37 16.97 -2.4 -17.19 1379 0.5 0.1 0.3 0.5 0.1 0.3 1.5 0.5 0.3 1.7 0 0 1.7 0 0 0 0 0 0 0 0 0 0 0 1.5 0 0.11
40.048 -2.03 -0.23 -2.9 7.44 6.44 -2.87 0 0 0 2 0 0 0 0 37 -1.1 -6.2 -16.69 1379 0.5 0.1 0.3 0.5 0.1 0.3 1.5 0.5 0.3 1.7 0 0 1.7 0 0 0 0 0 0 0 0 0 0 0 1.5 0 0.11
40.148 -1.64 -0.03 -3.27 13.44 1 -5.06 0 0 0 1 0 0 0 0 38 -3.63 -1.68 -15.23 1380 0.5 0.1 0.3 0.5 0.1 0.3 1.5 0.5 0.3 1.7 0 0 1.7 0 0 0 0 0 0 0 0 0 0 0 1.5 0 0.11
40.248 -1.7 -0.15 -3.65 -3.87 -1.25 -4.12 0 0 0 1 0 0 0 0 37 12.78 -2.66 -17.25 1379 0.5 0.1 0.3 0.5 0.1 0.3 1.5 0.5 0.3 1.7 0 0 1.7 0 0 0 0 0 0 0 0 0 0 0 1.5 0 0.11
40.348 -2.67 -0.59 -4.09 -10.38 -8.06 -2.37 0 0 0 1 0 0 0 0 37 7.45 2.33 -15.69 1379 0.5 0.1 0.3 0.5 0.1 0.3 1.5 0.5 0.3 1.7 0 0 1.7 0 0 0 0 0 0 0 0 0 0 0 1.5 0 0.11
40.448 -3.53 -0.87 -4.61 -2.56 -1.81 -8 0 0 0 10 -1 0 0 0 37 18.36 -3.24 -15.55 1379 0.5 0.1 0.3 0.5 0.1 0.3 1.5 0.5 0.3 1.7 0 0 1.7 0 0 0 0 0 0 0 0 0 0 0 1.5 0 0.11
40.548 -3.07 -0.54 -5.1 18.81 8.63 -6.31 0 0 0 18 0 0 0 0 37 4.24 -9.09 -13.44 1379 0.5 0.1 0.3 0.5 0.1 0.3 1.5 0.5 0.3 1.7 0 0 1.7 0 0 0 0 0 0 0 0 0 0 0 1.5 0 0.11
40.648 -0.49 -0.08 -5.42 32.19 -3 2.56 0 0 0 23 0 0 0 0 38 0.93 -0.92 -18.56 1381 0.5 0.1 0.3 0.5 0.1 0.3 1.5 0.5 0.3 1.7 0 0 1.7 0 0 0 0 0 0 0 0 0 0 0 1.5 0 0.11
40.748 4.46 -0.22 -5.73 43.13 -11.88 8.25 0 0 0 24 0 0 0 0 37 0.05 1.56 -16.7 1379 0.5 0.1 0.3 0.5 0.1 0.3 1.5 0.5 0.3 1.7 0 0 1.7 0 0 0 0 0 0 0 0 0 0 0 1.5 0 0.11
40.848 8.88 -0.77 -6.08 28.69 -9.69 -2.31 0 0 0 25 0 0 0 0 38 0.08 0.62 -18.04 1380 0.5 0.1 0.3 0.5 0.1 0.3 1.5 0.5 0.3 1.7 0 0 1.7 0 0 0 0 0 0 0 0 0 0 0 1.5 0 0.11
40.948 10.89 -1.04 -6.34 10.69 -5.81 4.62 0 0 0 22 0 0 0 0 38 14.98 -1.59 -17.46 1381 0.5 0.1 0.3 0.5 0.1 0.3 1.5 0.5 0.3 1.7 0 0 1.7 0 0 0 0 0 0 0 0 0 0 0 1.5 0 0.11
41.048 11.13 -0.98 -6.56 -1.12 4.69 -2.94 0 0 0 17 0 0 0 0 38 7.09 -7.81 -19.37 1380 0.5 0.1 0.3 0.5 0.1 0.3 1.5 0.5 0.3 1.7 0 0 1.7 0 0 0 0 0 0 0 0 0 0 0 1.5 0 0.11
41.148 11.17 -0.64 -6.83 0.81 4 2.56 0 0 0 21 0 0 0 0 38 22.91 -6.93 -21.49 1381 0.5 0.1 0.3 0.5 0.1 0.3 1.5 0.5 0.3 1.7 0 0 1.7 0 0 0 0 0 0 0 0 0 0 0 1.5 0 0.11
41.248 10.81 -0.56 -7.15 -3.94 -2.87 -1.37 0 0 0 25 0 0 0 0 38 10.61 -5.2 -16.42 1380 0.5 0.1 0.3 0.5 0.1 0.3 1.5 0.5 0.3 1.7 0 0 1.7 0 0 0 0 0 0 0 0 0 0 0 1.5 0 0.11
41.348 10.73 -0.8 -7.47 2 -2.81 1.12 0 0 0 22 0 0 0 0 38 -3.5 -2.93 -13.66 1382 0.5 0.1 0.3 0.5 0.1 0.3 1.5 0.5 0.3 1.7 0 0 1.7 0 0 0 0 0 0 0 0 0 0 0 1.5 0 0.11
41.448 11.77 -1.09 -7.71 9.25 0.19 0.88 0 0 0 13 -2 0 0 0 38 -2.57 -6.07 -18.03 1381 0.5 0.1 0.3 0.5 0.1 0.3 1.5 0.5 0.3 1.7 0 0 1.7 0 0 0 0 0 0 0 0 0 0 0 1.5 0 0.11
41.548 11.5 -1.33 -7.99 -19.75 -5.12 0.31 0 0 0 7 -4 0 0 0 40 17.78 -4.02 -18.87 1407 0.5 0.1 0.3 0.5 0.1 0.3 1.5 0.5 0.3 1.7 0 0 1.7 0 0 0 0 0 0 0 0 0 0 0 1.5 0 0.11
41.648 8.44 -2.04 -8.38 -31.31 -7.62 -2.69 0 0 0 3 -4 0 0 0 40 -5.73 -6.23 -12.23 1404 0.5 0.1 0.3 0.5 0.1 0.3 1.5 0.5 0.3 1.7 0 0 1.7 0 0 0 0 0 0 0 0 0 0 0 1.5 0 0.11
41.748 4.53 -3.54 -8.73 -21 -17.87 -2.87 0 0 0 1 -2 0 0 0 40 23.64 12.31 -17.05 1405 0.5 0.1 0.3 0.5 0.1 0.3 1.5 0.5 0.3 1.7 0 0 1.7 0 0 0 0 0 0 0 0 0 0 0 1.5 0 0.11
41.848 1.34 -4.63 -8.99 -36.88 -7.25 -1.12 0 0 0 2 -1 0 0 0 40 31.88 4.66 -21.25 1405 0.5 0.1 0.3 0.5 0.1 0.3 1.5 0.5 0.3 1.7 0 0 1.7 0 0 0 0 0 0 0 0 0 0 0 1.5 0 0.11
41.948 -0.48 -3.58 -9.12 -24.19 11.56 -3.25 0 0 0 2 -8 0 0 0 40 32.93 -12.95 -18.77 1407 0.5 0.1 0.3 0.5 0.1 0.3 1.5 0.5 0.3 1.7 0 0 1.7 0 0 0 0 0 0 0 0 0 0 0 1.5 0 0.11
42.048 -1.97 -3.02 -9.17 -20.56 -11.38 0.81 0 0 153 3 0 0 0 0 40 6.39 30.61 -19.71 1407 0.5 0.1 0.3 0.5 0.1 0.3 1.5 0.5 0.3 1.7 0 0 1.7 0 0 0 0 0 0 0 0 0 0 0 1.5 0 0.11
42.148 -2.91 -4.77 -9.24 -8.75 -21.44 1.12 0 0 167 1 8 0 0 0 40 10.11 16.66 -23.62 1406 0.5 0.1 0.3 0.5 0.1 0.3 1.5 0.5 0.3 1.7 0 0 1.7 0 0 0 0 0 0 0 0 0 0 0 1.5 0 0.11
42.248 -3.3 -4.93 -9.37 -18.44 11.56 -3.06 0 0 145 1 4 0 0 0 40 20.91 -13.54 -16.52 1405 0.5 0.1 0.3 0.5 0.1 0.3 1.5 0.5 0.3 1.7 0 0 1.7 0 0 0 0 0 0 0 0 0 0 0 1.5 0 0.11
42.348 -3.44 -1.98 -9.39 -3.44 35.44 -3.31 0 0 0 2 0 0 0 0 40 14.21 -15.82 -19.32 1407 0.5 0.1 0.3 0.5 0.1 0.3 1.5 0.5 0.3 1.7 0 0 1.7 0 0 0 0 0 0 0 0 0 0 0 1.5 0 0.11
42.448 -4 0 -9.17 -17 5.31 6.06 0 0 152 2 1 0 0 0 40 15.54 -1.08 -25.05 1405 0.5 0.1 0.3 0.5 0.1 0.3 1.5 0.5 0.3 1.7 0 0 1.7 0 0 0 0 0 0 0 0 0 0 0 1.5 0 0.11
42.549 -4.23 -0.74 -9.07 5.12 -9.69 -0.94 0 0 127 1 12 0 0 0 40 -2.21 19.76 -25.4 1405 0.5 0.1 0.3 0.5 0.1 0.3 1.5 0.5 0.3 1.7 0 0 1.7 0 0 0 0 0 0 0 0 0 0 0 1.5 0 0.11
42.649 -4.31 -0.67 -9.22 -11.88 20.25 1.56 0 0 129 1 16 0 0 0 40 13.98 -6.24 -16.45 1405 0.5 0.1 0.3 0.5 0.1 0.3 1.5 0.5 0.3 1.7 0 0 1.7 0 0 0 0 0 0 0 0 0 0 0 1.5 0 0.11
42.749 -4.06 3.56 -9.28 -8.88 59.56 -9.63 0 0 126 1 10 0 0 0 40 7.45 -31.14 -12.96 1406 0.5 0.1 0.3 0.5 0.1 0.3 1.5 0.5 0.3 1.7 0 0 1.7 0 0 0 0 0 0 0 0 0 0 0 1.5 0 0.11
42.849 -3.71 7.58 -9.07 -4.87 22.5 1.56 0 0 0 4 8 0 0 0 40 30.34 -6.48 -19.66 1404 0.5 0.1 0.3 0.5 0.1 0.3 1.5 0.5 0.3 1.7 0 0 1.7 0 0 0 0 0 0 0 0 0 0 0 1.5 0 0.11
42.949 -4.05 6.97 -8.87 5.06 -18.19 0.75 0 0 146 16 7 0 0 0 40 24.39 13.9 -26.42 1405 0.5 0.1 0.3 0.5 0.1 0.3 1.5 0.5 0.3 1.7 0 0 1.7 0 0 0 0 0 0 0 0 0 0 0 1.5 0 0.11
43.049 -2.58 4.61 -8.87 27.37 -11.94 3.5 0 0 0 24 1 0 0 0 40 13.62 -17.52 -21.91 1405 0.5 0.1 0.3 0.5 0.1 0.3 1.5 0.5 0.3 1.7 0 0 1.7 0 0 0 0 0 0 0 0 0 0 0 1.5 0 0.11
43.149 2.1 4.44 -9.04 40.06 11.56 3.81 0 0 148 24 -2 0 0 0 40 -7.57 -19.08 -22.82 1405 0.5 0.1 0.3 0.5 0.1 0.3 1.5 0.5 0.3 1.7 0 0 1.7 0 0 0 0 0 0 0 0 0 0 0 1.5 0 0.11
43.249 7.38 4.77 -9.32 57.13 0.62 -3.81 0 0 147 16 6 0 0 0 40 -13.07 3.59 -15.78 1405 0.5 0.1 0.3 0.5 0.1 0.3 1.5 0.5 0.3 1.7 0 0 1.7 0 0 0 0 0 0 0 0 0 0 0 1.5 0 0.11
43.349 9.49 3.64 -9.68 3.44 0.69 -7.44 0 0 0 9 14 0 0 0 40 -20.35 1.69 -16.87 1404 0.5 0.1 0.3 0.5 0.1 0.3 1.5 0.5 0.3 1.7 0 0 1.7 0 0 0 0 0 0 0 0 0 0 0 1.5 0 0.11
43.449 7.46 3.53 -9.9 -37.69 6.37 -0.25 0 0 161 6 21 0 0 0 40 38.06 17.21 -22.8 1405 0.5 0.1 0.3 0.5 0.1 0.3 1.5 0.5 0.3 1.7 0 0 1.7 0 0 0 0 0 0 0 0 0 0 0 1.5 0 0.11
43.549 3.54 5.67 -10.2 -31.5 36.88 -2.87 0 0 162 3 8 0 0 0 40 -8 -43.21 -21.12 1405 0.5 0.1 0.3 0.5 0.1 0.3 1.5 0.5 0.3 1.7 0 0 1.7 0 0 0 0 0 0 0 0 0 0 0 1.5 0 0.11
43.649 2.53 8.59 -10.66 5 26 -13.63 0 0 168 2 0 0 0 0 40 -11.73 -17.73 -16.69 1404 0.5 0.1 0.3 0.5 0.1 0.3 1.5 0.5 0.3 1.7 0 0 1.7 0 0 0 0 0 0 0 0 0 0 0 1.5 0 0.11
43.749 3.87 7.48 -11.2 -2.56 -34.31 -3.56 0 0 172 2 0 0 0 0 40 27.51 23.55 -14.55 1406 0.5 0.1 0.3 0.5 0.1 0.3 1.5 0.5 0.3 1.7 0 0 1.7 0 0 0 0 0 0 0 0 0 0 0 1.5 0 0.11
43.849 4.15 2.78 -11.9 5.69 -42.25 -7 0 0 0 2 0 0 0 0 39 9.64 19.18 -10.84 1392 0.5 0.1 0.3 0.5 0.1 0.3 1.5 0.5 0.3 1.7 0 0 1.7 0 0 0 0 0 0 0 0 0 0 0 1.5 0 0.11
43.949 2.33 -0.67 -12.74 -14.88 -16.69 -8.19 0 0 199 2 -2 0 0 0 39 16.41 -0.01 -11.48 1392 0.5 0.1 0.3 0.5 0.1 0.3 1.5 0.5 0.3 1.7 0 0 1.7 0 0 0 0 0 0 0 0 0 0 0 1.5 0 0.11
44.049 -0.04 -0.2 -13.39 -19.94 17.44 -6.69 0 0 0 2 0 0 0 0 39 10.37 -13.83 -11.02 1394 0.5 0.1 0.3 0.5 0.1 0.3 1.5 0.5 0.3 1.7 0 0 1.7 0 0 0 0 0 0 0 0 0 0 0 1.5 0 0.11
44.149 -0.77 1.26 -14.06 5.62 3.81 -13.56 0 0 0 1 0 0 0 0 39 0.93 -4.74 -7.73 1392 0.5 0.1 0.3 0.5 0.1 0.3 1.5 0.5 0.3 1.7 0 0 1.7 0 0 0 0 0 0 0 0 0 0 0 1.5 0 0.11
44.249 -0.03 0.67 -14.74 13.31 -20.25 -12.25 0 0 0 2 0 0 0 0 39 1.32 7.64 -11.81 1392 0.5 0.1 0.3 0.5 0.1 0.3 1.5 0.5 0.3 1.7 0 0 1.7 0 0 0 0 0 0 0 0 0 0 0 1.5 0 0.11
44.349 0.36 -1.75 -15.6 -11.75 -35.25 4.31 0 0 0 1 0 0 0 0 39 21.29 17.21 -17.39 1392 0.5 0.1 0.3 0.5 0.1 0.3 1.5 0.5 0.3 1.7 0 0 1.7 0 0 0 0 0 0 0 0 0 0 0 1.5 0 0.11
44.449 -0.12 -3.14 -16.49 -12.94 -7.75 -12.56 0 0 0 1 0 0 0 0 39 15.14 5.57 -9.38 1392 0.5 0.1 0.3 0.5 0.1 0.3 1.5 0.5 0.3 1.7 0 0 1.7 0 0 0 0 0 0 0 0 0 0 0 1.5 0 0.11
44.549 -0.41 -2.11 -17.37 7.62 21.44 -5.69 0 0 0 1 0 0 0 0 39 -4.04 -17.94 -9.09 1391 0.5 0.1 0.3 0.5 0.1 0.3 1.5 0.5 0.3 1.7 0 0 1.7 0 0 0 0 0 0 0 0 0 0 0 1.5 0 0.11
44.649 0.04 -0.73 -18.11 17.19 7.56 -5.56 0 0 0 2 0 0 0 0 39 -3.3 -2.07 -9 1392 0.5 0.1 0.3 0.5 0.1 0.3 1.5 0.5 0.3 1.7 0 0 1.7 0 0 0 0 0 0 0 0 0 0 0 1.5 0 0.11
44.749 0.37 -1.81 -18.92 6.94 -23.87 -12.31 0 0 0 2 0 0 0 0 39 6.58 12.29 -7.13 1391 0.5 0.1 0.3 0.5 0.1 0.3 1.5 0.5 0.3 1.7 0 0 1.7 0 0 0 0 0 0 0 0 0 0 0 1.5 0 0.11
44.849 -0.11 -4.03 -19.72 -3 -19.69 -6.19 0 0 0 6 0 0 0 0 39 26.94 7.64 -11.59 1392 0.5 0.1 0.3 0.5 0.1 0.3 1.5 0.5 0.3 1.7 0 0 1.7 0 0 0 0 0 0 0 0 0 0 0 1.5 0 0.11
44.949 -0.15 -4.24 -20.47 8.38 2.69 -13 0 0 0 16 0 0 0 0 39 10.66 -4.88 -7.24 1391 0.5 0.1 0.3 0.5 0.1 0.3 1.5 0.5 0.3 1.7 0 0 1.7 0 0 0 0 0 0 0 0 0 0 0 1.5 0 0.11
45.049 1.87 -2.63 -21.15 20.19 6.37 -0.5 0 0 0 7 1 0 0 0 39 -21.87 -4.66 -11.3 1391 0.5 0.1 0.3 0.5 0.1 0.3 1.5 0.5 0.3 1.7 0 0 1.7 0 0 0 0 0 0 0 0 0 0 0 1.5 0 0.11
45.149 5.25 -1.87 -21.77 21.75 -10.94 -7.75 0 0 0 1 6 0 0 0 39 -8.14 11.38 -10.61 1392 0.5 0.1 0.3 0.5 0.1 0.3 1.5 0.5 0.3 1.7 0 0 1.7 0 0 0 0 0 0 0 0 0 0 0 1.5 0 0.11
45.249 5.8 -2.4 -22.46 -14 -0.5 -10.69 0 0 0 1 16 0 0 0 39 6.35 21.36 -9.81 1390 0.5 0.1 0.3 0.5 0.1 0.3 1.5 0.5 0.3 1.7 0 0 1.7 0 0 0 0 0 0 0 0 0 0 0 1.5 0 0.11
45.349 3.45 -0.85 -23.04 -24.94 32.56 -4.12 0 0 0 1 19 0 0 0 39 11.59 -7.11 -11.6 1392 0.5 0.1 0.3 0.5 0.1 0.3 1.5 0.5 0.3 1.7 0 0 1.7 0 0 0 0 0 0 0 0 0 0 0 1.5 0 0.11
45.449 1.33 3.74 -23.54 -14.06 46.31 -7.56 0 0 0 2 17 0 0 0 39 3.03 -13.41 -9.45 1390 0.5 0.1 0.3 0.5 0.1 0.3 1.5 0.5 0.3 1.7 0 0 1.7 0 0 0 0 0 0 0 0 0 0 0 1.5 0 0.11
45.549 1.44 7 -24.06 16.31 25.19 -9.31 0 0 0 1 5 0 0 0 37 -4.3 -15.21 -9.04 1379 0.5 0.1 0.3 0.5 0.1 0.3 1.5 0.5 0.3 1.7 0 0 1.7 0 0 0 0 0 0 0 0 0 0 0 1.5 0 0.11
45.649 2.49 6.14 -24.72 0 -27.19 2.37 0 0 0 1 2 0 0 0 37 -3.11 13.76 -8.1 1379 0.5 0.1 0.3 0.5 0.1 0.3 1.5 0.5 0.3 1.7 0 0 1.7 0 0 0 0 0 0 0 0 0 0 0 1.5 0 0.11
45.749 2.46 2.04 -25.44 -11 -41.81 -12.88 0 0 0 1 3 0 0 0 37 -0.74 14.28 -6.16 1379 0.5 0.1 0.3 0.5 0.1 0.3 1.5 0.5 0.3 1.7 0 0 1.7 0 0 0 0 0 0 0 0 0 0 0 1.5 0 0.11
45.849 2.35 -0.16 -26.17 10.25 -2.81 -1.94 0 0 0 2 4 0 0 0 37 -2.86 -2.78 -8.51 1379 0.5 0.1 0.3 0.5 0.1 0.3 1.5 0.5 0.3 1.7 0 0 1.7 0 0 0 0 0 0 0 0 0 0 0 1.5 0 0.11
45.949 2.57 1.18 -26.78 -1.62 23.12 -8.19 0 0 0 1 5 0 0 0 37 2.43 -12.76 -8.85 1378 0.5 0.1 0.3 0.5 0.1 0.3 1.5 0.5 0.3 1.7 0 0 1.7 0 0 0 0 0 0 0 0 0 0 0 1.5 0 0.11
46.049 1.7 2.74 -27.42 -23.12 4.94 -0.88 0 0 0 2 7 0 0 0 37 18.49 5.01 -10.68 1378 0.5 0.1 0.3 0.5 0.1 0.3 1.5 0.5 0.3 1.7 0 0 1.7 0 0 0 0 0 0 0 0 0 0 0 1.5 0 0.11
46.149 0.63 2.37 -28.14 1 -8.88 -3.75 0 0 0 2 6 0 0 0 37 -5.19 3.62 -4.13 1377 0.5 0.1 0.3 0.5 0.1 0.3 1.5 0.5 0.3 1.7 0 0 1.7 0 0 0 0 0 0 0 0 0 0 0 1.5 0 0.11
46.249 1.43 1.89 -28.84 15.19 -0.13 -9.44 0 0 0 2 5 0 0 0 36 -4.63 -0.62 -6.58 1365 0.5 0.1 0.3 0.5 0.1 0.3 1.5 0.5 0.3 1.7 0 0 1.7 0 0 0 0 0 0 0 0 0 0 0 1.5 0 0.11
46.349 2.61 1.69 -29.6 7.19 -5.62 -3 0 0 0 2 4 0 0 0 36 2.43 3.05 -5.75 1363 0.5 0.1 0.3 0.5 0.1 0.3 1.5 0.5 0.3 1.7 0 0 1.7 0 0 0 0 0 0 0 0 0 0 0 1.5 0 0.11
46.449 2.5 0.96 -30.3 -5.12 -7.12 -10.56 0 0 0 2 3 0 0 0 36 8.29 7.03 -6.07 1364 0.5 0.1 0.3 0.5 0.1 0.3 1.5 0.5 0.3 1.7 0 0 1.7 0 0 0 0 0 0 0 0 0 0 0 1.5 0 0.11
46.549 1.58 -0.14 -31.06 -2.12 -12.13 -12 0 0 0 2 3 0 0 0 36 -3.72 4.36 -2.38 1365 0.5 0.1 0.3 0.5 0.1 0.3 1.5 0.5 0.3 1.7 0 0 1.7 0 0 0 0 0 0 0 0 0 0 0 1.5 0 0.11
46.649 1 -0.97 -31.79 -6 -7 -2.06 0 0 0 2 1 0 0 0 36 3.48 4.25 -7.29 1364 0.5 0.1 0.3 0.5 0.1 0.3 1.5 0.5 0.3 1.7 0 0 1.7 0 0 0 0 0 0 0 0 0 0 0 1.5 0 0.11
46.749 0.83 -1.51 -32.52 5.81 -8.44 -13.44 0 0 0 2 0 0 0 0 36 1.67 4.9 -4.56 1365 0.5 0.1 0.3 0.5 0.1 0.3 1.5 0.5 0.3 1.7 0 0 1.7 0 0 0 0 0 0 0 0 0 0 0 1.5 0 0.11
46.849 0.9 -2.23 -33.22 0.25 -12.75 -8.44 0 0 0 2 0 0 0 0 38 5.78 6.69 0.51 1380 0.5 0.1 0.3 0.5 0.1 0.3 1.5 0.5 0.3 1.7 0 0 1.7 0 0 0 0 0 0 0 0 0 0 0 1.5 0 0.11
46.949 1.19 -3.31 -33.88 3.37 -15.69 -4.12 0 0 0 2 0 0 0 0 39 -3.42 9.61 -2.21 1390 0.5 0.1 0.3 0.5 0.1 0.3 1.5 0.5 0.3 1.7 0 0 1.7 0 0 0 0 0 0 0 0 0 0 0 1.5 0 0.11
47.049 1.99 -4.47 -34.54 6.62 -12.06 -6 0 0 0 2 0 0 0 0 40 -1.94 6.03 -4.6 1407 0.5 0.1 0.3 0.5 0.1 0.3 1.5 0.5 0.3 1.7 0 0 1.7 0 0 0 0 0 0 0 0 0 0 0 1.5 0 0.11
47.149 2.9 -4.63 -35.19 13.75 -2.75 -10.44 0 0 0 2 0 0 0 0 40 -8.59 0.49 0.98 1405 0.5 0.1 0.3 0.5 0.1 0.3 1.5 0.5 0.3 1.7 0 0 1.7 0 0 0 0 0 0 0 0 0 0 0 1.5 0 0.11
47.249 3.35 -4.79 -35.75 -4.94 -17.94 -1.12 0 0 0 2 0 0 0 0 40 24.54 9.45 -4.11 1405 0.5 0.1 0.3 0.5 0.1 0.3 1.5 0.5 0.3 1.7 0 0 1.7 0 0 0 0 0 0 0 0 0 0 0 1.5 0 0.11
47.349 2.98 -6.23 -36.44 -14.44 -29.75 -1.87 0 0 0 5 0 0 0 0 40 -6.73 32.27 -2.59 1402 0.5 0.1 0.3 0.5 0.1 0.3 1.5 0.5 0.3 1.7 0 0 1.7 0 0 0 0 0 0 0 0 0 0 0 1.5 0 0.11
47.449 2.87 -7.99 -37.19 -0.13 -27.62 4.12 0 0 0 13 0 0 0 0 39 3.75 12.72 3.02 1392 0.5 0.1 0.3 0.5 0.1 0.3 1.5 0.5 0.3 1.7 0 0 1.7 0 0 0 0 0 0 0 0 0 0 0 1.5 0 0.11
47.55 4.41 -8.26 -37.69 36.5 5.5 -9.25 0 0 0 23 0 0 0 0 39 0.51 -6.4 0.48 1393 0.5 0.1 0.3 0.5 0.1 0.3 1.5 0.5 0.3 1.7 0 0 1.7 0 0 0 0 0 0 0 0 0 0 0 1.5 0 0.11
47.65 7.51 -6.94 -38.1 35.38 9.56 -6.62 0 0 0 25 0 0 0 0 39 -5.15 3.03 4.1 1393 0.5 0.1 0.3 0.5 0.1 0.3 1.5 0.5 0.3 1.7 0 0 1.7 0 0 0 0 0 0 0 0 0 0 0 1.5 0 0.11
47.749 10.74 -6.5 -38.53 27.62 -6.12 -4.5 0 0 0 12 0 0 0 0 39 -16.58 7.78 15.72 1391 0.5 0.1 0.3 0.5 0.1 0.3 1.5 0.5 0.3 1.7 0 0 1.7 0 0 0 0 0 0 0 0 0 0 0 1.5 0 0.11
47.849 11.29 -6.79 -38.69 4 -12.31 4.87 0 0 0 7 1 0 0 0 39 0.78 21.58 21.48 1392 0.5 0.1 0.3 0.5 0.1 0.3 1.5 0.5 0.3 1.7 0 0 1.7 0 0 0 0 0 0 0 0 0 0 0 1.5 0 0.11
47.949 8.7 -6.02 -38.31 -37.06 18.87 4.5 0 0 0 4 0 0 0 0 39 19.57 -8.13 26.99 1392 0.5 0.1 0.3 0.5 0.1 0.3 1.5 0.5 0.3 1.7 0 0 1.7 0 0 0 0 0 0 0 0 0 0 0 1.5 0 0.11
48.05 4.92 -3.36 -37.5 -26.25 24.87 17.94 0 0 0 2 0 0 0 0 39 12.23 -10.19 29.43 1393 0.5 0.1 0.3 0.5 0.1 0.3 1.5 0.5 0.3 1.7 0 0 1.7 0 0 0 0 0 0 0 0 0 0 0 1.5 0 0.11
48.149 1.93 -0.6 -36.24 -15.75 27.25 17.19 0 0 0 6 -7 0 0 0 39 15.05 -19.18 21.24 1394 0.5 0.1 0.3 0.5 0.1 0.3 1.5 0.5 0.3 1.7 0 0 1.7 0 0 0 0 0 0 0 0 0 0 0 1.5 0 0.11
48.25 0.76 0.43 -34.49 -8.94 -0.31 17.87 0 0 0 8 -21 0 0 0 39 20.83 -17.14 4.46 1392 0.5 0.1 0.3 0.5 0.1 0.3 1.5 0.5 0.3 1.7 0 0 1.7 0 0 0 0 0 0 0 0 0 0 0 1.5 0 0.11
48.351 1.21 -2.42 -32.74 21.94 -42.44 15.06 0 0 0 9 -24 0 0 0 39 -4.54 3.05 -2.5 1392 0.5 0.1 0.3 0.5 0.1 0.3 1.5 0.5 0.3 1.7 0 0 1.7 0 0 0 0 0 0 0 0 0 0 0 1.5 0 0.11
48.451 2.42 -7.35 -30.95 21.25 -46.56 0.75 0 0 0 10 -18 0 0 0 39 -6.06 26.72 -13.28 1393 0.5 0.1 0.3 0.5 0.1 0.3 1.5 0.5 0.3 1.7 0 0 1.7 0 0 0 0 0 0 0 0 0 0 0 1.5 0 0.11
48.552 2.63 -9.43 -29.42 -1.06 4.62 -0.19 0 0 0 3 10 0 0 0 39 9.16 7.11 -21.23 1393 0.5 0.1 0.3 0.5 0.1 0.3 1.5 0.5 0.3 1.7 0 0 1.7 0 0 0 0 0 0 0 0 0 0 0 1.5 0 0.11
48.652 1.57 -5.75 -28.21 -19.06 65.25 13.81 0 0 0 1 36 0 0 0 39 7.07 -14.73 -26.65 1393 0.5 0.1 0.3 0.5 0.1 0.3 1.5 0.5 0.3 1.7 0 0 1.7 0 0 0 0 0 0 0 0 0 0 0 1.5 0 0.11
48.752 0.54 4.17 -26.93 -6.69 130 12.5 0 0 0 2 41 0 0 0 39 -7.51 -59.41 -18.45 1393 0.5 0.1 0.3 0.5 0.1 0.3 1.5 0.5 0.3 1.7 0 0 1.7 0 0 0 0 0 0 0 0 0 0 0 1.5 0 0.11
48.853 0 15.68 -25.29 -1.81 114.69 6.87 0 0 0 1 40 0 0 0 39 13.62 -27.47 -17.35 1392 0.5 0.1 0.3 0.5 0.1 0.3 1.5 0.5 0.3 1.7 0 0 1.7 0 0 0 0 0 0 0 0 0 0 0 1.5 0 0.11
48.952 -1.24 21.39 -22.79 -28.19 46.44 9.44 0 0 194 1 42 0 0 0 39 3.86 -1.14 -27.19 1392 0.5 0.1 0.3 0.5 0.1 0.3 1.5 0.5 0.3 1.7 0 0 1.7 0 0 0 0 0 0 0 0 0 0 0 1.5 0 0.11
49.052 -2.68 20.78 -21.12 -26.94 4.12 15.06 0 0 189 1 39 0 0 0 39 12.25 11.43 -30.12 1391 0.5 0.1 0.3 0.5 0.1 0.3 1.5 0.5 0.3 1.7 0 0 1.7 0 0 0 0 0 0 0 0 0 0 0 1.5 0 0.11
49.153 -3.58 20.3 -20.1 -14.81 31.87 1.19 0 0 181 2 37 0 0 0 39 6.42 -11.44 -24.86 1390 0.5 0.1 0.3 0.5 0.1 0.3 1.5 0.5 0.3 1.7 0 0 1.7 0 0 0 0 0 0 0 0 0 0 0 1.5 0 0.11
49.252 -3.23 23.09 -18.84 15.75 60.31 4 0 0 0 1 33 0 0 0 39 4.59 -21.98 -18.6 1395 0.5 0.1 0.3 0.5 0.1 0.3 1.5 0.5 0.3 1.7 0 0 1.7 0 0 0 0 0 0 0 0 0 0 0 1.5 0 0.11
49.353 -2.22 26.25 -17.23 0.69 41.25 9.88 0 0 0 1 26 0 0 0 39 3.84 -21.95 -29.05 1393 0.5 0.1 0.3 0.5 0.1 0.3 1.5 0.5 0.3 1.7 0 0 1.7 0 0 0 0 0 0 0 0 0 0 0 1.5 0 0.11
49.453 -1.64 25.77 -15.83 16.25 -7.69 12.75 0 0 0 1 5 0 0 0 39 -3.24 -1.4 -33.17 1396 0.5 0.1 0.3 0.5 0.1 0.3 1.5 0.5 0.3 1.7 0 0 1.7 0 0 0 0 0 0 0 0 0 0 0 1.5 0 0.11
49.553 -1.99 19.82 -15.15 -11.19 -58.81 9.38 0 0 168 2 0 0 0 0 40 6.23 16.63 -34.28 1406 0.5 0.1 0.3 0.5 0.1 0.3 1.5 0.5 0.3 1.7 0 0 1.7 0 0 0 0 0 0 0 0 0 0 0 1.5 0 0.11
49.653 -3.32 11.25 -14.75 -25.37 -80.5 13.31 0 0 0 2 -10 0 0 0 40 31.66 8.78 -32.5 1407 0.5 0.1 0.3 0.5 0.1 0.3 1.5 0.5 0.3 1.7 0 0 1.7 0 0 0 0 0 0 0 0 0 0 0 1.5 0 0.11
49.757 -4 4.45 -14.43 22.62 -45.25 6 0 0 160 2 -6 0 0 0 40 -10.1 8.01 -29.39 1405 0.5 0.1 0.3 0.5 0.1 0.3 1.5 0.5 0.3 1.7 0 0 1.7 0 0 0 0 0 0 0 0 0 0 0 1.5 0 0.11
49.853 -2.45 0.66 -14.38 11.06 -26.12 -4.19 0 0 125 1 -5 0 0 0 40 -8.74 6.47 -16.07 1409 0.5 0.1 0.3 0.5 0.1 0.3 1.5 0.5 0.3 1.7 0 0 1.7 0 0 0 0 0 0 0 0 0 0 0 1.5 0 0.11
49.952 -0.73 -1.85 -14.41 3.19 -24.19 8.5 0 0 110 1 0 0 0 0 42 27.15 14.21 -21.8 1422 0.5 0.1 0.3 0.5 0.1 0.3 1.5 0.5 0.3 1.7 0 0 1.7 0 0 0 0 0 0 0 0 0 0 0 1.5 0 0.11
50.053 -1.64 -3.65 -14.56 -26 -19.44 -8.5 0 0 99 2 0 0 0 0 42 13.94 11.17 -14.4 1420 0.5 0.1 0.3 0.5 0.1 0.3 1.5 0.5 0.3 1.7 0 0 1.7 0 0 0 0 0 0 0 0 0 0 0 1.5 0 0.11
50.152 -3.31 -4.7 -14.89 -26.69 -11.44 -1.62 0 0 98 6 0 0 0 0 42 16.19 6.62 -13.45 1420 0.5 0.1 0.3 0.5 0.1 0.3 1.5 0.5 0.3 1.7 0 0 1.7 0 0 0 0 0 0 0 0 0 0 0 1.5 0 0.11
50.252 -2.77 -5.2 -15.4 13.56 -17.56 -1.62 0 0 98 7 1 0 0 0 42 -3.56 17.74 -9.64 1420 0.5 0.1 0.3 0.5 0.1 0.3 1.5 0.5 0.3 1.7 0 0 1.7 0 0 0 0 0 0 0 0 0 0 0 1.5 0 0.11
50.353 0.23 -5.87 -15.89 36.56 -15.63 -3.69 0 0 93 6 1 0 0 0 42 -11.15 11.15 3.09 1420 0.5 0.1 0.3 0.5 0.1 0.3 1.5 0.5 0.3 1.7 0 0 1.7 0 0 0 0 0 0 0 0 0 0 0 1.5 0 0.11
50.453 3.15 -6.16 -16.24 18.87 -6.81 2.06 0 0 0 9 1 0 0 0 42 8.38 12.85 -6.37 1421 0.5 0.1 0.3 0.5 0.1 0.3 1.5 0.5 0.3 1.7 0 0 1.7 0 0 0 0 0 0 0 0 0 0 0 1.5 0 0.11
50.553 3.96 -6.03 -16.22 -2.62 -7.94 1.44 0 0 0 19 0 0 0 0 41 21.81 4.38 -17.8 1419 0.5 0.1 0.3 0.5 0.1 0.3 1.5 0.5 0.3 1.7 0 0 1.7 0 0 0 0 0 0 0 0 0 0 0 1.5 0 0.11
50.652 4.06 -6.04 -16.24 6.75 -15.31 0.69 0 0 151 14 0 0 0 0 42 -12.02 15.01 -18.4 1422 0.5 0.1 0.3 0.5 0.1 0.3 1.5 0.5 0.3 1.7 0 0 1.7 0 0 0 0 0 0 0 0 0 0 0 1.5 0 0.11
50.753 6.12 -5.82 -16.27 43.88 9.13 -1.87 0 0 110 19 1 0 0 0 41 -4.28 -0.14 -17.25 1418 0.5 0.1 0.3 0.5 0.1 0.3 1.5 0.5 0.3 1.7 0 0 1.7 0 0 0 0 0 0 0 0 0 0 0 1.5 0 0.11
50.854 8.16 -4.46 -16.37 8.31 5.31 3.31 0 0 114 18 0 0 0 0 42 1.23 -4.37 -3.69 1422 0.5 0.1 0.3 0.5 0.1 0.3 1.5 0.5 0.3 1.7 0 0 1.7 0 0 0 0 0 0 0 0 0 0 0 1.5 0 0.11
50.954 9.15 -3.26 -16.48 31.06 7.12 -2 0 0 0 2 0 0 0 0 42 -24.8 3.74 19.65 1421 0.5 0.1 0.3 0.5 0.1 0.3 1.5 0.5 0.3 1.7 0 0 1.7 0 0 0 0 0 0 0 0 0 0 0 1.5 0 0.11
51.054 8.66 -3.41 -16.23 -18.75 -8.81 5.19 0 0 145 1 0 0 0 0 42 6.02 7.2 29.27 1421 0.5 0.1 0.3 0.5 0.1 0.3 1.5 0.5 0.3 1.7 0 0 1.7 0 0 0 0 0 0 0 0 0 0 0 1.5 0 0.11
51.154 5.64 -4.3 -15.36 -50.19 -3.19 4.44 0 0 0 1 0 0 0 0 41 45.94 -7.85 27.62 1419 0.5 0.1 0.3 0.5 0.1 0.3 1.5 0.5 0.3 1.7 0 0 1.7 0 0 0 0 0 0 0 0 0 0 0 1.5 0 0.11
51.254 2.88 -4.97 -14.03 -12.63 -7 12.88 0 0 170 1 0 0 0 0 42 7.85 6.57 26.75 1421 0.5 0.1 0.3 0.5 0.1 0.3 1.5 0.5 0.3 1.7 0 0 1.7 0 0 0 0 0 0 0 0 0 0 0 1.5 0 0.11
51.354 3.43 -5.23 -12.41 39.31 -8.06 18.81 0 0 0 2 0 0 0 0 41 -17.32 4.79 22.73 1419 0.5 0.1 0.3 0.5 0.1 0.3 1.5 0.5 0.3 1.7 0 0 1.7 0 0 0 0 0 0 0 0 0 0 0 1.5 0 0.11
51.454 5.17 -4.66 -10.38 19.5 -2.94 25.25 0 0 0 2 0 0 0 0 42 -36.44 14.86 20.41 1420 0.5 0.1 0.3 0.5 0.1 0.3 1.5 0.5 0.3 1.7 0 0 1.7 0 0 0 0 0 0 0 0 0 0 0 1.5 0 0.11
51.554 4.76 -3.42 -8 -4.75 -4.12 22.19 0 0 0 3 0 0 0 0 42 -1.23 3.78 17.35 1420 0.5 0.1 0.3 0.5 0.1 0.3 1.5 0.5 0.3 1.7 0 0 1.7 0 0 0 0 0 0 0 0 0 0 0 1.5 0 0.11
51.654 1.53 -1.53 -5.45 -24.75 8.63 31.31 0 0 0 3 0 0 0 0 41 14.11 -4.7 8.97 1419 0.5 0.1 0.3 0.5 0.1 0.3 1.5 0.5 0.3 1.7 0 0 1.7 0 0 0 0 0 0 0 0 0 0 0 1.5 0 0.11
51.755 -2.12 0.13 -2.66 -35.38 6.87 29.25 0 0 0 3 0 0 0 0 39 21.27 -3.32 -17.55 1390 0.5 0.1 0.3 0.5 0.1 0.3 1.5 0.5 0.3 1.7 0 0 1.7 0 0 0 0 0 0 0 0 0 0 0 1.5 0 0.11
51.855 -3.02 0.63 0.13 -4.06 -2.5 29.31 0 0 0 3 1 0 0 0 37 3.59 3.48 -16.8 1378 0.5 0.1 0.3 0.5 0.1 0.3 1.5 0.5 0.3 1.7 0 0 1.7 0 0 0 0 0 0 0 0 0 0 0 1.5 0 0.11
51.955 -1 1.12 2.58 21 -2.5 33.75 0 0 0 3 0 0 0 0 38 -15.71 -3.29 -24.36 1380 0.5 0.1 0.3 0.5 0.1 0.3 1.5 0.5 0.3 1.7 0 0 1.7 0 0 0 0 0 0 0 0 0 0 0 1.5 0 0.11
52.055 1.2 1.33 4.88 0.37 -7.56 26.25 0 0 0 3 0 0 0 0 37 19.12 5.54 -29.39 1378 0.5 0.1 0.3 0.5 0.1 0.3 1.5 0.5 0.3 1.7 0 0 1.7 0 0 0 0 0 0 0 0 0 0 0 1.5 0 0.11
52.155 1.03 0.8 6.82 -14 -5.62 19.94 0 0 0 2 1 0 0 0 37 2.74 0.14 -23.2 1379 0.5 0.1 0.3 0.5 0.1 0.3 1.5 0.5 0.3 1.7 0 0 1.7 0 0 0 0 0 0 0 0 0 0 0 1.5 0 0.11
52.255 0.13 0.75 8.54 -15.5 2.31 21.75 0 0 0 3 0 0 0 0 37 17.55 -3.04 -5.91 1379 0.5 0.1 0.3 0.5 0.1 0.3 1.5 0.5 0.3 1.7 0 0 1.7 0 0 0 0 0 0 0 0 0 0 0 1.5 0 0.11
52.356 -0.76 1.21 10.25 -7.94 6.75 22.81 0 0 0 2 0 0 0 0 37 2.25 -4.67 -3.58 1379 0.5 0.1 0.3 0.5 0.1 0.3 1.5 0.5 0.3 1.7 0 0 1.7 0 0 0 0 0 0 0 0 0 0 0 1.5 0 0.11
52.456 -0.66 1.43 12.21 2.62 0 16.75 0 0 0 2 0 0 0 0 37 4.92 3.43 -4.36 1379 0.5 0.1 0.3 0.5 0.1 0.3 1.5 0.5 0.3 1.7 0 0 1.7 0 0 0 0 0 0 0 0 0 0 0 1.5 0 0.11
52.556 -0.11 1.05 14.27 -0.25 -6.06 24.62 0 0 0 2 0 0 0 0 37 2.26 3.05 -0.72 1379 0.5 0.1 0.3 0.5 0.1 0.3 1.5 0.5 0.3 1.7 0 0 1.7 0 0 0 0 0 0 0 0 0 0 0 1.5 0 0.11
52.656 0.15 0.59 16.45 3.5 -4.31 18.56 0 0 0 4 0 0 0 0 37 8.04 -0.69 -6.81 1379 0.5 0.1 0.3 0.5 0.1 0.3 1.5 0.5 0.3 1.7 0 0 1.7 0 0 0 0 0 0 0 0 0 0 0 1.5 0 0.11
52.756 0.21 0.82 18.65 -4.12 7.12 27 0 0 0 6 0 0 0 0 37 5.52 -5.81 -8.99 1379 0.5 0.1 0.3 0.5 0.1 0.3 1.5 0.5 0.3 1.7 0 0 1.7 0 0 0 0 0 0 0 0 0 0 0 1.5 0 0.11
52.856 0.67 1.58 20.84 11.88 10 23.69 0 0 0 5 1 0 0 0 37 -1.28 -3.25 -15.74 1379 0.5 0.1 0.3 0.5 0.1 0.3 1.5 0.5 0.3 1.7 0 0 1.7 0 0 0 0 0 0 0 0 0 0 0 1.5 0 0.11
52.956 0.83 1.55 22.84 -0.5 -4.87 13.38 0 0 0 6 2 0 0 0 37 5.48 3.94 -24.31 1377 0.5 0.1 0.3 0.5 0.1 0.3 1.5 0.5 0.3 1.7 0 0 1.7 0 0 0 0 0 0 0 0 0 0 0 1.5 0 0.11
53.056 0.67 1.09 24.53 -6.19 -0.31 17.12 0 0 0 8 0 0 0 0 37 8.37 -0.26 1.1 1379 0.5 0.1 0.3 0.5 0.1 0.3 1.5 0.5 0.3 1.7 0 0 1.7 0 0 0 0 0 0 0 0 0 0 0 1.5 0 0.11
53.156 0.89 1.1 26.16 -1 2.06 17.37 0 0 0 5 0 0 0 0 37 3.5 -3.05 2.22 1379 0.5 0.1 0.3 0.5 0.1 0.3 1.5 0.5 0.3 1.7 0 0 1.7 0 0 0 0 0 0 0 0 0 0 0 1.5 0 0.11
53.256 1.69 1.27 28.08 10.81 2.25 17 0 0 0 7 0 0 0 0 37 0.95 -1.78 -11.87 1379 0.5 0.1 0.3 0.5 0.1 0.3 1.5 0.5 0.3 1.7 0 0 1.7 0 0 0 0 0 0 0 0 0 0 0 1.5 0 0.11
53.356 2.32 1.1 30.07 -0.88 -0.94 24.12 0 0 0 6 0 0 0 0 38 5.2 0.58 -12.65 1380 0.5 0.1 0.3 0.5 0.1 0.3 1.5 0.5 0.3 1.7 0 0 1.7 0 0 0 0 0 0 0 0 0 0 0 1.5 0 0.11
53.456 2.59 0.68 31.82 0.75 -5.62 18.94 0 0 0 5 0 0 0 0 37 -3.49 -0.48 -7.03 1379 0.5 0.1 0.3 0.5 0.1 0.3 1.5 0.5 0.3 1.7 0 0 1.7 0 0 0 0 0 0 0 0 0 0 0 1.5 0 0.11
53.556 2.88 0.81 33.63 6.87 4 18.62 0 0 0 2 -3 0 0 0 38 0.74 -5.6 -21.73 1380 0.5 0.1 0.3 0.5 0.1 0.3 1.5 0.5 0.3 1.7 0 0 1.7 0 0 0 0 0 0 0 0 0 0 0 1.5 0 0.11
53.656 2.23 1.09 35.32 -9.25 6.12 5.62 0 0 0 1 -11 0 0 0 37 13.1 -11.08 -25.98 1379 0.5 0.1 0.3 0.5 0.1 0.3 1.5 0.5 0.3 1.7 0 0 1.7 0 0 0 0 0 0 0 0 0 0 0 1.5 0 0.11
53.756 0.45 0.19 36.71 -11.13 -11.75 9.44 0 0 0 2 -17 0 0 0 38 15.1 -5.27 -35.15 1380 0.5 0.1 0.3 0.5 0.1 0.3 1.5 0.5 0.3 1.7 0 0 1.7 0 0 0 0 0 0 0 0 0 0 0 1.5 0 0.11
53.856 -0.93 -2.21 37.73 -5.94 -32.06 12.88 0 0 0 2 -16 0 0 0 38 12.85 7.46 -33.9 1380 0.5 0.1 0.3 0.5 0.1 0.3 1.5 0.5 0.3 1.7 0 0 1.7 0 0 0 0 0 0 0 0 0 0 0 1.5 0 0.11
53.956 -0.96 -5.16 38.46 -4.94 -26.94 14.06 0 0 0 3 -17 0 0 0 38 11.54 3.16 -26.91 1380 0.5 0.1 0.3 0.5 0.1 0.3 1.5 0.5 0.3 1.7 0 0 1.7 0 0 0 0 0 0 0 0 0 0 0 1.5 0 0.11
54.056 -0.09 -6.98 38.95 -3.25 -16.25 7.31 0 0 0 2 -7 0 0 0 38 19 21.54 -23.69 1380 0.5 0.1 0.3 0.5 0.1 0.3 1.5 0.5 0.3 1.7 0 0 1.7 0 0 0 0 0 0 0 0 0 0 0 1.5 0 0.11
54.156 0.83 -6.97 39.37 14 5.81 2.69 0 0 0 1 5 0 0 0 39 -7.61 -1.42 -23.33 1393 0.5 0.1 0.3 0.5 0.1 0.3 1.5 0.5 0.3 1.7 0 0 1.7 0 0 0 0 0 0 0 0 0 0 0 1.5 0 0.11
54.256 1.61 -4.48 39.83 9.06 26.06 7.5 0 0 0 1 21 0 0 0 39 3.88 2.48 -25.35 1392 0.5 0.1 0.3 0.5 0.1 0.3 1.5 0.5 0.3 1.7 0 0 1.7 0 0 0 0 0 0 0 0 0 0 0 1.5 0 0.11
54.356 0.91 -0.82 40.23 -10.44 41.19 6.31 0 0 0 2 27 0 0 0 39 12.03 0.74 -24.87 1392 0.5 0.1 0.3 0.5 0.1 0.3 1.5 0.5 0.3 1.7 0 0 1.7 0 0 0 0 0 0 0 0 0 0 0 1.5 0 0.11
54.456 -0.97 3.94 40.66 -32.38 49.25 2.56 0 0 0 2 19 0 0 0 39 16.21 -17 -21.84 1392 0.5 0.1 0.3 0.5 0.1 0.3 1.5 0.5 0.3 1.7 0 0 1.7 0 0 0 0 0 0 0 0 0 0 0 1.5 0 0.11
54.556 -2.15 8.6 41.07 -8 45.88 -2.81 0 0 0 7 7 0 0 0 39 9.99 -31.28 1.16 1391 0.5 0.1 0.3 0.5 0.1 0.3 1.5 0.5 0.3 1.7 0 0 1.7 0 0 0 0 0 0 0 0 0 0 0 1.5 0 0.11
54.658 -1.22 9.31 41.68 24.56 -16.56 7.62 0 0 0 16 6 0 0 0 39 4.78 14.96 -15.46 1392 0.5 0.1 0.3 0.5 0.1 0.3 1.5 0.5 0.3 1.7 0 0 1.7 0 0 0 0 0 0 0 0 0 0 0 1.5 0 0.11
54.756 1.1 5.27 42.34 27.69 -42.69 -3.62 0 0 0 30 5 0 0 0 39 2.35 26.35 -27.4 1392 0.5 0.1 0.3 0.5 0.1 0.3 1.5 0.5 0.3 1.7 0 0 1.7 0 0 0 0 0 0 0 0 0 0 0 1.5 0 0.11
54.856 4.81 1.75 42.79 55.81 -6.94 -5.62 0 0 0 29 6 0 0 0 39 -9.6 -1.33 -23.07 1393 0.5 0.1 0.3 0.5 0.1 0.3 1.5 0.5 0.3 1.7 0 0 1.7 0 0 0 0 0 0 0 0 0 0 0 1.5 0 0.11
54.956 8.57 2.68 43.12 50 30.37 7.06 0 0 0 33 2 0 0 0 39 -1.83 -15.18 -30.93 1392 0.5 0.1 0.3 0.5 0.1 0.3 1.5 0.5 0.3 1.7 0 0 1.7 0 0 0 0 0 0 0 0 0 0 0 1.5 0 0.11
55.056 11.05 4.64 43.31 19.81 8.94 2.87 0 0 0 38 0 0 0 0 39 27.1 -11.22 -25.81 1391 0.5 0.1 0.3 0.5 0.1 0.3 1.5 0.5 0.3 1.7 0 0 1.7 0 0 0 0 0 0 0 0 0 0 0 1.5 0 0.11
55.156 12.4 4.24 43.23 17 -14.88 -7.75 0 0 0 38 1 0 0 0 39 4.37 8.66 -16.68 1392 0.5 0.1 0.3 0.5 0.1 0.3 1.5 0.5 0.3 1.7 0 0 1.7 0 0 0 0 0 0 0 0 0 0 0 1.5 0 0.11
55.256 15.33 1.82 43.08 50.25 -16.44 -8 0 0 0 35 3 0 0 0 39 -21.03 12.93 -9.52 1393 0.5 0.1 0.3 0.5 0.1 0.3 1.5 0.5 0.3 1.7 0 0 1.7 0 0 0 0 0 0 0 0 0 0 0 1.5 0 0.11
55.356 18.49 0.09 43.1 44.25 -1.81 -6.37 0 0 0 15 13 0 0 0 39 -11.34 9.67 -18.69 1393 0.5 0.1 0.3 0.5 0.1 0.3 1.5 0.5 0.3 1.7 0 0 1.7 0 0 0 0 0 0 0 0 0 0 0 1.5 0 0.11
55.456 17.83 1.02 43.52 -21.62 30.69 8 0 0 0 4 25 0 0 0 39 29.14 4.15 -33.81 1393 0.5 0.1 0.3 0.5 0.1 0.3 1.5 0.5 0.3 1.7 0 0 1.7 0 0 0 0 0 0 0 0 0 0 0 1.5 0 0.11
55.456 17.83 1.02 43.52 -21.62 30.69 8 0 0 0 4 25 0 0 0 39 29.14 4.15 -33.81 1393 0.5 0.1 0.3 0.5 0.1 0.3 1.5 0.5 0.3 1.7 0 0 1.7 0 0 0 0 0 0 0 0 0 0 0 1.5 0 0.11
55.456 17.83 1.02 43.52 -21.62 30.69 8 0 0 0 4 25 0 0 0 39 29.14 4.15 -33.81 1393 0.5 0.1 0.3 0.5 0.1 0.3 1.5 0.5 0.3 1.7 0 0 1.7 0 0 0 0 0 0 0 0 0 0 0 1.5 0 0.11
55.456 17.83 1.02 43.52 -21.62 30.69 8 0 0 0 4 25 0 0 0 39 29.14 4.15 -33.81 1393 0.5 0.1 0.3 0.5 0.1 0.3 1.5 0.5 0.3 1.7 0 0 1.7 0 0 0 0 0 0 0 0 0 0 0 1.5 0 0.11
55.456 17.83 1.02 43.52 -21.62 30.69 8 0 0 0 4 25 0 0 0 39 29.14 4.15 -33.81 1393 0.5 0.1 0.3 0.5 0.1 0.3 1.5 0.5 0.3 1.7 0 0 1.7 0 0 0 0 0 0 0 0 0 0 0 1.5 0 0.11
55.456 17.83 1.02 43.52 -21.62 30.69 8 0 0 0 4 25 0 0 0 39 29.14 4.15 -33.81 1393 0.5 0.1 0.3 0.5 0.1 0.3 1.5 0.5 0.3 1.7 0 0 1.7 0 0 0 0 0 0 0 0 0 0 0 1.5 0 0.11
55.456 17.83 1.02 43.52 -21.62 30.69 8 0 0 0 4 25 0 0 0 39 29.14 4.15 -33.81 1393 0.5 0.1 0.3 0.5 0.1 0.3 1.5 0.5 0.3 1.7 0 0 1.7 0 0 0 0 0 0 0 0 0 0 0 1.5 0 0.11
55.456 17.83 1.02 43.52 -21.62 30.69 8 0 0 0 4 25 0 0 0 39 29.14 4.15 -33.81 1393 0.5 0.1 0.3 0.5 0.1 0.3 1.5 0.5 0.3 1.7 0 0 1.7 0 0 0 0 0 0 0 0 0 0 0 1.5 0 0.11
55.456 17.83 1.02 43.52 -21.62 30.69 8 0 0 0 4 25 0 0 0 39 29.14 4.15 -33.81 1393 0.5 0.1 0.3 0.5 0.1 0.3 1.5 0.5 0.3 1.7 0 0 1.7 0 0 0 0 0 0 0 0 0 0 0 1.5 0 0.11
55.456 17.83 1.02 43.52 -21.62 30.69 8 0 0 0 4 25 0 0 0 39 29.14 4.15 -33.81 1393 0.5 0.1 0.3 0.5 0.1 0.3 1.5 0.5 0.3 1.7 0 0 1.7 0 0 0 0 0 0 0 0 0 0 0 1.5 0 0.11
55.456 17.83 1.02 43.52 -21.62 30.69 8 0 0 0 4 25 0 0 0 39 29.14 4.15 -33.81 1393 0.5 0.1 0.3 0.5 0.1 0.3 1.5 0.5 0.3 1.7 0 0 1.7 0 0 0 0 0 0 0 0 0 0 0 1.5 0 0.11
