time roll pitch yaw roll_d pitch_d yaw_d longitude latitude height roll_t pitch_t yaw_t longitude_t latitude_t height_t roll_signal pitch_signal yaw_signal throttle Kp_r_d Ki_r_d Kd_r_d Kp_p_d Ki_p_d Kd_p_d Kp_y_d Ki_y_d Kd_y_d Kp_r Ki_r Kd_r Kp_p Ki_p Kd_p Kp_y Ki_y Kd_y Kp_lon Ki_lon Kd_lon Kp_lat Ki_lat Kd_lat Kp_h Ki_h Kd_h
0 0 0 0 0 0 0 0 0 0 0 0 0 0 0 25 0 0 0 1250 0.5 0.1 0.3 0.5 0.1 0.3 1.5 0.5 0.3 1.7 0 0 1.7 0 0 0 0 0 0 0 0 0 0 0 1.5 0 0.11
0 0 0 0 0 0 0 0 0 0 0 0 0 0 0 25 0 0 0 1250 0.5 0.1 0.3 0.5 0.1 0.3 1.5 0.5 0.3 1.7 0 0 1.7 0 0 0 0 0 0 0 0 0 0 0 1.5 0 0.11
0 0 0 0 0 0 0 0 0 0 0 0 0 0 0 25 0 0 0 1250 0.5 0.1 0.3 0.5 0.1 0.3 1.5 0.5 0.3 1.7 0 0 1.7 0 0 0 0 0 0 0 0 0 0 0 1.5 0 0.11
0 0 0 0 0 0 0 0 0 0 0 0 0 0 0 25 0 0 0 1250 0.5 0.1 0.3 0.5 0.1 0.3 1.5 0.5 0.3 1.7 0 0 1.7 0 0 0 0 0 0 0 0 0 0 0 1.5 0 0.11
0 0 0 0 0 0 0 0 0 0 0 0 0 0 0 25 0 0 0 1250 0.5 0.1 0.3 0.5 0.1 0.3 1.5 0.5 0.3 1.7 0 0 1.7 0 0 0 0 0 0 0 0 0 0 0 1.5 0 0.11
0 0 0 0 0 0 0 0 0 0 0 0 0 0 0 25 0 0 0 1250 0.5 0.1 0.3 0.5 0.1 0.3 1.5 0.5 0.3 1.7 0 0 1.7 0 0 0 0 0 0 0 0 0 0 0 1.5 0 0.11
0 0 0 0 0 0 0 0 0 0 0 0 0 0 0 25 0 0 0 1250 0.5 0.1 0.3 0.5 0.1 0.3 1.5 0.5 0.3 1.7 0 0 1.7 0 0 0 0 0 0 0 0 0 0 0 1.5 0 0.11
0 0 0 0 0 0 0 0 0 0 0 0 0 0 0 25 0 0 0 1250 0.5 0.1 0.3 0.5 0.1 0.3 1.5 0.5 0.3 1.7 0 0 1.7 0 0 0 0 0 0 0 0 0 0 0 1.5 0 0.11
0 0 0 0 0 0 0 0 0 0 0 0 0 0 0 25 0 0 0 1250 0.5 0.1 0.3 0.5 0.1 0.3 1.5 0.5 0.3 1.7 0 0 1.7 0 0 0 0 0 0 0 0 0 0 0 1.5 0 0.11
0 0 0 0 0 0 0 0 0 0 0 0 0 0 0 25 0 0 0 1250 0.5 0.1 0.3 0.5 0.1 0.3 1.5 0.5 0.3 1.7 0 0 1.7 0 0 0 0 0 0 0 0 0 0 0 1.5 0 0.11
0 0 0 0 0 0 0 0 0 0 0 0 0 0 0 25 0 0 0 1250 0.5 0.1 0.3 0.5 0.1 0.3 1.5 0.5 0.3 1.7 0 0 1.7 0 0 0 0 0 0 0 0 0 0 0 1.5 0 0.11
0 0 0 0 0 0 0 0 0 0 0 0 0 0 0 25 0 0 0 1250 0.5 0.1 0.3 0.5 0.1 0.3 1.5 0.5 0.3 1.7 0 0 1.7 0 0 0 0 0 0 0 0 0 0 0 1.5 0 0.11
0 0 0 0 0 0 0 0 0 0 0 0 0 0 0 25 0 0 0 1250 0.5 0.1 0.3 0.5 0.1 0.3 1.5 0.5 0.3 1.7 0 0 1.7 0 0 0 0 0 0 0 0 0 0 0 1.5 0 0.11
0 0 0 0 0 0 0 0 0 0 0 0 0 0 0 25 0 0 0 1250 0.5 0.1 0.3 0.5 0.1 0.3 1.5 0.5 0.3 1.7 0 0 1.7 0 0 0 0 0 0 0 0 0 0 0 1.5 0 0.11
0 0 0 0 0 0 0 0 0 0 0 0 0 0 0 25 0 0 0 1250 0.5 0.1 0.3 0.5 0.1 0.3 1.5 0.5 0.3 1.7 0 0 1.7 0 0 0 0 0 0 0 0 0 0 0 1.5 0 0.11
0 0 0 0 0 0 0 0 0 0 0 0 0 0 0 25 0 0 0 1250 0.5 0.1 0.3 0.5 0.1 0.3 1.5 0.5 0.3 1.7 0 0 1.7 0 0 0 0 0 0 0 0 0 0 0 1.5 0 0.11
0 0 0 0 0 0 0 0 0 0 0 0 0 0 0 25 0 0 0 1250 0.5 0.1 0.3 0.5 0.1 0.3 1.5 0.5 0.3 1.7 0 0 1.7 0 0 0 0 0 0 0 0 0 0 0 1.5 0 0.11
0 0 0 0 0 0 0 0 0 0 0 0 0 0 0 25 0 0 0 1250 0.5 0.1 0.3 0.5 0.1 0.3 1.5 0.5 0.3 1.7 0 0 1.7 0 0 0 0 0 0 0 0 0 0 0 1.5 0 0.11
0 0 0 0 0 0 0 0 0 0 0 0 0 0 0 25 0 0 0 1250 0.5 0.1 0.3 0.5 0.1 0.3 1.5 0.5 0.3 1.7 0 0 1.7 0 0 0 0 0 0 0 0 0 0 0 1.5 0 0.11
0 0 0 0 0 0 0 0 0 0 0 0 0 0 0 25 0 0 0 1250 0.5 0.1 0.3 0.5 0.1 0.3 1.5 0.5 0.3 1.7 0 0 1.7 0 0 0 0 0 0 0 0 0 0 0 1.5 0 0.11
0 0 0 0 0 0 0 0 0 0 0 0 0 0 0 25 0 0 0 1250 0.5 0.1 0.3 0.5 0.1 0.3 1.5 0.5 0.3 1.7 0 0 1.7 0 0 0 0 0 0 0 0 0 0 0 1.5 0 0.11
0 0 0 0 0 0 0 0 0 0 0 0 0 0 0 25 0 0 0 1250 0.5 0.1 0.3 0.5 0.1 0.3 1.5 0.5 0.3 1.7 0 0 1.7 0 0 0 0 0 0 0 0 0 0 0 1.5 0 0.11
0 0 0 0 0 0 0 0 0 0 0 0 0 0 0 25 0 0 0 1250 0.5 0.1 0.3 0.5 0.1 0.3 1.5 0.5 0.3 1.7 0 0 1.7 0 0 0 0 0 0 0 0 0 0 0 1.5 0 0.11
0 0 0 0 0 0 0 0 0 0 0 0 0 0 0 25 0 0 0 1250 0.5 0.1 0.3 0.5 0.1 0.3 1.5 0.5 0.3 1.7 0 0 1.7 0 0 0 0 0 0 0 0 0 0 0 1.5 0 0.11
0 0 0 0 0 0 0 0 0 0 0 0 0 0 0 25 0 0 0 1250 0.5 0.1 0.3 0.5 0.1 0.3 1.5 0.5 0.3 1.7 0 0 1.7 0 0 0 0 0 0 0 0 0 0 0 1.5 0 0.11
0 0 0 0 0 0 0 0 0 0 0 0 0 0 0 25 0 0 0 1250 0.5 0.1 0.3 0.5 0.1 0.3 1.5 0.5 0.3 1.7 0 0 1.7 0 0 0 0 0 0 0 0 0 0 0 1.5 0 0.11
0 0 0 0 0 0 0 0 0 0 0 0 0 0 0 25 0 0 0 1250 0.5 0.1 0.3 0.5 0.1 0.3 1.5 0.5 0.3 1.7 0 0 1.7 0 0 0 0 0 0 0 0 0 0 0 1.5 0 0.11
0 0 0 0 0 0 0 0 0 0 0 0 0 0 0 25 0 0 0 1250 0.5 0.1 0.3 0.5 0.1 0.3 1.5 0.5 0.3 1.7 0 0 1.7 0 0 0 0 0 0 0 0 0 0 0 1.5 0 0.11
0 0 0 0 0 0 0 0 0 0 0 0 0 0 0 25 0 0 0 1250 0.5 0.1 0.3 0.5 0.1 0.3 1.5 0.5 0.3 1.7 0 0 1.7 0 0 0 0 0 0 0 0 0 0 0 1.5 0 0.11
0 0 0 0 0 0 0 0 0 0 0 0 0 0 0 25 0 0 0 1250 0.5 0.1 0.3 0.5 0.1 0.3 1.5 0.5 0.3 1.7 0 0 1.7 0 0 0 0 0 0 0 0 0 0 0 1.5 0 0.11
0 0 0 0 0 0 0 0 0 0 0 0 0 0 0 25 0 0 0 1250 0.5 0.1 0.3 0.5 0.1 0.3 1.5 0.5 0.3 1.7 0 0 1.7 0 0 0 0 0 0 0 0 0 0 0 1.5 0 0.11
0 0 0 0 0 0 0 0 0 0 0 0 0 0 0 25 0 0 0 1250 0.5 0.1 0.3 0.5 0.1 0.3 1.5 0.5 0.3 1.7 0 0 1.7 0 0 0 0 0 0 0 0 0 0 0 1.5 0 0.11
0 0 0 0 0 0 0 0 0 0 0 0 0 0 0 25 0 0 0 1250 0.5 0.1 0.3 0.5 0.1 0.3 1.5 0.5 0.3 1.7 0 0 1.7 0 0 0 0 0 0 0 0 0 0 0 1.5 0 0.11
0 0 0 0 0 0 0 0 0 0 0 0 0 0 0 25 0 0 0 1250 0.5 0.1 0.3 0.5 0.1 0.3 1.5 0.5 0.3 1.7 0 0 1.7 0 0 0 0 0 0 0 0 0 0 0 1.5 0 0.11
0 0 0 0 0 0 0 0 0 0 0 0 0 0 0 25 0 0 0 1250 0.5 0.1 0.3 0.5 0.1 0.3 1.5 0.5 0.3 1.7 0 0 1.7 0 0 0 0 0 0 0 0 0 0 0 1.5 0 0.11
0 0 0 0 0 0 0 0 0 0 0 0 0 0 0 25 0 0 0 1250 0.5 0.1 0.3 0.5 0.1 0.3 1.5 0.5 0.3 1.7 0 0 1.7 0 0 0 0 0 0 0 0 0 0 0 1.5 0 0.11
0 0 0 0 0 0 0 0 0 0 0 0 0 0 0 25 0 0 0 1250 0.5 0.1 0.3 0.5 0.1 0.3 1.5 0.5 0.3 1.7 0 0 1.7 0 0 0 0 0 0 0 0 0 0 0 1.5 0 0.11
0 0 0 0 0 0 0 0 0 0 0 0 0 0 0 25 0 0 0 1250 0.5 0.1 0.3 0.5 0.1 0.3 1.5 0.5 0.3 1.7 0 0 1.7 0 0 0 0 0 0 0 0 0 0 0 1.5 0 0.11
0 0 0 0 0 0 0 0 0 0 0 0 0 0 0 25 0 0 0 1250 0.5 0.1 0.3 0.5 0.1 0.3 1.5 0.5 0.3 1.7 0 0 1.7 0 0 0 0 0 0 0 0 0 0 0 1.5 0 0.11
0 0 0 0 0 0 0 0 0 0 0 0 0 0 0 25 0 0 0 1250 0.5 0.1 0.3 0.5 0.1 0.3 1.5 0.5 0.3 1.7 0 0 1.7 0 0 0 0 0 0 0 0 0 0 0 1.5 0 0.11
0 0 0 0 0 0 0 0 0 0 0 0 0 0 0 25 0 0 0 1250 0.5 0.1 0.3 0.5 0.1 0.3 1.5 0.5 0.3 1.7 0 0 1.7 0 0 0 0 0 0 0 0 0 0 0 1.5 0 0.11
0 0 0 0 0 0 0 0 0 0 0 0 0 0 0 25 0 0 0 1250 0.5 0.1 0.3 0.5 0.1 0.3 1.5 0.5 0.3 1.7 0 0 1.7 0 0 0 0 0 0 0 0 0 0 0 1.5 0 0.11
0 0 0 0 0 0 0 0 0 0 0 0 0 0 0 25 0 0 0 1250 0.5 0.1 0.3 0.5 0.1 0.3 1.5 0.5 0.3 1.7 0 0 1.7 0 0 0 0 0 0 0 0 0 0 0 1.5 0 0.11
0 0 0 0 0 0 0 0 0 0 0 0 0 0 0 25 0 0 0 1250 0.5 0.1 0.3 0.5 0.1 0.3 1.5 0.5 0.3 1.7 0 0 1.7 0 0 0 0 0 0 0 0 0 0 0 1.5 0 0.11
0 0 0 0 0 0 0 0 0 0 0 0 0 0 0 25 0 0 0 1250 0.5 0.1 0.3 0.5 0.1 0.3 1.5 0.5 0.3 1.7 0 0 1.7 0 0 0 0 0 0 0 0 0 0 0 1.5 0 0.11
0 0 0 0 0 0 0 0 0 0 0 0 0 0 0 25 0 0 0 1250 0.5 0.1 0.3 0.5 0.1 0.3 1.5 0.5 0.3 1.7 0 0 1.7 0 0 0 0 0 0 0 0 0 0 0 1.5 0 0.11
0 0 0 0 0 0 0 0 0 0 0 0 0 0 0 25 0 0 0 1250 0.5 0.1 0.3 0.5 0.1 0.3 1.5 0.5 0.3 1.7 0 0 1.7 0 0 0 0 0 0 0 0 0 0 0 1.5 0 0.11
0 0 0 0 0 0 0 0 0 0 0 0 0 0 0 25 0 0 0 1250 0.5 0.1 0.3 0.5 0.1 0.3 1.5 0.5 0.3 1.7 0 0 1.7 0 0 0 0 0 0 0 0 0 0 0 1.5 0 0.11
0 0 0 0 0 0 0 0 0 0 0 0 0 0 0 25 0 0 0 1250 0.5 0.1 0.3 0.5 0.1 0.3 1.5 0.5 0.3 1.7 0 0 1.7 0 0 0 0 0 0 0 0 0 0 0 1.5 0 0.11
0 0 0 0 0 0 0 0 0 0 0 0 0 0 0 25 0 0 0 1250 0.5 0.1 0.3 0.5 0.1 0.3 1.5 0.5 0.3 1.7 0 0 1.7 0 0 0 0 0 0 0 0 0 0 0 1.5 0 0.11
0 0 0 0 0 0 0 0 0 0 0 0 0 0 0 25 0 0 0 1250 0.5 0.1 0.3 0.5 0.1 0.3 1.5 0.5 0.3 1.7 0 0 1.7 0 0 0 0 0 0 0 0 0 0 0 1.5 0 0.11
0 0 0 0 0 0 0 0 0 0 0 0 0 0 0 25 0 0 0 1250 0.5 0.1 0.3 0.5 0.1 0.3 1.5 0.5 0.3 1.7 0 0 1.7 0 0 0 0 0 0 0 0 0 0 0 1.5 0 0.11
0 0 0 0 0 0 0 0 0 0 0 0 0 0 0 25 0 0 0 1250 0.5 0.1 0.3 0.5 0.1 0.3 1.5 0.5 0.3 1.7 0 0 1.7 0 0 0 0 0 0 0 0 0 0 0 1.5 0 0.11
0 0 0 0 0 0 0 0 0 0 0 0 0 0 0 25 0 0 0 1250 0.5 0.1 0.3 0.5 0.1 0.3 1.5 0.5 0.3 1.7 0 0 1.7 0 0 0 0 0 0 0 0 0 0 0 1.5 0 0.11
0 0 0 0 0 0 0 0 0 0 0 0 0 0 0 25 0 0 0 1250 0.5 0.1 0.3 0.5 0.1 0.3 1.5 0.5 0.3 1.7 0 0 1.7 0 0 0 0 0 0 0 0 0 0 0 1.5 0 0.11
0 0 0 0 0 0 0 0 0 0 0 0 0 0 0 25 0 0 0 1250 0.5 0.1 0.3 0.5 0.1 0.3 1.5 0.5 0.3 1.7 0 0 1.7 0 0 0 0 0 0 0 0 0 0 0 1.5 0 0.11
0 0 0 0 0 0 0 0 0 0 0 0 0 0 0 25 0 0 0 1250 0.5 0.1 0.3 0.5 0.1 0.3 1.5 0.5 0.3 1.7 0 0 1.7 0 0 0 0 0 0 0 0 0 0 0 1.5 0 0.11
0 0 0 0 0 0 0 0 0 0 0 0 0 0 0 25 0 0 0 1250 0.5 0.1 0.3 0.5 0.1 0.3 1.5 0.5 0.3 1.7 0 0 1.7 0 0 0 0 0 0 0 0 0 0 0 1.5 0 0.11
0 0 0 0 0 0 0 0 0 0 0 0 0 0 0 25 0 0 0 1250 0.5 0.1 0.3 0.5 0.1 0.3 1.5 0.5 0.3 1.7 0 0 1.7 0 0 0 0 0 0 0 0 0 0 0 1.5 0 0.11
0 0 0 0 0 0 0 0 0 0 0 0 0 0 0 25 0 0 0 1250 0.5 0.1 0.3 0.5 0.1 0.3 1.5 0.5 0.3 1.7 0 0 1.7 0 0 0 0 0 0 0 0 0 0 0 1.5 0 0.11
0 0 0 0 0 0 0 0 0 0 0 0 0 0 0 25 0 0 0 1250 0.5 0.1 0.3 0.5 0.1 0.3 1.5 0.5 0.3 1.7 0 0 1.7 0 0 0 0 0 0 0 0 0 0 0 1.5 0 0.11
0 0 0 0 0 0 0 0 0 0 0 0 0 0 0 25 0 0 0 1250 0.5 0.1 0.3 0.5 0.1 0.3 1.5 0.5 0.3 1.7 0 0 1.7 0 0 0 0 0 0 0 0 0 0 0 1.5 0 0.11
0 0 0 0 0 0 0 0 0 0 0 0 0 0 0 25 0 0 0 1250 0.5 0.1 0.3 0.5 0.1 0.3 1.5 0.5 0.3 1.7 0 0 1.7 0 0 0 0 0 0 0 0 0 0 0 1.5 0 0.11
0 0 0 0 0 0 0 0 0 0 0 0 0 0 0 25 0 0 0 1250 0.5 0.1 0.3 0.5 0.1 0.3 1.5 0.5 0.3 1.7 0 0 1.7 0 0 0 0 0 0 0 0 0 0 0 1.5 0 0.11
0 0 0 0 0 0 0 0 0 0 0 0 0 0 0 25 0 0 0 1250 0.5 0.1 0.3 0.5 0.1 0.3 1.5 0.5 0.3 1.7 0 0 1.7 0 0 0 0 0 0 0 0 0 0 0 1.5 0 0.11
0 0 0 0 0 0 0 0 0 0 0 0 0 0 0 25 0 0 0 1250 0.5 0.1 0.3 0.5 0.1 0.3 1.5 0.5 0.3 1.7 0 0 1.7 0 0 0 0 0 0 0 0 0 0 0 1.5 0 0.11
0 0 0 0 0 0 0 0 0 0 0 0 0 0 0 25 0 0 0 1250 0.5 0.1 0.3 0.5 0.1 0.3 1.5 0.5 0.3 1.7 0 0 1.7 0 0 0 0 0 0 0 0 0 0 0 1.5 0 0.11
0 0 0 0 0 0 0 0 0 0 0 0 0 0 0 25 0 0 0 1250 0.5 0.1 0.3 0.5 0.1 0.3 1.5 0.5 0.3 1.7 0 0 1.7 0 0 0 0 0 0 0 0 0 0 0 1.5 0 0.11
0 0 0 0 0 0 0 0 0 0 0 0 0 0 0 25 0 0 0 1250 0.5 0.1 0.3 0.5 0.1 0.3 1.5 0.5 0.3 1.7 0 0 1.7 0 0 0 0 0 0 0 0 0 0 0 1.5 0 0.11
0 0 0 0 0 0 0 0 0 0 0 0 0 0 0 25 0 0 0 1250 0.5 0.1 0.3 0.5 0.1 0.3 1.5 0.5 0.3 1.7 0 0 1.7 0 0 0 0 0 0 0 0 0 0 0 1.5 0 0.11
0 0 0 0 0 0 0 0 0 0 0 0 0 0 0 25 0 0 0 1250 0.5 0.1 0.3 0.5 0.1 0.3 1.5 0.5 0.3 1.7 0 0 1.7 0 0 0 0 0 0 0 0 0 0 0 1.5 0 0.11
0 0 0 0 0 0 0 0 0 0 0 0 0 0 0 25 0 0 0 1250 0.5 0.1 0.3 0.5 0.1 0.3 1.5 0.5 0.3 1.7 0 0 1.7 0 0 0 0 0 0 0 0 0 0 0 1.5 0 0.11
0 0 0 0 0 0 0 0 0 0 0 0 0 0 0 25 0 0 0 1250 0.5 0.1 0.3 0.5 0.1 0.3 1.5 0.5 0.3 1.7 0 0 1.7 0 0 0 0 0 0 0 0 0 0 0 1.5 0 0.11
0 0 0 0 0 0 0 0 0 0 0 0 0 0 0 25 0 0 0 1250 0.5 0.1 0.3 0.5 0.1 0.3 1.5 0.5 0.3 1.7 0 0 1.7 0 0 0 0 0 0 0 0 0 0 0 1.5 0 0.11
0 0 0 0 0 0 0 0 0 0 0 0 0 0 0 25 0 0 0 1250 0.5 0.1 0.3 0.5 0.1 0.3 1.5 0.5 0.3 1.7 0 0 1.7 0 0 0 0 0 0 0 0 0 0 0 1.5 0 0.11
0 0 0 0 0 0 0 0 0 0 0 0 0 0 0 25 0 0 0 1250 0.5 0.1 0.3 0.5 0.1 0.3 1.5 0.5 0.3 1.7 0 0 1.7 0 0 0 0 0 0 0 0 0 0 0 1.5 0 0.11
0 0 0 0 0 0 0 0 0 0 0 0 0 0 0 25 0 0 0 1250 0.5 0.1 0.3 0.5 0.1 0.3 1.5 0.5 0.3 1.7 0 0 1.7 0 0 0 0 0 0 0 0 0 0 0 1.5 0 0.11
0 0 0 0 0 0 0 0 0 0 0 0 0 0 0 25 0 0 0 1250 0.5 0.1 0.3 0.5 0.1 0.3 1.5 0.5 0.3 1.7 0 0 1.7 0 0 0 0 0 0 0 0 0 0 0 1.5 0 0.11
0 0 0 0 0 0 0 0 0 0 0 0 0 0 0 25 0 0 0 1250 0.5 0.1 0.3 0.5 0.1 0.3 1.5 0.5 0.3 1.7 0 0 1.7 0 0 0 0 0 0 0 0 0 0 0 1.5 0 0.11
0 0 0 0 0 0 0 0 0 0 0 0 0 0 0 25 0 0 0 1250 0.5 0.1 0.3 0.5 0.1 0.3 1.5 0.5 0.3 1.7 0 0 1.7 0 0 0 0 0 0 0 0 0 0 0 1.5 0 0.11
0 0 0 0 0 0 0 0 0 0 0 0 0 0 0 25 0 0 0 1250 0.5 0.1 0.3 0.5 0.1 0.3 1.5 0.5 0.3 1.7 0 0 1.7 0 0 0 0 0 0 0 0 0 0 0 1.5 0 0.11
0 0 0 0 0 0 0 0 0 0 0 0 0 0 0 25 0 0 0 1250 0.5 0.1 0.3 0.5 0.1 0.3 1.5 0.5 0.3 1.7 0 0 1.7 0 0 0 0 0 0 0 0 0 0 0 1.5 0 0.11
0 0 0 0 0 0 0 0 0 0 0 0 0 0 0 25 0 0 0 1250 0.5 0.1 0.3 0.5 0.1 0.3 1.5 0.5 0.3 1.7 0 0 1.7 0 0 0 0 0 0 0 0 0 0 0 1.5 0 0.11
0 0 0 0 0 0 0 0 0 0 0 0 0 0 0 25 0 0 0 1250 0.5 0.1 0.3 0.5 0.1 0.3 1.5 0.5 0.3 1.7 0 0 1.7 0 0 0 0 0 0 0 0 0 0 0 1.5 0 0.11
0 0 0 0 0 0 0 0 0 0 0 0 0 0 0 25 0 0 0 1250 0.5 0.1 0.3 0.5 0.1 0.3 1.5 0.5 0.3 1.7 0 0 1.7 0 0 0 0 0 0 0 0 0 0 0 1.5 0 0.11
0 0 0 0 0 0 0 0 0 0 0 0 0 0 0 25 0 0 0 1250 0.5 0.1 0.3 0.5 0.1 0.3 1.5 0.5 0.3 1.7 0 0 1.7 0 0 0 0 0 0 0 0 0 0 0 1.5 0 0.11
0 0 0 0 0 0 0 0 0 0 0 0 0 0 0 25 0 0 0 1250 0.5 0.1 0.3 0.5 0.1 0.3 1.5 0.5 0.3 1.7 0 0 1.7 0 0 0 0 0 0 0 0 0 0 0 1.5 0 0.11
0 0 0 0 0 0 0 0 0 0 0 0 0 0 0 25 0 0 0 1250 0.5 0.1 0.3 0.5 0.1 0.3 1.5 0.5 0.3 1.7 0 0 1.7 0 0 0 0 0 0 0 0 0 0 0 1.5 0 0.11
0 0 0 0 0 0 0 0 0 0 0 0 0 0 0 25 0 0 0 1250 0.5 0.1 0.3 0.5 0.1 0.3 1.5 0.5 0.3 1.7 0 0 1.7 0 0 0 0 0 0 0 0 0 0 0 1.5 0 0.11
0 0 0 0 0 0 0 0 0 0 0 0 0 0 0 25 0 0 0 1250 0.5 0.1 0.3 0.5 0.1 0.3 1.5 0.5 0.3 1.7 0 0 1.7 0 0 0 0 0 0 0 0 0 0 0 1.5 0 0.11
0 0 0 0 0 0 0 0 0 0 0 0 0 0 0 25 0 0 0 1250 0.5 0.1 0.3 0.5 0.1 0.3 1.5 0.5 0.3 1.7 0 0 1.7 0 0 0 0 0 0 0 0 0 0 0 1.5 0 0.11
0 0 0 0 0 0 0 0 0 0 0 0 0 0 0 25 0 0 0 1250 0.5 0.1 0.3 0.5 0.1 0.3 1.5 0.5 0.3 1.7 0 0 1.7 0 0 0 0 0 0 0 0 0 0 0 1.5 0 0.11
0 0 0 0 0 0 0 0 0 0 0 0 0 0 0 25 0 0 0 1250 0.5 0.1 0.3 0.5 0.1 0.3 1.5 0.5 0.3 1.7 0 0 1.7 0 0 0 0 0 0 0 0 0 0 0 1.5 0 0.11
0 0 0 0 0 0 0 0 0 0 0 0 0 0 0 25 0 0 0 1250 0.5 0.1 0.3 0.5 0.1 0.3 1.5 0.5 0.3 1.7 0 0 1.7 0 0 0 0 0 0 0 0 0 0 0 1.5 0 0.11
0 0 0 0 0 0 0 0 0 0 0 0 0 0 0 25 0 0 0 1250 0.5 0.1 0.3 0.5 0.1 0.3 1.5 0.5 0.3 1.7 0 0 1.7 0 0 0 0 0 0 0 0 0 0 0 1.5 0 0.11
0 0 0 0 0 0 0 0 0 0 0 0 0 0 0 25 0 0 0 1250 0.5 0.1 0.3 0.5 0.1 0.3 1.5 0.5 0.3 1.7 0 0 1.7 0 0 0 0 0 0 0 0 0 0 0 1.5 0 0.11
0 0 0 0 0 0 0 0 0 0 0 0 0 0 0 25 0 0 0 1250 0.5 0.1 0.3 0.5 0.1 0.3 1.5 0.5 0.3 1.7 0 0 1.7 0 0 0 0 0 0 0 0 0 0 0 1.5 0 0.11
0 0 0 0 0 0 0 0 0 0 0 0 0 0 0 25 0 0 0 1250 0.5 0.1 0.3 0.5 0.1 0.3 1.5 0.5 0.3 1.7 0 0 1.7 0 0 0 0 0 0 0 0 0 0 0 1.5 0 0.11
0 0 0 0 0 0 0 0 0 0 0 0 0 0 0 25 0 0 0 1250 0.5 0.1 0.3 0.5 0.1 0.3 1.5 0.5 0.3 1.7 0 0 1.7 0 0 0 0 0 0 0 0 0 0 0 1.5 0 0.11
0 0 0 0 0 0 0 0 0 0 0 0 0 0 0 25 0 0 0 1250 0.5 0.1 0.3 0.5 0.1 0.3 1.5 0.5 0.3 1.7 0 0 1.7 0 0 0 0 0 0 0 0 0 0 0 1.5 0 0.11
0 0 0 0 0 0 0 0 0 0 0 0 0 0 0 25 0 0 0 1250 0.5 0.1 0.3 0.5 0.1 0.3 1.5 0.5 0.3 1.7 0 0 1.7 0 0 0 0 0 0 0 0 0 0 0 1.5 0 0.11
0 0 0 0 0 0 0 0 0 0 0 0 0 0 0 25 0 0 0 1250 0.5 0.1 0.3 0.5 0.1 0.3 1.5 0.5 0.3 1.7 0 0 1.7 0 0 0 0 0 0 0 0 0 0 0 1.5 0 0.11
0 0 0 0 0 0 0 0 0 0 0 0 0 0 0 25 0 0 0 1250 0.5 0.1 0.3 0.5 0.1 0.3 1.5 0.5 0.3 1.7 0 0 1.7 0 0 0 0 0 0 0 0 0 0 0 1.5 0 0.11
0 0 0 0 0 0 0 0 0 0 0 0 0 0 0 25 0 0 0 1250 0.5 0.1 0.3 0.5 0.1 0.3 1.5 0.5 0.3 1.7 0 0 1.7 0 0 0 0 0 0 0 0 0 0 0 1.5 0 0.11
0 0 0 0 0 0 0 0 0 0 0 0 0 0 0 25 0 0 0 1250 0.5 0.1 0.3 0.5 0.1 0.3 1.5 0.5 0.3 1.7 0 0 1.7 0 0 0 0 0 0 0 0 0 0 0 1.5 0 0.11
0 0 0 0 0 0 0 0 0 0 0 0 0 0 0 25 0 0 0 1250 0.5 0.1 0.3 0.5 0.1 0.3 1.5 0.5 0.3 1.7 0 0 1.7 0 0 0 0 0 0 0 0 0 0 0 1.5 0 0.11
0 0 0 0 0 0 0 0 0 0 0 0 0 0 0 25 0 0 0 1250 0.5 0.1 0.3 0.5 0.1 0.3 1.5 0.5 0.3 1.7 0 0 1.7 0 0 0 0 0 0 0 0 0 0 0 1.5 0 0.11
0 0 0 0 0 0 0 0 0 0 0 0 0 0 0 25 0 0 0 1250 0.5 0.1 0.3 0.5 0.1 0.3 1.5 0.5 0.3 1.7 0 0 1.7 0 0 0 0 0 0 0 0 0 0 0 1.5 0 0.11
0 0 0 0 0 0 0 0 0 0 0 0 0 0 0 25 0 0 0 1250 0.5 0.1 0.3 0.5 0.1 0.3 1.5 0.5 0.3 1.7 0 0 1.7 0 0 0 0 0 0 0 0 0 0 0 1.5 0 0.11
0 0 0 0 0 0 0 0 0 0 0 0 0 0 0 25 0 0 0 1250 0.5 0.1 0.3 0.5 0.1 0.3 1.5 0.5 0.3 1.7 0 0 1.7 0 0 0 0 0 0 0 0 0 0 0 1.5 0 0.11
0 0 0 0 0 0 0 0 0 0 0 0 0 0 0 25 0 0 0 1250 0.5 0.1 0.3 0.5 0.1 0.3 1.5 0.5 0.3 1.7 0 0 1.7 0 0 0 0 0 0 0 0 0 0 0 1.5 0 0.11
0 0 0 0 0 0 0 0 0 0 0 0 0 0 0 25 0 0 0 1250 0.5 0.1 0.3 0.5 0.1 0.3 1.5 0.5 0.3 1.7 0 0 1.7 0 0 0 0 0 0 0 0 0 0 0 1.5 0 0.11
0 0 0 0 0 0 0 0 0 0 0 0 0 0 0 25 0 0 0 1250 0.5 0.1 0.3 0.5 0.1 0.3 1.5 0.5 0.3 1.7 0 0 1.7 0 0 0 0 0 0 0 0 0 0 0 1.5 0 0.11
0 0 0 0 0 0 0 0 0 0 0 0 0 0 0 25 0 0 0 1250 0.5 0.1 0.3 0.5 0.1 0.3 1.5 0.5 0.3 1.7 0 0 1.7 0 0 0 0 0 0 0 0 0 0 0 1.5 0 0.11
0 0 0 0 0 0 0 0 0 0 0 0 0 0 0 25 0 0 0 1250 0.5 0.1 0.3 0.5 0.1 0.3 1.5 0.5 0.3 1.7 0 0 1.7 0 0 0 0 0 0 0 0 0 0 0 1.5 0 0.11
0 0 0 0 0 0 0 0 0 0 0 0 0 0 0 25 0 0 0 1250 0.5 0.1 0.3 0.5 0.1 0.3 1.5 0.5 0.3 1.7 0 0 1.7 0 0 0 0 0 0 0 0 0 0 0 1.5 0 0.11
0 0 0 0 0 0 0 0 0 0 0 0 0 0 0 25 0 0 0 1250 0.5 0.1 0.3 0.5 0.1 0.3 1.5 0.5 0.3 1.7 0 0 1.7 0 0 0 0 0 0 0 0 0 0 0 1.5 0 0.11
0 0 0 0 0 0 0 0 0 0 0 0 0 0 0 25 0 0 0 1250 0.5 0.1 0.3 0.5 0.1 0.3 1.5 0.5 0.3 1.7 0 0 1.7 0 0 0 0 0 0 0 0 0 0 0 1.5 0 0.11
0 0 0 0 0 0 0 0 0 0 0 0 0 0 0 25 0 0 0 1250 0.5 0.1 0.3 0.5 0.1 0.3 1.5 0.5 0.3 1.7 0 0 1.7 0 0 0 0 0 0 0 0 0 0 0 1.5 0 0.11
0 0 0 0 0 0 0 0 0 0 0 0 0 0 0 25 0 0 0 1250 0.5 0.1 0.3 0.5 0.1 0.3 1.5 0.5 0.3 1.7 0 0 1.7 0 0 0 0 0 0 0 0 0 0 0 1.5 0 0.11
0 0 0 0 0 0 0 0 0 0 0 0 0 0 0 25 0 0 0 1250 0.5 0.1 0.3 0.5 0.1 0.3 1.5 0.5 0.3 1.7 0 0 1.7 0 0 0 0 0 0 0 0 0 0 0 1.5 0 0.11
0 0 0 0 0 0 0 0 0 0 0 0 0 0 0 25 0 0 0 1250 0.5 0.1 0.3 0.5 0.1 0.3 1.5 0.5 0.3 1.7 0 0 1.7 0 0 0 0 0 0 0 0 0 0 0 1.5 0 0.11
0 0 0 0 0 0 0 0 0 0 0 0 0 0 0 25 0 0 0 1250 0.5 0.1 0.3 0.5 0.1 0.3 1.5 0.5 0.3 1.7 0 0 1.7 0 0 0 0 0 0 0 0 0 0 0 1.5 0 0.11
0 0 0 0 0 0 0 0 0 0 0 0 0 0 0 25 0 0 0 1250 0.5 0.1 0.3 0.5 0.1 0.3 1.5 0.5 0.3 1.7 0 0 1.7 0 0 0 0 0 0 0 0 0 0 0 1.5 0 0.11
0 0 0 0 0 0 0 0 0 0 0 0 0 0 0 25 0 0 0 1250 0.5 0.1 0.3 0.5 0.1 0.3 1.5 0.5 0.3 1.7 0 0 1.7 0 0 0 0 0 0 0 0 0 0 0 1.5 0 0.11
0 0 0 0 0 0 0 0 0 0 0 0 0 0 0 25 0 0 0 1250 0.5 0.1 0.3 0.5 0.1 0.3 1.5 0.5 0.3 1.7 0 0 1.7 0 0 0 0 0 0 0 0 0 0 0 1.5 0 0.11
0 0 0 0 0 0 0 0 0 0 0 0 0 0 0 25 0 0 0 1250 0.5 0.1 0.3 0.5 0.1 0.3 1.5 0.5 0.3 1.7 0 0 1.7 0 0 0 0 0 0 0 0 0 0 0 1.5 0 0.11
0 0 0 0 0 0 0 0 0 0 0 0 0 0 0 25 0 0 0 1250 0.5 0.1 0.3 0.5 0.1 0.3 1.5 0.5 0.3 1.7 0 0 1.7 0 0 0 0 0 0 0 0 0 0 0 1.5 0 0.11
0 0 0 0 0 0 0 0 0 0 0 0 0 0 0 25 0 0 0 1250 0.5 0.1 0.3 0.5 0.1 0.3 1.5 0.5 0.3 1.7 0 0 1.7 0 0 0 0 0 0 0 0 0 0 0 1.5 0 0.11
0 0 0 0 0 0 0 0 0 0 0 0 0 0 0 25 0 0 0 1250 0.5 0.1 0.3 0.5 0.1 0.3 1.5 0.5 0.3 1.7 0 0 1.7 0 0 0 0 0 0 0 0 0 0 0 1.5 0 0.11
0 0 0 0 0 0 0 0 0 0 0 0 0 0 0 25 0 0 0 1250 0.5 0.1 0.3 0.5 0.1 0.3 1.5 0.5 0.3 1.7 0 0 1.7 0 0 0 0 0 0 0 0 0 0 0 1.5 0 0.11
0 0 0 0 0 0 0 0 0 0 0 0 0 0 0 25 0 0 0 1250 0.5 0.1 0.3 0.5 0.1 0.3 1.5 0.5 0.3 1.7 0 0 1.7 0 0 0 0 0 0 0 0 0 0 0 1.5 0 0.11
0 0 0 0 0 0 0 0 0 0 0 0 0 0 0 25 0 0 0 1250 0.5 0.1 0.3 0.5 0.1 0.3 1.5 0.5 0.3 1.7 0 0 1.7 0 0 0 0 0 0 0 0 0 0 0 1.5 0 0.11
0 0 0 0 0 0 0 0 0 0 0 0 0 0 0 25 0 0 0 1250 0.5 0.1 0.3 0.5 0.1 0.3 1.5 0.5 0.3 1.7 0 0 1.7 0 0 0 0 0 0 0 0 0 0 0 1.5 0 0.11
0 0 0 0 0 0 0 0 0 0 0 0 0 0 0 25 0 0 0 1250 0.5 0.1 0.3 0.5 0.1 0.3 1.5 0.5 0.3 1.7 0 0 1.7 0 0 0 0 0 0 0 0 0 0 0 1.5 0 0.11
0 0 0 0 0 0 0 0 0 0 0 0 0 0 0 25 0 0 0 1250 0.5 0.1 0.3 0.5 0.1 0.3 1.5 0.5 0.3 1.7 0 0 1.7 0 0 0 0 0 0 0 0 0 0 0 1.5 0 0.11
0 0 0 0 0 0 0 0 0 0 0 0 0 0 0 25 0 0 0 1250 0.5 0.1 0.3 0.5 0.1 0.3 1.5 0.5 0.3 1.7 0 0 1.7 0 0 0 0 0 0 0 0 0 0 0 1.5 0 0.11
0 0 0 0 0 0 0 0 0 0 0 0 0 0 0 25 0 0 0 1250 0.5 0.1 0.3 0.5 0.1 0.3 1.5 0.5 0.3 1.7 0 0 1.7 0 0 0 0 0 0 0 0 0 0 0 1.5 0 0.11
0 0 0 0 0 0 0 0 0 0 0 0 0 0 0 25 0 0 0 1250 0.5 0.1 0.3 0.5 0.1 0.3 1.5 0.5 0.3 1.7 0 0 1.7 0 0 0 0 0 0 0 0 0 0 0 1.5 0 0.11
0 0 0 0 0 0 0 0 0 0 0 0 0 0 0 25 0 0 0 1250 0.5 0.1 0.3 0.5 0.1 0.3 1.5 0.5 0.3 1.7 0 0 1.7 0 0 0 0 0 0 0 0 0 0 0 1.5 0 0.11
0 0 0 0 0 0 0 0 0 0 0 0 0 0 0 25 0 0 0 1250 0.5 0.1 0.3 0.5 0.1 0.3 1.5 0.5 0.3 1.7 0 0 1.7 0 0 0 0 0 0 0 0 0 0 0 1.5 0 0.11
0 0 0 0 0 0 0 0 0 0 0 0 0 0 0 25 0 0 0 1250 0.5 0.1 0.3 0.5 0.1 0.3 1.5 0.5 0.3 1.7 0 0 1.7 0 0 0 0 0 0 0 0 0 0 0 1.5 0 0.11
0 0 0 0 0 0 0 0 0 0 0 0 0 0 0 25 0 0 0 1250 0.5 0.1 0.3 0.5 0.1 0.3 1.5 0.5 0.3 1.7 0 0 1.7 0 0 0 0 0 0 0 0 0 0 0 1.5 0 0.11
0 0 0 0 0 0 0 0 0 0 0 0 0 0 0 25 0 0 0 1250 0.5 0.1 0.3 0.5 0.1 0.3 1.5 0.5 0.3 1.7 0 0 1.7 0 0 0 0 0 0 0 0 0 0 0 1.5 0 0.11
0 0 0 0 0 0 0 0 0 0 0 0 0 0 0 25 0 0 0 1250 0.5 0.1 0.3 0.5 0.1 0.3 1.5 0.5 0.3 1.7 0 0 1.7 0 0 0 0 0 0 0 0 0 0 0 1.5 0 0.11
0 0 0 0 0 0 0 0 0 0 0 0 0 0 0 25 0 0 0 1250 0.5 0.1 0.3 0.5 0.1 0.3 1.5 0.5 0.3 1.7 0 0 1.7 0 0 0 0 0 0 0 0 0 0 0 1.5 0 0.11
0 0 0 0 0 0 0 0 0 0 0 0 0 0 0 25 0 0 0 1250 0.5 0.1 0.3 0.5 0.1 0.3 1.5 0.5 0.3 1.7 0 0 1.7 0 0 0 0 0 0 0 0 0 0 0 1.5 0 0.11
0 0 0 0 0 0 0 0 0 0 0 0 0 0 0 25 0 0 0 1250 0.5 0.1 0.3 0.5 0.1 0.3 1.5 0.5 0.3 1.7 0 0 1.7 0 0 0 0 0 0 0 0 0 0 0 1.5 0 0.11
0 0 0 0 0 0 0 0 0 0 0 0 0 0 0 25 0 0 0 1250 0.5 0.1 0.3 0.5 0.1 0.3 1.5 0.5 0.3 1.7 0 0 1.7 0 0 0 0 0 0 0 0 0 0 0 1.5 0 0.11
0 0 0 0 0 0 0 0 0 0 0 0 0 0 0 25 0 0 0 1250 0.5 0.1 0.3 0.5 0.1 0.3 1.5 0.5 0.3 1.7 0 0 1.7 0 0 0 0 0 0 0 0 0 0 0 1.5 0 0.11
0 0 0 0 0 0 0 0 0 0 0 0 0 0 0 25 0 0 0 1250 0.5 0.1 0.3 0.5 0.1 0.3 1.5 0.5 0.3 1.7 0 0 1.7 0 0 0 0 0 0 0 0 0 0 0 1.5 0 0.11
0 0 0 0 0 0 0 0 0 0 0 0 0 0 0 25 0 0 0 1250 0.5 0.1 0.3 0.5 0.1 0.3 1.5 0.5 0.3 1.7 0 0 1.7 0 0 0 0 0 0 0 0 0 0 0 1.5 0 0.11
0 0 0 0 0 0 0 0 0 0 0 0 0 0 0 25 0 0 0 1250 0.5 0.1 0.3 0.5 0.1 0.3 1.5 0.5 0.3 1.7 0 0 1.7 0 0 0 0 0 0 0 0 0 0 0 1.5 0 0.11
0 0 0 0 0 0 0 0 0 0 0 0 0 0 0 25 0 0 0 1250 0.5 0.1 0.3 0.5 0.1 0.3 1.5 0.5 0.3 1.7 0 0 1.7 0 0 0 0 0 0 0 0 0 0 0 1.5 0 0.11
0 0 0 0 0 0 0 0 0 0 0 0 0 0 0 25 0 0 0 1250 0.5 0.1 0.3 0.5 0.1 0.3 1.5 0.5 0.3 1.7 0 0 1.7 0 0 0 0 0 0 0 0 0 0 0 1.5 0 0.11
0 0 0 0 0 0 0 0 0 0 0 0 0 0 0 25 0 0 0 1250 0.5 0.1 0.3 0.5 0.1 0.3 1.5 0.5 0.3 1.7 0 0 1.7 0 0 0 0 0 0 0 0 0 0 0 1.5 0 0.11
0 0 0 0 0 0 0 0 0 0 0 0 0 0 0 25 0 0 0 1250 0.5 0.1 0.3 0.5 0.1 0.3 1.5 0.5 0.3 1.7 0 0 1.7 0 0 0 0 0 0 0 0 0 0 0 1.5 0 0.11
0 0 0 0 0 0 0 0 0 0 0 0 0 0 0 25 0 0 0 1250 0.5 0.1 0.3 0.5 0.1 0.3 1.5 0.5 0.3 1.7 0 0 1.7 0 0 0 0 0 0 0 0 0 0 0 1.5 0 0.11
0 0 0 0 0 0 0 0 0 0 0 0 0 0 0 25 0 0 0 1250 0.5 0.1 0.3 0.5 0.1 0.3 1.5 0.5 0.3 1.7 0 0 1.7 0 0 0 0 0 0 0 0 0 0 0 1.5 0 0.11
0 0 0 0 0 0 0 0 0 0 0 0 0 0 0 25 0 0 0 1250 0.5 0.1 0.3 0.5 0.1 0.3 1.5 0.5 0.3 1.7 0 0 1.7 0 0 0 0 0 0 0 0 0 0 0 1.5 0 0.11
0 0 0 0 0 0 0 0 0 0 0 0 0 0 0 25 0 0 0 1250 0.5 0.1 0.3 0.5 0.1 0.3 1.5 0.5 0.3 1.7 0 0 1.7 0 0 0 0 0 0 0 0 0 0 0 1.5 0 0.11
0 0 0 0 0 0 0 0 0 0 0 0 0 0 0 25 0 0 0 1250 0.5 0.1 0.3 0.5 0.1 0.3 1.5 0.5 0.3 1.7 0 0 1.7 0 0 0 0 0 0 0 0 0 0 0 1.5 0 0.11
0 0 0 0 0 0 0 0 0 0 0 0 0 0 0 25 0 0 0 1250 0.5 0.1 0.3 0.5 0.1 0.3 1.5 0.5 0.3 1.7 0 0 1.7 0 0 0 0 0 0 0 0 0 0 0 1.5 0 0.11
0 0 0 0 0 0 0 0 0 0 0 0 0 0 0 25 0 0 0 1250 0.5 0.1 0.3 0.5 0.1 0.3 1.5 0.5 0.3 1.7 0 0 1.7 0 0 0 0 0 0 0 0 0 0 0 1.5 0 0.11
0 0 0 0 0 0 0 0 0 0 0 0 0 0 0 25 0 0 0 1250 0.5 0.1 0.3 0.5 0.1 0.3 1.5 0.5 0.3 1.7 0 0 1.7 0 0 0 0 0 0 0 0 0 0 0 1.5 0 0.11
0 0 0 0 0 0 0 0 0 0 0 0 0 0 0 25 0 0 0 1250 0.5 0.1 0.3 0.5 0.1 0.3 1.5 0.5 0.3 1.7 0 0 1.7 0 0 0 0 0 0 0 0 0 0 0 1.5 0 0.11
0 0 0 0 0 0 0 0 0 0 0 0 0 0 0 25 0 0 0 1250 0.5 0.1 0.3 0.5 0.1 0.3 1.5 0.5 0.3 1.7 0 0 1.7 0 0 0 0 0 0 0 0 0 0 0 1.5 0 0.11
0 0 0 0 0 0 0 0 0 0 0 0 0 0 0 25 0 0 0 1250 0.5 0.1 0.3 0.5 0.1 0.3 1.5 0.5 0.3 1.7 0 0 1.7 0 0 0 0 0 0 0 0 0 0 0 1.5 0 0.11
0 0 0 0 0 0 0 0 0 0 0 0 0 0 0 25 0 0 0 1250 0.5 0.1 0.3 0.5 0.1 0.3 1.5 0.5 0.3 1.7 0 0 1.7 0 0 0 0 0 0 0 0 0 0 0 1.5 0 0.11
0 0 0 0 0 0 0 0 0 0 0 0 0 0 0 25 0 0 0 1250 0.5 0.1 0.3 0.5 0.1 0.3 1.5 0.5 0.3 1.7 0 0 1.7 0 0 0 0 0 0 0 0 0 0 0 1.5 0 0.11
0 0 0 0 0 0 0 0 0 0 0 0 0 0 0 25 0 0 0 1250 0.5 0.1 0.3 0.5 0.1 0.3 1.5 0.5 0.3 1.7 0 0 1.7 0 0 0 0 0 0 0 0 0 0 0 1.5 0 0.11
0 0 0 0 0 0 0 0 0 0 0 0 0 0 0 25 0 0 0 1250 0.5 0.1 0.3 0.5 0.1 0.3 1.5 0.5 0.3 1.7 0 0 1.7 0 0 0 0 0 0 0 0 0 0 0 1.5 0 0.11
6.332 1.46 0.33 -8.15 -2.56 -0.56 -1 0 0 21 0 0 0 0 0 25 0 0 0 1250 0.5 0.1 0.3 0.5 0.1 0.3 1.5 0.5 0.3 1.7 0 0 1.7 0 0 0 0 0 0 0 0 0 0 0 1.5 0 0.11
6.432 1.46 0.34 -8.27 -1.5 0.81 0.62 0 0 21 0 0 0 0 0 25 0 0 0 1250 0.5 0.1 0.3 0.5 0.1 0.3 1.5 0.5 0.3 1.7 0 0 1.7 0 0 0 0 0 0 0 0 0 0 0 1.5 0 0.11
6.532 1.44 0.34 -8.28 -1.25 1.37 -0.25 0 0 21 0 0 0 0 0 25 0 0 0 1250 0.5 0.1 0.3 0.5 0.1 0.3 1.5 0.5 0.3 1.7 0 0 1.7 0 0 0 0 0 0 0 0 0 0 0 1.5 0 0.11
6.632 1.44 0.34 -8.38 -0.44 0.25 1.25 0 0 21 0 0 0 0 0 25 0 0 0 1250 0.5 0.1 0.3 0.5 0.1 0.3 1.5 0.5 0.3 1.7 0 0 1.7 0 0 0 0 0 0 0 0 0 0 0 1.5 0 0.11
6.732 1.45 0.34 -8.44 0 -0.06 2.31 0 0 21 0 0 0 0 0 25 0 0 0 1250 0.5 0.1 0.3 0.5 0.1 0.3 1.5 0.5 0.3 1.7 0 0 1.7 0 0 0 0 0 0 0 0 0 0 0 1.5 0 0.11
6.832 1.44 0.34 -8.59 0.06 0.56 -0.44 0 0 21 0 0 0 0 0 25 0 0 0 1250 0.5 0.1 0.3 0.5 0.1 0.3 1.5 0.5 0.3 1.7 0 0 1.7 0 0 0 0 0 0 0 0 0 0 0 1.5 0 0.11
6.932 1.44 0.34 -8.67 0.31 0.5 2.31 0 0 21 0 0 0 0 0 25 0 0 0 1250 0.5 0.1 0.3 0.5 0.1 0.3 1.5 0.5 0.3 1.7 0 0 1.7 0 0 0 0 0 0 0 0 0 0 0 1.5 0 0.11
7.032 1.44 0.35 -8.71 0.37 0.62 0.81 0 0 21 0 0 0 0 0 25 0 0 0 1250 0.5 0.1 0.3 0.5 0.1 0.3 1.5 0.5 0.3 1.7 0 0 1.7 0 0 0 0 0 0 0 0 0 0 0 1.5 0 0.11
7.132 1.43 0.34 -8.79 -0.31 0.56 1.31 0 0 21 0 0 0 0 0 25 0 0 0 1250 0.5 0.1 0.3 0.5 0.1 0.3 1.5 0.5 0.3 1.7 0 0 1.7 0 0 0 0 0 0 0 0 0 0 0 1.5 0 0.11
7.232 1.42 0.33 -8.8 0.75 1.62 1.5 0 0 21 0 0 0 0 0 25 0 0 0 1250 0.5 0.1 0.3 0.5 0.1 0.3 1.5 0.5 0.3 1.7 0 0 1.7 0 0 0 0 0 0 0 0 0 0 0 1.5 0 0.11
7.332 1.42 0.33 -8.94 -1.37 -0.81 0.5 0 0 21 0 0 0 0 0 25 0 0 0 1250 0.5 0.1 0.3 0.5 0.1 0.3 1.5 0.5 0.3 1.7 0 0 1.7 0 0 0 0 0 0 0 0 0 0 0 1.5 0 0.11
7.432 1.43 0.34 -9 0.44 1.06 1.37 0 0 21 0 0 0 0 0 25 0 0 0 1250 0.5 0.1 0.3 0.5 0.1 0.3 1.5 0.5 0.3 1.7 0 0 1.7 0 0 0 0 0 0 0 0 0 0 0 1.5 0 0.11
7.532 1.42 0.33 -9.11 0.37 1.44 0.88 0 0 21 0 0 0 0 0 25 0 0 0 1250 0.5 0.1 0.3 0.5 0.1 0.3 1.5 0.5 0.3 1.7 0 0 1.7 0 0 0 0 0 0 0 0 0 0 0 1.5 0 0.11
7.632 1.42 0.33 -9.17 0.25 0.75 1 0 0 22 0 0 0 0 0 25 0 0 0 1250 0.5 0.1 0.3 0.5 0.1 0.3 1.5 0.5 0.3 1.7 0 0 1.7 0 0 0 0 0 0 0 0 0 0 0 1.5 0 0.11
7.732 1.42 0.33 -9.26 -0.13 0.37 0.88 0 0 21 0 0 0 0 0 25 0 0 0 1250 0.5 0.1 0.3 0.5 0.1 0.3 1.5 0.5 0.3 1.7 0 0 1.7 0 0 0 0 0 0 0 0 0 0 0 1.5 0 0.11
7.832 1.42 0.33 -9.31 0.19 0.25 1 0 0 21 0 0 0 0 0 25 0 0 0 1250 0.5 0.1 0.3 0.5 0.1 0.3 1.5 0.5 0.3 1.7 0 0 1.7 0 0 0 0 0 0 0 0 0 0 0 1.5 0 0.11
7.932 1.41 0.33 -9.4 0.06 0.56 0.88 0 0 21 0 0 0 0 0 25 0 0 0 1250 0.5 0.1 0.3 0.5 0.1 0.3 1.5 0.5 0.3 1.7 0 0 1.7 0 0 0 0 0 0 0 0 0 0 0 1.5 0 0.11
8.032 1.41 0.33 -9.45 0.13 0.44 1.06 0 0 21 0 0 0 0 0 25 0 0 0 1250 0.5 0.1 0.3 0.5 0.1 0.3 1.5 0.5 0.3 1.7 0 0 1.7 0 0 0 0 0 0 0 0 0 0 0 1.5 0 0.11
8.132 1.41 0.33 -9.55 0.13 0.44 0.88 0 0 21 0 0 0 0 0 25 0 0 0 1250 0.5 0.1 0.3 0.5 0.1 0.3 1.5 0.5 0.3 1.7 0 0 1.7 0 0 0 0 0 0 0 0 0 0 0 1.5 0 0.11
8.232 1.41 0.33 -9.58 0 0.31 0.88 0 0 21 0 0 0 0 0 25 0 0 0 1250 0.5 0.1 0.3 0.5 0.1 0.3 1.5 0.5 0.3 1.7 0 0 1.7 0 0 0 0 0 0 0 0 0 0 0 1.5 0 0.11
8.332 1.41 0.33 -9.65 0.06 0.37 0.94 0 0 21 0 0 0 0 0 25 0 0 0 1250 0.5 0.1 0.3 0.5 0.1 0.3 1.5 0.5 0.3 1.7 0 0 1.7 0 0 0 0 0 0 0 0 0 0 0 1.5 0 0.11
8.432 1.41 0.33 -9.67 0.13 0.37 0.94 0 0 21 0 0 0 0 0 25 0 0 0 1250 0.5 0.1 0.3 0.5 0.1 0.3 1.5 0.5 0.3 1.7 0 0 1.7 0 0 0 0 0 0 0 0 0 0 0 1.5 0 0.11
8.532 1.41 0.33 -9.7 0 0.31 0.88 0 0 21 0 0 0 0 0 25 0 0 0 1250 0.5 0.1 0.3 0.5 0.1 0.3 1.5 0.5 0.3 1.7 0 0 1.7 0 0 0 0 0 0 0 0 0 0 0 1.5 0 0.11
8.632 1.41 0.33 -9.81 0.06 0.31 1.06 0 0 21 0 0 0 0 0 25 0 0 0 1250 0.5 0.1 0.3 0.5 0.1 0.3 1.5 0.5 0.3 1.7 0 0 1.7 0 0 0 0 0 0 0 0 0 0 0 1.5 0 0.11
8.732 1.41 0.33 -9.83 0 0.31 0.94 0 0 22 0 0 0 0 0 25 0 0 0 1250 0.5 0.1 0.3 0.5 0.1 0.3 1.5 0.5 0.3 1.7 0 0 1.7 0 0 0 0 0 0 0 0 0 0 0 1.5 0 0.11
8.832 1.41 0.33 -9.93 0.06 0.37 1 0 0 21 0 0 0 0 0 25 0 0 0 1250 0.5 0.1 0.3 0.5 0.1 0.3 1.5 0.5 0.3 1.7 0 0 1.7 0 0 0 0 0 0 0 0 0 0 0 1.5 0 0.11
8.932 1.41 0.33 -9.98 0 0.25 0.88 0 0 22 0 0 0 0 0 25 0 0 0 1250 0.5 0.1 0.3 0.5 0.1 0.3 1.5 0.5 0.3 1.7 0 0 1.7 0 0 0 0 0 0 0 0 0 0 0 1.5 0 0.11
9.032 1.41 0.33 -10.06 0 0.25 1 0 0 20 0 0 0 0 0 25 0 0 0 1250 0.5 0.1 0.3 0.5 0.1 0.3 1.5 0.5 0.3 1.7 0 0 1.7 0 0 0 0 0 0 0 0 0 0 0 1.5 0 0.11
9.132 1.41 0.33 -10.11 0.13 0.31 1 0 0 22 0 0 0 0 0 25 0 0 0 1250 0.5 0.1 0.3 0.5 0.1 0.3 1.5 0.5 0.3 1.7 0 0 1.7 0 0 0 0 0 0 0 0 0 0 0 1.5 0 0.11
9.232 1.41 0.32 -10.2 0.06 0.37 0.94 0 0 21 0 0 0 0 0 25 0 0 0 1250 0.5 0.1 0.3 0.5 0.1 0.3 1.5 0.5 0.3 1.7 0 0 1.7 0 0 0 0 0 0 0 0 0 0 0 1.5 0 0.11
9.332 1.41 0.32 -10.23 0.13 0.31 1 0 0 21 0 0 0 0 0 25 0 0 0 1250 0.5 0.1 0.3 0.5 0.1 0.3 1.5 0.5 0.3 1.7 0 0 1.7 0 0 0 0 0 0 0 0 0 0 0 1.5 0 0.11
9.432 1.41 0.32 -10.33 0.06 0.31 1 0 0 21 0 0 0 0 0 25 0 0 0 1250 0.5 0.1 0.3 0.5 0.1 0.3 1.5 0.5 0.3 1.7 0 0 1.7 0 0 0 0 0 0 0 0 0 0 0 1.5 0 0.11
9.532 1.41 0.32 -10.34 0.06 0.31 0.94 0 0 25 0 0 0 0 0 25 0 0 0 1250 0.5 0.1 0.3 0.5 0.1 0.3 1.5 0.5 0.3 1.7 0 0 1.7 0 0 0 0 0 0 0 0 0 0 0 1.5 0 0.11
9.632 1.41 0.32 -10.46 0.06 0.31 0.88 0 0 21 0 0 0 0 0 25 0 0 0 1250 0.5 0.1 0.3 0.5 0.1 0.3 1.5 0.5 0.3 1.7 0 0 1.7 0 0 0 0 0 0 0 0 0 0 0 1.5 0 0.11
9.732 1.41 0.32 -10.49 0.06 0.31 0.94 0 0 22 0 0 0 0 0 25 0 0 0 1250 0.5 0.1 0.3 0.5 0.1 0.3 1.5 0.5 0.3 1.7 0 0 1.7 0 0 0 0 0 0 0 0 0 0 0 1.5 0 0.11
9.832 1.41 0.32 -10.62 0 0.37 1 0 0 20 0 0 0 0 0 25 0 0 0 1250 0.5 0.1 0.3 0.5 0.1 0.3 1.5 0.5 0.3 1.7 0 0 1.7 0 0 0 0 0 0 0 0 0 0 0 1.5 0 0.11
9.932 1.41 0.32 -10.67 0.06 0.31 0.94 0 0 22 0 0 0 0 0 25 0 0 0 1250 0.5 0.1 0.3 0.5 0.1 0.3 1.5 0.5 0.3 1.7 0 0 1.7 0 0 0 0 0 0 0 0 0 0 0 1.5 0 0.11
10.032 1.41 0.32 -10.7 0 0.31 1 0 0 21 0 0 0 0 0 25 0 0 0 1250 0.5 0.1 0.3 0.5 0.1 0.3 1.5 0.5 0.3 1.7 0 0 1.7 0 0 0 0 0 0 0 0 0 0 0 1.5 0 0.11
10.132 1.41 0.32 -10.81 0 0.25 0.94 0 0 21 0 0 0 0 0 25 0 0 0 1250 0.5 0.1 0.3 0.5 0.1 0.3 1.5 0.5 0.3 1.7 0 0 1.7 0 0 0 0 0 0 0 0 0 0 0 1.5 0 0.11
10.232 1.41 0.32 -10.84 0.06 0.37 1 0 0 21 0 0 0 0 0 25 0 0 0 1250 0.5 0.1 0.3 0.5 0.1 0.3 1.5 0.5 0.3 1.7 0 0 1.7 0 0 0 0 0 0 0 0 0 0 0 1.5 0 0.11
10.332 1.41 0.32 -10.98 0.13 0.31 1 0 0 22 0 0 0 0 0 25 0 0 0 1250 0.5 0.1 0.3 0.5 0.1 0.3 1.5 0.5 0.3 1.7 0 0 1.7 0 0 0 0 0 0 0 0 0 0 0 1.5 0 0.11
10.432 1.41 0.32 -11.03 0.06 0.31 0.94 0 0 22 0 0 0 0 0 25 0 0 0 1250 0.5 0.1 0.3 0.5 0.1 0.3 1.5 0.5 0.3 1.7 0 0 1.7 0 0 0 0 0 0 0 0 0 0 0 1.5 0 0.11
10.532 1.41 0.32 -11.14 0 0.37 1.06 0 0 22 0 0 0 0 0 25 0 0 0 1250 0.5 0.1 0.3 0.5 0.1 0.3 1.5 0.5 0.3 1.7 0 0 1.7 0 0 0 0 0 0 0 0 0 0 0 1.5 0 0.11
10.632 1.41 0.32 -11.17 0.13 0.37 1 0 0 21 0 0 0 0 0 25 0 0 0 1250 0.5 0.1 0.3 0.5 0.1 0.3 1.5 0.5 0.3 1.7 0 0 1.7 0 0 0 0 0 0 0 0 0 0 0 1.5 0 0.11
10.732 1.41 0.32 -11.26 0.13 0.31 0.94 0 0 22 0 0 0 0 0 25 0 0 0 1250 0.5 0.1 0.3 0.5 0.1 0.3 1.5 0.5 0.3 1.7 0 0 1.7 0 0 0 0 0 0 0 0 0 0 0 1.5 0 0.11
10.832 1.41 0.32 -11.29 0.13 0.37 1 0 0 22 0 0 0 0 0 25 0 0 0 1250 0.5 0.1 0.3 0.5 0.1 0.3 1.5 0.5 0.3 1.7 0 0 1.7 0 0 0 0 0 0 0 0 0 0 0 1.5 0 0.11
10.932 1.41 0.32 -11.37 0.06 0.25 0.94 0 0 22 0 0 0 0 0 25 0 0 0 1250 0.5 0.1 0.3 0.5 0.1 0.3 1.5 0.5 0.3 1.7 0 0 1.7 0 0 0 0 0 0 0 0 0 0 0 1.5 0 0.11
11.032 1.41 0.32 -11.4 0.13 0.31 1 0 0 21 0 0 0 0 0 25 0 0 0 1250 0.5 0.1 0.3 0.5 0.1 0.3 1.5 0.5 0.3 1.7 0 0 1.7 0 0 0 0 0 0 0 0 0 0 0 1.5 0 0.11
11.132 1.41 0.32 -11.52 0.06 0.37 0.94 0 0 22 0 0 0 0 0 25 0 0 0 1250 0.5 0.1 0.3 0.5 0.1 0.3 1.5 0.5 0.3 1.7 0 0 1.7 0 0 0 0 0 0 0 0 0 0 0 1.5 0 0.11
11.232 1.41 0.32 -11.56 0.06 0.37 1 0 0 22 0 0 0 0 0 25 0 0 0 1250 0.4 0 0.5 0.47 0.03 0.5 1.5 0.5 0.3 1.7 0 0 1.7 0 0 0 0 0 0 0 0 0 0 0 1.5 0 0.11
11.332 1.41 0.33 -11.65 0 0.37 0.94 0 0 21 0 0 0 0 0 25 0 0 0 1250 0.4 0 0.5 0.47 0.03 0.5 1.5 0.5 0.3 1.7 0 0 1.7 0 0 0 0 0 0 0 0 0 0 0 1.5 0 0.11
11.432 1.4 0.33 -11.7 0.06 0.37 1 0 0 22 0 0 0 0 0 25 0 0 0 1250 0.4 0 0.5 0.47 0.03 0.5 1.5 0.5 0.3 1.7 0 0 1.7 0 0 0 0 0 0 0 0 0 0 0 1.5 0 0.11
11.532 1.4 0.33 -11.8 0.06 0.31 1.06 0 0 22 0 0 0 0 0 25 0 0 0 1250 0.4 0 0.5 0.47 0.03 0.5 1.5 0.5 0.3 1.7 0 0 1.7 0 0 0 0 0 0 0 0 0 0 0 1.5 0 0.11
11.632 1.4 0.33 -11.84 0.06 0.44 1 0 0 22 0 0 0 0 0 25 0 0 0 1250 0.4 0 0.5 0.47 0.03 0.5 1.5 0.5 0.3 1.7 0 0 1.7 0 0 0 0 0 0 0 0 0 0 0 1.5 0 0.11
11.732 1.4 0.33 -11.87 0 0.37 1 0 0 22 0 0 0 0 0 25 0 0 0 1250 0.4 0 0.5 0.47 0.03 0.5 1.5 0.5 0.3 1.7 0 0 1.7 0 0 0 0 0 0 0 0 0 0 0 1.5 0 0.11
11.832 1.4 0.33 -11.95 0.06 0.44 0.94 0 0 22 0 0 0 0 0 25 0 0 0 1250 0.4 0 0.5 0.47 0.03 0.5 1.5 0.5 0.3 1.7 0 0 1.7 0 0 0 0 0 0 0 0 0 0 0 1.5 0 0.11
11.932 1.4 0.33 -11.95 0.06 0.31 1.06 0 0 22 0 0 0 0 0 25 0 0 0 1250 0.4 0 0.5 0.47 0.03 0.5 1.5 0.5 0.3 1.7 0 0 1.7 0 0 0 0 0 0 0 0 0 0 0 1.5 0 0.11
12.032 1.4 0.33 -12.05 0.06 0.31 1 0 0 22 0 0 0 0 0 25 0 0 0 1250 0.4 0 0.5 0.47 0.03 0.5 1.5 0.5 0.3 1.7 0 0 1.7 0 0 0 0 0 0 0 0 0 0 0 1.5 0 0.11
12.132 1.4 0.33 -12.11 0 0.37 1.06 0 0 21 0 0 0 0 0 25 0 0 0 1250 0.4 0 0.5 0.47 0.03 0.5 1.5 0.5 0.3 1.7 0 0 1.7 0 0 0 0 0 0 0 0 0 0 0 1.5 0 0.11
12.232 1.38 0.33 -12.19 0.06 0.31 0.94 0 0 22 0 0 0 0 0 25 0 0 0 1250 0.4 0 0.5 0.47 0.03 0.5 1.5 0.5 0.3 1.7 0 0 1.7 0 0 0 0 0 0 0 0 0 0 0 1.5 0 0.11
12.332 1.38 0.33 -12.22 0.13 0.31 1.06 0 0 22 0 0 0 0 0 25 0 0 0 1250 0.4 0 0.5 0.47 0.03 0.5 1.5 0.5 0.3 1.7 0 0 1.7 0 0 0 0 0 0 0 0 0 0 0 1.5 0 0.11
12.432 1.38 0.33 -12.34 0 0.44 0.94 0 0 22 0 0 0 0 0 25 0 0 0 1250 0.4 0 0.5 0.47 0.03 0.5 1.5 0.5 0.3 1.7 0 0 1.7 0 0 0 0 0 0 0 0 0 0 0 1.5 0 0.11
12.532 1.38 0.33 -12.35 0.06 0.25 0.94 0 0 22 0 0 0 0 0 25 0 0 0 1250 0.4 0 0.5 0.47 0.03 0.5 1.5 0.5 0.3 1.7 0 0 1.7 0 0 0 0 0 0 0 0 0 0 0 1.5 0 0.11
12.632 1.38 0.33 -12.4 0.06 0.37 1 0 0 22 0 0 0 0 0 25 0 0 0 1250 0.4 0 0.5 0.47 0.03 0.5 1.5 0.5 0.3 1.7 0 0 1.7 0 0 0 0 0 0 0 0 0 0 0 1.5 0 0.11
12.732 1.38 0.33 -12.43 0.06 0.37 0.94 0 0 21 0 0 0 0 0 25 0 0 0 1250 0.4 0 0.5 0.47 0.03 0.5 1.5 0.5 0.3 1.7 0 0 1.7 0 0 0 0 0 0 0 0 0 0 0 1.5 0 0.11
12.832 1.38 0.33 -12.49 0.13 0.31 1 0 0 22 0 0 0 0 0 25 0 0 0 1250 0.4 0 0.5 0.47 0.03 0.5 1.5 0.5 0.3 1.7 0 0 1.7 0 0 0 0 0 0 0 0 0 0 0 1.5 0 0.11
12.932 1.38 0.33 -12.5 0.06 0.37 0.94 0 0 21 0 0 0 0 0 25 0 0 0 1250 0.4 0 0.5 0.47 0.03 0.5 1.5 0.5 0.3 1.7 0 0 1.7 0 0 0 0 0 0 0 0 0 0 0 1.5 0 0.11
13.032 1.38 0.33 -12.59 0 0.37 1 0 0 21 0 0 0 0 0 25 0 0 0 1250 0.4 0 0.5 0.47 0.03 0.5 1.5 0.5 0.3 1.7 0 0 1.7 0 0 0 0 0 0 0 0 0 0 0 1.5 0 0.11
13.133 1.38 0.33 -12.61 0.13 0.37 0.94 0 0 22 0 0 0 0 0 25 -0.04 -0.31 -6.76 1250 0.4 0 0.5 0.47 0.03 0.5 1.5 0.5 0.3 1.7 0 0 1.7 0 0 0 0 0 0 0 0 0 0 0 1.5 0 0.11
13.232 1.38 0.33 -12.68 0.06 0.37 0.94 0 0 22 0 0 0 0 0 25 -0.03 -0.29 -6.8 1250 0.4 0 0.5 0.47 0.03 0.5 1.5 0.5 0.3 1.7 0 0 1.7 0 0 0 0 0 0 0 0 0 0 0 1.5 0 0.11
13.332 1.38 0.33 -12.79 0.13 0.31 1 0 0 21 0 0 0 0 0 25 -0.05 -0.27 -6.92 1250 0.4 0 0.5 0.47 0.03 0.5 1.5 0.5 0.3 1.7 0 0 1.7 0 0 0 0 0 0 0 0 0 0 0 1.5 0 0.11
13.432 1.38 0.33 -12.84 0 0.37 1.06 0 0 22 0 0 0 0 0 25 -0.02 -0.28 -7 1250 0.4 0 0.5 0.47 0.03 0.5 1.5 0.5 0.3 1.7 0 0 1.7 0 0 0 0 0 0 0 0 0 0 0 1.5 0 0.11
13.532 1.38 0.34 -12.95 0 0.37 1.06 0 0 22 0 0 0 0 0 25 -0.01 -0.29 -7.07 1250 0.4 0 0.5 0.47 0.03 0.5 1.5 0.5 0.3 1.7 0 0 1.7 0 0 0 0 0 0 0 0 0 0 0 1.5 0 0.11
13.632 1.38 0.34 -12.95 0 0.37 0.88 0 0 22 0 0 0 0 0 25 -0.02 -0.31 -7.04 1250 0.4 0 0.5 0.47 0.03 0.5 1.5 0.5 0.3 1.7 0 0 1.7 0 0 0 0 0 0 0 0 0 0 0 1.5 0 0.11
13.732 1.38 0.34 -13 0 0.37 1 0 0 22 0 0 0 0 0 25 0 -0.29 -7.12 1250 0.4 0 0.5 0.47 0.03 0.5 1.5 0.5 0.3 1.7 0 0 1.7 0 0 0 0 0 0 0 0 0 0 0 1.5 0 0.11
13.832 1.38 0.34 -13.01 0.06 0.25 0.88 0 0 21 0 0 0 0 0 25 -0.02 -0.24 -7.25 1250 0.4 0 0.5 0.47 0.03 0.5 1.5 0.5 0.3 1.7 0 0 1.7 0 0 0 0 0 0 0 0 0 0 0 1.5 0 0.11
13.932 1.38 0.34 -13.1 0 0.25 0.94 0 0 21 0 0 0 0 0 25 -0.02 -0.24 -7.24 1250 0.4 0 0.5 0.47 0.03 0.5 1.5 0.5 0.3 1.7 0 0 1.7 0 0 0 0 0 0 0 0 0 0 0 1.5 0 0.11
14.032 1.38 0.34 -13.12 0.13 0.25 0.94 0 0 21 0 0 0 0 0 25 -0.05 -0.25 -7.38 1250 0.4 0 0.5 0.47 0.03 0.5 1.5 0.5 0.3 1.7 0 0 1.7 0 0 0 0 0 0 0 0 0 0 0 1.5 0 0.11
14.133 1.38 0.33 -13.22 0.06 0.25 0.94 0 0 21 0 0 0 0 0 25 -0.03 -0.25 -7.46 1250 0.4 0 0.5 0.47 0.03 0.5 1.5 0.5 0.3 1.7 0 0 1.7 0 0 0 0 0 0 0 0 0 0 0 1.5 0 0.11
14.232 1.38 0.33 -13.24 0 0.44 1 0 0 22 0 0 0 0 0 25 -0.03 -0.32 -7.54 1250 0.4 0 0.5 0.47 0.03 0.5 1.5 0.5 0.3 1.7 0 0 1.7 0 0 0 0 0 0 0 0 0 0 0 1.5 0 0.11
14.332 1.38 0.33 -13.3 0 0.37 1 0 0 22 0 0 0 0 0 25 -0.01 -0.32 -7.61 1250 0.4 0 0.5 0.47 0.03 0.5 1.5 0.5 0.3 1.7 0 0 1.7 0 0 0 0 0 0 0 0 0 0 0 1.5 0 0.11
14.432 1.38 0.33 -13.33 0 0.37 1 0 0 22 0 0 0 0 0 25 0 -0.31 -7.73 1250 0.4 0 0.5 0.47 0.03 0.5 1.5 0.5 0.3 1.7 0 0 1.7 0 0 0 0 0 0 0 0 0 0 0 1.5 0 0.11
14.532 1.38 0.33 -13.38 0.06 0.37 0.94 0 0 22 0 0 0 0 0 25 -0.02 -0.32 -7.82 1250 0.4 0 0.5 0.47 0.03 0.5 1.5 0.5 0.3 1.7 0 0 1.7 0 0 0 0 0 0 0 0 0 0 0 1.5 0 0.11
14.632 1.38 0.33 -13.41 0 0.31 1 0 0 20 0 0 0 0 0 25 0 -0.28 -7.85 1250 0.4 0 0.5 0.47 0.03 0.5 1.5 0.5 0.3 1.7 0 0 1.7 0 0 0 0 0 0 0 0 0 0 0 1.5 0 0.11
14.732 1.4 0.33 -13.44 0 0.44 0.94 0 0 22 0 0 0 0 0 25 0 -0.33 -7.92 1250 0.4 0 0.5 0.47 0.03 0.5 1.5 0.5 0.3 1.7 0 0 1.7 0 0 0 0 0 0 0 0 0 0 0 1.5 0 0.11
14.833 1.4 0.33 -13.5 0.06 0.31 0.94 0 0 22 0 0 0 0 0 25 -0.03 -0.28 -7.92 1250 0.4 0 0.5 0.47 0.03 0.5 1.5 0.5 0.3 1.7 0 0 1.7 0 0 0 0 0 0 0 0 0 0 0 1.5 0 0.11
14.933 1.4 0.32 -13.5 0 0.31 0.94 0 0 22 0 0 0 0 0 25 -0.01 -0.3 -8.06 1250 0.4 0 0.5 0.47 0.03 0.5 1.5 0.5 0.3 1.7 0 0 1.7 0 0 0 0 0 0 0 0 0 0 0 1.5 0 0.11
15.033 1.4 0.32 -13.56 0 0.31 1 0 0 22 0 0 0 0 0 25 0 -0.28 -8.14 1250 0.4 0 0.5 0.47 0.03 0.5 1.5 0.5 0.3 1.7 0 0 1.7 0 0 0 0 0 0 0 0 0 0 0 1.5 0 0.11
15.132 1.4 0.32 -13.58 0 0.37 0.94 0 0 22 0 0 0 0 0 25 0 -0.3 -8.19 1250 0.4 0 0.5 0.47 0.03 0.5 1.5 0.5 0.3 1.7 0 0 1.7 0 0 0 0 0 0 0 0 0 0 0 1.5 0 0.11
15.232 1.38 0.32 -13.63 0 0.37 1 0 0 22 0 0 0 0 0 25 0.02 -0.32 -8.39 1250 0.4 0 0.5 0.47 0.03 0.5 1.5 0.5 0.3 1.7 0 0 1.7 0 0 0 0 0 0 0 0 0 0 0 1.5 0 0.11
15.332 1.38 0.32 -13.66 0.06 0.25 1 0 0 21 0 0 0 0 0 25 -0.03 -0.29 -8.41 1250 0.4 0 0.5 0.47 0.03 0.5 1.5 0.5 0.3 1.7 0 0 1.7 0 0 0 0 0 0 0 0 0 0 0 1.5 0 0.11
15.432 1.38 0.32 -13.75 0 0.37 1 0 0 22 0 0 0 0 0 25 -0.01 -0.35 -8.48 1250 0.4 0 0.5 0.47 0.03 0.5 1.5 0.5 0.3 1.7 0 0 1.7 0 0 0 0 0 0 0 0 0 0 0 1.5 0 0.11
15.532 1.38 0.32 -13.8 0 0.31 0.94 0 0 21 0 0 0 0 0 25 -0.01 -0.31 -8.59 1250 0.4 0 0.5 0.47 0.03 0.5 1.5 0.5 0.3 1.7 0 0 1.7 0 0 0 0 0 0 0 0 0 0 0 1.5 0 0.11
15.632 1.38 0.32 -13.89 0 0.37 0.88 0 0 22 0 0 0 0 0 25 0 -0.33 -8.56 1250 0.4 0 0.5 0.47 0.03 0.5 1.5 0.5 0.3 1.7 0 0 1.7 0 0 0 0 0 0 0 0 0 0 0 1.5 0 0.11
15.732 1.38 0.32 -13.91 0.06 0.44 1 0 0 22 0 0 0 0 0 25 -0.04 -0.39 -8.71 1250 0.4 0 0.5 0.47 0.03 0.5 1.5 0.5 0.3 1.7 0 0 1.7 0 0 0 0 0 0 0 0 0 0 0 1.5 0 0.11
15.832 1.38 0.32 -14 0.06 0.31 1 0 0 21 0 0 0 0 0 25 -0.04 -0.34 -8.76 1250 0.4 0 0.5 0.47 0.03 0.5 1.5 0.5 0.3 1.7 0 0 1.7 0 0 0 0 0 0 0 0 0 0 0 1.5 0 0.11
15.932 1.4 0.32 -14 0.06 0.37 0.94 0 0 22 0 0 0 0 0 25 -0.03 -0.32 -8.87 1250 0.4 0 0.5 0.47 0.03 0.5 1.5 0.5 0.3 1.7 0 0 1.7 0 0 0 0 0 0 0 0 0 0 0 1.5 0 0.11
16.032 1.4 0.32 -14.13 0 0.37 0.94 0 0 22 0 0 0 0 0 25 0.01 -0.35 -8.88 1250 0.4 0 0.5 0.47 0.03 0.5 1.5 0.5 0.3 1.7 0 0 1.7 0 0 0 0 0 0 0 0 0 0 0 1.5 0 0.11
16.132 1.4 0.32 -14.16 0.06 0.44 0.94 0 0 22 0 0 0 0 0 25 -0.04 -0.36 -8.99 1250 0.4 0 0.5 0.47 0.03 0.5 1.5 0.5 0.3 1.7 0 0 1.7 0 0 0 0 0 0 0 0 0 0 0 1.5 0 0.11
16.233 1.4 0.32 -14.16 0.06 0.31 0.94 0 0 22 0 0 0 0 0 25 -0.05 -0.34 -9.13 1250 0.4 0 0.5 0.47 0.03 0.5 1.5 0.5 0.3 1.7 0 0 1.7 0 0 0 0 0 0 0 0 0 0 0 1.5 0 0.11
16.333 1.4 0.32 -14.24 0 0.37 1 0 0 22 0 0 0 0 0 25 0 -0.36 -9.15 1250 0.4 0 0.5 0.47 0.03 0.5 1.5 0.5 0.3 1.7 0 0 1.7 0 0 0 0 0 0 0 0 0 0 0 1.5 0 0.11
16.433 1.4 0.32 -14.26 0 0.37 1 0 0 22 0 0 0 0 0 25 -0.01 -0.32 -9.29 1250 0.4 0 0.5 0.47 0.03 0.5 1.5 0.5 0.3 1.7 0 0 1.7 0 0 0 0 0 0 0 0 0 0 0 1.5 0 0.11
16.532 1.4 0.32 -14.35 0.06 0.37 1 0 0 22 0 0 0 0 0 25 -0.02 -0.37 -9.38 1250 0.4 0 0.5 0.47 0.03 0.5 1.5 0.5 0.3 1.7 0 0 1.7 0 0 0 0 0 0 0 0 0 0 0 1.5 0 0.11
16.633 1.4 0.32 -14.38 0.06 0.44 1 0 0 22 0 0 0 0 0 25 -0.02 -0.34 -9.41 1250 0.4 0 0.5 0.47 0.03 0.5 1.5 0.5 0.3 1.7 0 0 1.7 0 0 0 0 0 0 0 0 0 0 0 1.5 0 0.11
16.733 1.4 0.33 -14.45 0 0.37 1 0 0 22 0 0 0 0 0 25 -0.01 -0.34 -9.53 1250 0.4 0 0.5 0.47 0.03 0.5 1.5 0.5 0.3 1.7 0 0 1.7 0 0 0 0 0 0 0 0 0 0 0 1.5 0 0.11
16.833 1.4 0.33 -14.47 0.06 0.37 0.94 0 0 21 0 0 0 0 0 25 -0.03 -0.37 -9.5 1250 0.4 0 0.5 0.47 0.03 0.76 1.5 0.5 0.3 1.7 0 0 1.7 0 0 0 0 0 0 0 0 0 0 0 1.5 0 0.11
16.932 1.4 0.33 -14.52 0 0.31 1.06 0 0 22 0 0 0 0 0 25 0.01 -0.31 -9.71 1250 0.4 0 0.5 0.47 0.03 1.78 1.5 0.5 0.3 1.7 0 0 1.7 0 0 0 0 0 0 0 0 0 0 0 1.5 0 0.11
17.033 1.4 0.33 -14.56 0 0.31 1 0 0 21 0 0 0 0 0 25 -0.01 -0.35 -9.7 1250 0.4 0 0.5 0.47 0.03 1.89 1.5 0.5 0.3 1.7 0 0 1.7 0 0 0 0 0 0 0 0 0 0 0 1.5 0 0.11
17.133 1.4 0.33 -14.68 0.06 0.37 0.88 0 0 22 0 0 0 0 0 25 -0.02 -0.37 -9.82 1250 0.4 0 0.5 0.47 0.03 2 1.5 0.5 0.3 1.7 0 0 1.7 0 0 0 0 0 0 0 0 0 0 0 1.5 0 0.11
17.233 1.4 0.33 -14.7 0 0.37 0.94 0 0 22 0 0 0 0 0 25 -0.01 -0.35 -9.83 1250 0.4 0 0.5 0.47 0.03 2 1.5 0.5 0.3 1.7 0 0 1.7 0 0 0 0 0 0 0 0 0 0 0 1.5 0 0.11
17.333 1.4 0.33 -14.8 0 0.37 1 0 0 22 0 0 0 0 0 25 0 -0.37 -9.89 1250 0.4 0 0.5 0.47 0.03 2 1.5 0.5 0.3 1.7 0 0 1.7 0 0 0 0 0 0 0 0 0 0 0 1.5 0 0.11
17.433 1.41 0.33 -14.82 0.06 0.37 1 0 0 22 0 0 0 0 0 25 -0.03 -0.37 -10.06 1250 0.4 0 0.5 0.47 0.03 2 1.5 0.5 0.3 1.7 0 0 1.7 0 0 0 0 0 0 0 0 0 0 0 1.5 0 0.11
17.533 1.41 0.33 -14.9 0 0.44 1 0 0 21 0 0 0 0 0 25 0 -0.38 -10.11 1250 0.4 0 0.5 0.47 0.03 2.05 1.5 0.5 0.3 1.7 0 0 1.7 0 0 0 0 0 0 0 0 0 0 0 1.5 0 0.11
17.633 1.41 0.33 -14.91 0 0.37 0.88 0 0 22 0 0 0 0 0 25 0 -0.36 -10.06 1250 0.4 0 0.5 0.47 0.03 2.05 1.5 0.5 0.3 1.7 0 0 1.7 0 0 0 0 0 0 0 0 0 0 0 1.5 0 0.11
17.733 1.41 0.33 -14.92 0.06 0.37 1 0 0 22 0 0 0 0 0 25 -0.04 -0.35 -10.27 1250 0.4 0 0.5 0.47 0.03 2.05 1.5 0.5 0.3 1.7 0 0 1.7 0 0 0 0 0 0 0 0 0 0 0 1.5 0 0.11
17.833 1.41 0.33 -15 0.06 0.31 1 0 0 22 0 0 0 0 0 25 -0.02 -0.35 -10.35 1250 0.4 0 0.5 0.47 0.03 2.05 1.5 0.5 0.3 1.7 0 0 1.7 0 0 0 0 0 0 0 0 0 0 0 1.5 0 0.11
17.933 1.4 0.33 -15.02 0.13 0.37 0.94 0 0 21 0 0 0 0 0 25 -0.04 -0.36 -10.43 1250 0.4 0 0.5 0.47 0.03 2.05 1.5 0.5 0.3 1.7 0 0 1.7 0 0 0 0 0 0 0 0 0 0 0 1.5 0 0.11
18.033 1.4 0.33 -15.1 0.06 0.44 1 0 0 22 0 0 0 0 0 25 -0.01 -0.41 -10.51 1250 0.4 0 0.5 0.47 0.03 2.05 1.5 0.5 0.3 1.7 0 0 1.7 0 0 0 0 0 0 0 0 0 0 0 1.5 0 0.11
18.133 1.4 0.33 -15.1 0 0.37 1.12 0 0 22 0 0 0 0 0 25 -0.01 -0.39 -10.65 1250 0.4 0 0.5 0.47 0.03 2.05 1.5 0.5 0.3 1.7 0 0 1.7 0 0 0 0 0 0 0 0 0 0 0 1.5 0 0.11
18.233 1.4 0.33 -15.15 0.13 0.37 1 0 0 21 0 0 0 0 0 25 -0.03 -0.36 -10.66 1250 0.4 0 0.5 0.47 0.03 2.05 1.5 0.5 0.3 1.7 0 0 1.7 0 0 0 0 0 0 0 0 0 0 0 1.5 0 0.11
18.333 1.4 0.33 -15.17 0.06 0.37 1 0 0 21 0 0 0 0 0 25 -0.02 -0.38 -10.68 1250 0.4 0 0.5 0.47 0.03 2.05 1.5 0.5 0.3 1.7 0 0 1.7 0 0 0 0 0 0 0 0 0 0 0 1.5 0 0.11
18.433 1.4 0.33 -15.22 0.13 0.37 1 0 0 22 0 0 0 0 0 25 -0.04 -0.39 -10.85 1250 0.4 0 0.5 0.47 0.03 2.05 1.5 0.5 0.3 1.7 0 0 1.7 0 0 0 0 0 0 0 0 0 0 0 1.5 0 0.11
18.533 1.4 0.33 -15.23 0 0.31 1 0 0 22 0 0 0 0 0 25 0 -0.35 -10.92 1250 0.4 0 0.5 0.47 0.03 2.05 1.5 0.5 0.3 1.7 0 0 1.7 0 0 0 0 0 0 0 0 0 0 0 1.5 0 0.11
18.633 1.4 0.33 -15.3 0.13 0.37 1 0 0 22 0 0 0 0 0 25 -0.03 -0.39 -10.98 1250 0.4 0 0.92 0.47 0.03 2.05 1.5 0.5 0.3 1.7 0 0 1.7 0 0 0 0 0 0 0 0 0 0 0 1.5 0 0.11
18.733 1.4 0.33 -15.31 0.13 0.37 1 0 0 21 0 0 0 0 0 25 -0.04 -0.37 -11.08 1250 0.4 0 1.89 0.47 0.03 2.05 1.5 0.5 0.3 1.7 0 0 1.7 0 0 0 0 0 0 0 0 0 0 0 1.5 0 0.11
18.833 1.4 0.34 -15.4 0.13 0.31 1 0 0 22 0 0 0 0 0 25 -0.04 -0.37 -11.08 1250 0.4 0 2.05 0.47 0.03 2.05 1.5 0.5 0.3 1.7 0 0 1.7 0 0 0 0 0 0 0 0 0 0 0 1.5 0 0.11
18.933 1.4 0.33 -15.41 0.06 0.31 1 0 0 22 0 0 0 0 0 25 -0.04 -0.37 -11.24 1250 0.4 0 2.1 0.47 0.03 2.05 1.5 0.5 0.3 1.7 0 0 1.7 0 0 0 0 0 0 0 0 0 0 0 1.5 0 0.11
19.033 1.4 0.33 -15.47 0.06 0.37 1 0 0 22 0 0 0 0 0 25 -0.02 -0.39 -11.28 1250 0.4 0 2.1 0.47 0.03 2.05 1.5 0.5 0.3 1.7 0 0 1.7 0 0 0 0 0 0 0 0 0 0 0 1.5 0 0.11
19.133 1.38 0.33 -15.49 0.06 0.44 0.94 0 0 22 0 0 0 0 0 25 -0.04 -0.39 -11.27 1250 0.4 0 2.1 0.47 0.03 2.05 1.5 0.5 0.3 1.7 0 0 1.7 0 0 0 0 0 0 0 0 0 0 0 1.5 0 0.11
19.233 1.38 0.33 -15.5 0 0.37 0.94 0 0 21 0 0 0 0 0 25 0 -0.39 -11.4 1250 0.4 0 2.21 0.47 0.03 2.05 1.5 0.5 0.3 1.7 0 0 1.7 0 0 0 0 0 0 0 0 0 0 0 1.5 0 0.11
19.333 1.4 0.33 -15.59 0 0.31 0.88 0 0 22 0 0 0 0 0 25 0 -0.37 -11.5 1250 0.4 0 2.21 0.47 0.03 2.05 1.5 0.5 0.3 1.7 0 0 1.7 0 0 0 0 0 0 0 0 0 0 0 1.5 0 0.11
19.433 1.38 0.33 -15.64 0 0.37 1 0 0 22 0 0 0 0 0 25 -0.02 -0.39 -11.66 1250 0.4 0 2.21 0.47 0.03 2.05 1.5 0.5 0.3 1.7 0 0 1.7 0 0 0 0 0 0 0 0 0 0 0 1.5 0 0.11
19.533 1.38 0.33 -15.69 0.06 0.44 1 0 0 22 0 0 0 0 0 25 -0.03 -0.42 -11.67 1250 0.4 0 2.21 0.47 0.03 2.05 1.5 0.5 0.3 1.7 0 0 1.7 0 0 0 0 0 0 0 0 0 0 0 1.5 0 0.11
19.633 1.38 0.33 -15.68 0 0.31 1 0 0 22 0 0 0 0 0 25 0.02 -0.38 -11.81 1250 0.4 0 2.21 0.47 0.03 2.05 1.5 0.5 0.3 1.7 0 0 1.7 0 0 0 0 0 0 0 0 0 0 0 1.5 0 0.11
19.733 1.38 0.33 -15.75 0 0.37 1 0 0 21 0 0 0 0 0 25 -0.01 -0.39 -11.83 1250 0.4 0 2.21 0.47 0.03 2.05 1.5 0.5 0.3 1.7 0 0 1.7 0 0 0 0 0 0 0 0 0 0 0 1.5 0 0.11
19.833 1.38 0.33 -15.74 0 0.37 0.94 0 0 22 0 0 0 0 0 25 0 -0.41 -11.89 1250 0.4 0 2.21 0.47 0.03 2.05 1.5 0.5 0.3 1.7 0 0 1.7 0 0 0 0 0 0 0 0 0 0 0 1.5 0 0.11
19.933 1.38 0.33 -15.79 0 0.44 1 0 0 22 0 0 0 0 0 25 -0.01 -0.43 -11.98 1250 0.4 0 2.21 0.47 0.03 2.05 1.5 0.5 0.3 1.7 0 0 1.7 0 0 0 0 0 0 0 0 0 0 0 1.5 0 0.11
20.033 1.38 0.33 -15.78 0.06 0.44 1 0 0 22 0 0 0 0 0 25 -0.02 -0.42 -12.01 1250 0.4 0 2.21 0.47 0.03 2.05 1.5 0.5 0.3 1.7 0 0 1.7 0 0 0 0 0 0 0 0 0 0 0 1.5 0 0.11
20.133 1.38 0.33 -15.83 0.06 0.37 0.88 0 0 22 0 0 0 0 0 25 -0.02 -0.39 -11.96 1250 0.4 0 2.21 0.47 0.03 2.05 1.5 0.5 0.3 1.7 0 0 1.7 0 0 0 0 0 0 0 0 0 0 0 1.5 0 0.11
20.233 1.4 0.33 -15.84 0.06 0.37 1 0 0 22 0 0 0 0 0 25 -0.06 -0.42 -12.18 1250 0.4 0 2.21 0.47 0.03 2.05 1.5 0.5 0.3 1.7 0 0 1.7 0 0 0 0 0 0 0 0 0 0 0 1.5 0 0.11
20.333 1.38 0.33 -15.92 0 0.31 0.94 0 0 22 0 0 0 0 0 25 -0.01 -0.39 -12.31 1250 0.4 0 2.21 0.47 0.03 2.05 1.5 0.5 0.3 1.7 0 0 1.7 0 0 0 0 0 0 0 0 0 0 0 1.5 0 0.11
20.433 1.38 0.33 -15.93 0.06 0.31 0.94 0 0 22 0 0 0 0 0 25 -0.01 -0.41 -12.33 1250 0.4 0 2.21 0.47 0.03 2.05 1.5 0.5 0.3 1.7 0 0 1.7 0 0 0 0 0 0 0 0 0 0 0 1.5 0 0.11
20.533 1.38 0.33 -15.99 0.13 0.44 1 0 0 22 0 0 0 0 0 25 -0.05 -0.44 -12.4 1250 0.4 0 2.21 0.47 0.03 2.05 1.5 0.5 0.3 1.7 0 0 1.7 0 0 0 0 0 0 0 0 0 0 0 1.5 0 0.11
20.633 1.38 0.33 -15.97 0.06 0.31 0.88 0 0 22 0 0 0 0 0 25 -0.03 -0.39 -12.42 1250 0.4 0 2.27 0.47 0.03 2.05 1.5 0.5 0.3 1.7 0 0 1.7 0 0 0 0 0 0 0 0 0 0 0 1.5 0 0.11
20.733 1.38 0.33 -15.99 0.06 0.37 0.94 0 0 22 0 0 0 0 0 25 -0.04 -0.43 -12.58 1250 0.4 0 2.27 0.47 0.03 2.05 1.5 0.5 0.3 1.7 0 0 1.7 0 0 0 0 0 0 0 0 0 0 0 1.5 0 0.11
20.833 1.38 0.33 -16.08 0 0.37 0.94 0 0 22 0 0 0 0 0 25 0.01 -0.42 -12.57 1250 0.4 0 2.27 0.47 0.03 2.05 1.5 0.5 0.3 1.7 0 0 1.7 0 0 0 0 0 0 0 0 0 0 0 1.5 0 0.11
20.933 1.4 0.33 -16.09 0.13 0.37 1 0 0 22 0 0 0 0 0 25 -0.05 -0.41 -12.75 1250 0.4 0 2.27 0.47 0.03 2.05 1.5 0.5 0.3 1.7 0 0 1.7 0 0 0 0 0 0 0 0 0 0 0 1.5 0 0.11
21.033 1.38 0.33 -16.14 0.06 0.37 1 0 0 22 0 0 0 0 0 25 -0.01 -0.42 -12.77 1250 0.4 0 2.27 0.47 0.03 2.05 1.5 0.5 0.3 1.7 0 0 1.7 0 0 0 0 0 0 0 0 0 0 0 1.5 0 0.11
21.133 1.38 0.33 -16.15 0 0.31 0.88 0 0 22 0 0 0 0 0 25 0.01 -0.43 -12.77 1250 0.4 0 2.16 0.47 0.03 2.05 1.5 0.5 0.3 1.7 0 0 1.7 0 0 0 0 0 0 0 0 0 0 0 1.5 0 0.11
21.233 1.38 0.33 -16.23 0.13 0.37 1 0 0 22 0 0 0 0 0 25 -0.04 -0.43 -12.92 1250 0.4 0 2.05 0.47 0.03 2.05 1.5 0.5 0.3 1.7 0 0 1.7 0 0 0 0 0 0 0 0 0 0 0 1.5 0 0.11
21.333 1.38 0.33 -16.24 0 0.31 1 0 0 21 0 0 0 0 0 25 0 -0.39 -13.07 1250 0.4 0 2.05 0.47 0.03 2.05 1.5 0.5 0.3 1.7 0 0 1.7 0 0 0 0 0 0 0 0 0 0 0 1.5 0 0.11
21.433 1.4 0.33 -16.3 0.06 0.44 1 0 0 22 0 0 0 0 0 25 -0.03 -0.44 -13.13 1250 0.4 0 2.05 0.47 0.03 2.05 1.5 0.5 0.3 1.7 0 0 1.7 0 0 0 0 0 0 0 0 0 0 0 1.5 0 0.11
21.533 1.4 0.33 -16.33 0.06 0.31 1 0 0 22 0 0 0 0 0 25 -0.02 -0.4 -13.27 1250 0.4 0 2.05 0.47 0.03 2.05 1.5 0.5 0.3 1.7 0 0 1.7 0 0 0 0 0 0 0 0 0 0 0 1.5 0 0.11
21.633 1.4 0.33 -16.4 0.06 0.37 0.88 0 0 22 0 0 0 0 0 25 -0.04 -0.44 -13.15 1250 0.4 0 2.05 0.47 0.03 2.05 1.5 0.5 0.3 1.7 0 0 1.7 0 0 0 0 0 0 0 0 0 0 0 1.5 0 0.11
21.733 1.41 0.33 -16.44 0.19 0.37 1 0 0 21 0 0 0 0 0 25 -0.06 -0.44 -13.28 1250 0.4 0 2 0.47 0.03 2.05 1.5 0.5 0.3 1.7 0 0 1.7 0 0 0 0 0 0 0 0 0 0 0 1.5 0 0.11
21.833 1.41 0.33 -16.51 0 0.31 1.12 0 0 22 0 0 0 0 0 25 0 -0.42 -13.55 1250 0.4 0 2 0.47 0.03 2.05 1.5 0.5 0.3 1.7 0 0 1.7 0 0 0 0 0 0 0 0 0 0 0 1.5 0 0.11
21.933 1.4 0.33 -16.52 0 0.31 0.94 0 0 21 0 0 0 0 0 25 0.01 -0.42 -13.39 1250 0.4 0 2 0.47 0.03 2.05 1.5 0.5 0.3 1.7 0 0 1.7 0 0 0 0 0 0 0 0 0 0 0 1.5 0 0.11
22.033 1.4 0.33 -16.59 0.13 0.37 0.94 0 0 22 0 0 0 0 0 25 -0.04 -0.42 -13.56 1250 0.4 0 2 0.47 0.03 2.05 1.5 0.5 0.3 1.7 0 0 1.7 0 0 0 0 0 0 0 0 0 0 0 1.5 0 0.11
22.133 1.4 0.33 -16.61 0 0.31 1 0 0 22 0 0 0 0 0 25 -0.01 -0.41 -13.71 1250 0.4 0 2 0.47 0.03 2.05 1.5 0.5 0.3 1.7 0 0 1.7 0 0 0 0 0 0 0 0 0 0 0 1.5 0 0.11
22.233 1.41 0.33 -16.67 0.06 0.37 0.94 0 0 22 0 0 0 0 0 25 -0.02 -0.43 -13.76 1250 0.4 0 2 0.47 0.03 2.05 1.5 0.5 0.3 1.7 0 0 1.7 0 0 0 0 0 0 0 0 0 0 0 1.5 0 0.11
22.333 1.41 0.33 -16.68 0 0.31 0.94 0 0 22 0 0 0 0 0 25 -0.01 -0.42 -13.86 1250 0.4 0 2 0.47 0.03 2.05 1.5 0.5 0.3 1.7 0 0 1.7 0 0 0 0 0 0 0 0 0 0 0 1.5 0 0.11
22.433 1.41 0.33 -16.67 0 0.37 0.94 0 0 22 0 0 0 0 0 25 -0.03 -0.44 -13.87 1250 0.4 0 2 0.47 0.03 2.05 1.5 0.5 0.3 1.7 0 0 1.7 0 0 0 0 0 0 0 0 0 0 0 1.5 0 0.11
22.533 1.41 0.33 -16.71 0.06 0.31 0.94 0 0 21 0 0 0 0 0 25 -0.03 -0.41 -13.92 1250 0.4 0 2 0.47 0.03 2.05 1.5 0.5 0.3 1.7 0 0 1.7 0 0 0 0 0 0 0 0 0 0 0 1.5 0 0.11
22.633 1.41 0.33 -16.72 0 0.37 0.88 0 0 21 0 0 0 0 0 25 -0.02 -0.45 -13.95 1250 0.4 0 2 0.47 0.03 2.05 1.5 0.5 0.3 1.7 0 0 1.7 0 0 0 0 0 0 0 0 0 0 0 1.5 0 0.11
22.733 1.41 0.33 -16.75 0.13 0.44 0.88 0 0 21 0 0 0 0 0 25 -0.08 -0.53 -14.07 1250 0.4 0 2 0.47 0.03 2.05 1.5 0.5 0.3 1.7 0 0 1.7 0 0 0 0 0 0 0 0 0 0 0 1.5 0 0.11
22.833 1.41 0.33 -16.75 0 0.37 1 0 0 21 0 0 0 0 0 25 0.04 -0.45 -14.2 1250 0.4 0 2 0.47 0.03 2.05 1.5 0.5 0.3 1.7 0 0 1.7 0 0 0 0 0 0 0 0 0 0 0 1.5 0 0.11
22.933 1.41 0.33 -16.78 0 0.25 1.06 0 0 21 0 0 0 0 0 25 -0.02 -0.34 -14.34 1250 0.4 0 2 0.47 0.03 2.05 1.5 0.5 0.3 1.7 0 0 1.7 0 0 0 0 0 0 0 0 0 0 0 1.5 0 0.11
23.033 1.41 0.33 -16.77 0.06 0.37 0.94 0 0 22 0 0 0 0 0 25 0.04 -0.51 -14.31 1250 0.4 0 2 0.47 0.03 2.05 1.5 0.5 0.3 1.7 0 0 1.7 0 0 0 0 0 0 0 0 0 0 0 1.5 0 0.11
23.133 1.41 0.33 -16.84 0.06 0.37 1.06 0 0 21 0 0 0 0 0 25 -0.01 -0.43 -14.47 1250 0.4 0 2 0.47 0.03 2.05 1.5 0.5 0.3 1.7 0 0 1.7 0 0 0 0 0 0 0 0 0 0 0 1.5 0 0.11
23.233 1.41 0.33 -16.86 0.13 0.37 1 0 0 22 0 0 0 0 0 25 -0.08 -0.45 -14.48 1250 0.4 0 2 0.47 0.03 2.05 1.5 0.5 0.3 1.7 0 0 1.7 0 0 0 0 0 0 0 0 0 0 0 1.5 0 0.11
23.333 1.41 0.34 -16.94 0 0.31 1 0 0 21 0 0 0 0 0 25 -0.02 -0.43 -14.65 1250 0.4 0 2 0.47 0.03 2.05 1.5 0.5 0.3 1.7 0 0 1.7 0 0 0 0 0 0 0 0 0 0 0 1.5 0 0.11
23.433 1.41 0.33 -16.95 0 0.37 0.94 0 0 22 0 0 0 0 0 25 0.03 -0.46 -14.63 1250 0.4 0 2 0.47 0.03 2.05 1.5 0.5 0.3 1.7 0 0 1.7 0 0 0 0 0 0 0 0 0 0 0 1.5 0 0.11
23.533 1.41 0.33 -17.02 0 0.31 1 0 0 22 0 0 0 0 0 25 0.03 -0.43 -14.74 1250 0.4 0 2 0.47 0.03 2.05 1.5 0.5 0.3 1.7 0 0 1.7 0 0 0 0 0 0 0 0 0 0 0 1.5 0 0.11
23.633 1.41 0.33 -17.02 0.06 0.31 0.94 0 0 22 0 0 0 0 0 25 -0.06 -0.39 -14.82 1250 0.4 0 2 0.47 0.03 2.05 1.5 0.5 0.3 1.7 0 0 1.7 0 0 0 0 0 0 0 0 0 0 0 1.5 0 0.11
23.733 1.41 0.33 -17.04 0.06 0.31 0.88 0 0 20 0 0 0 0 0 25 -0.06 -0.37 -14.78 1250 0.4 0 2 0.47 0.03 2.05 1.5 0.5 0.3 1.7 0 0 1.7 0 0 0 0 0 0 0 0 0 0 0 1.5 0 0.11
23.833 1.41 0.33 -17.05 0.06 0.31 1 0 0 21 0 0 0 0 0 25 -0.01 -0.41 -14.97 1250 0.4 0 2 0.47 0.03 2.05 1.5 0.5 0.3 1.7 0 0 1.7 0 0 0 0 0 0 0 0 0 0 0 1.5 0 0.11
23.933 1.41 0.33 -17.05 0 0.31 0.94 0 0 22 0 0 0 0 0 25 0 -0.47 -15.01 1250 0.4 0 2 0.47 0.03 2.05 1.5 0.5 0.3 1.7 0 0 1.7 0 0 0 0 0 0 0 0 0 0 0 1.5 0 0.11
24.033 1.41 0.33 -17.14 0.13 0.31 0.94 0 0 21 0 0 0 0 0 25 -0.13 -0.46 -15.07 1250 0.4 0 2 0.47 0.03 2.05 1.5 0.5 0.3 1.7 0 0 1.7 0 0 0 0 0 0 0 0 0 0 0 1.5 0 0.11
24.133 1.41 0.33 -17.16 0 0.37 0.94 0 0 22 0 0 0 0 0 25 0.03 -0.49 -15.06 1250 0.4 0 2 0.47 0.03 2.05 1.5 0.5 0.3 1.7 0 0 1.7 0 0 0 0 0 0 0 0 0 0 0 1.5 0 0.11
24.233 1.41 0.33 -17.26 0 0.37 1 0 0 22 0 0 0 0 0 25 0.03 -0.49 -15.3 1250 0.4 0 2 0.47 0.03 2.05 1.5 0.5 0.3 1.7 0 0 1.7 0 0 0 0 0 0 0 0 0 0 0 1.5 0 0.11
24.333 1.41 0.33 -17.28 0 0.31 1 0 0 21 0 0 0 0 0 25 0 -0.41 -15.36 1250 0.4 0 2 0.47 0.03 2.05 1.5 0.5 0.3 1.7 0 0 1.7 0 0 0 0 0 0 0 0 0 0 0 1.5 0 0.11
24.433 1.41 0.33 -17.33 0 0.37 0.94 0 0 22 0 0 0 0 0 25 -0.01 -0.52 -15.32 1250 0.4 0 2 0.47 0.03 2.05 1.5 0.5 0.3 1.7 0 0 1.7 0 0 0 0 0 0 0 0 0 0 0 1.5 0 0.11
24.533 1.41 0.33 -17.34 0 0.44 1.06 0 0 22 0 0 0 0 0 25 0.03 -0.58 -15.53 1250 0.4 0 2 0.47 0.03 2.05 1.5 0.5 0.3 1.7 0 0 1.7 0 0 0 0 0 0 0 0 0 0 0 1.5 0 0.11
24.633 1.41 0.33 -17.39 0.06 0.37 0.88 0 0 21 0 0 0 0 0 25 -0.04 -0.5 -15.59 1250 0.4 0 2 0.47 0.03 2.05 1.5 0.5 0.3 1.7 0 0 1.7 0 0 0 0 0 0 0 0 0 0 0 1.5 0 0.11
24.733 1.41 0.33 -17.4 0.13 0.31 0.94 0 0 21 0 0 0 0 0 25 -0.12 -0.4 -15.63 1250 0.4 0 2 0.47 0.03 2.05 1.5 0.5 0.3 1.7 0 0 1.7 0 0 0 0 0 0 0 0 0 0 0 1.5 0 0.11
24.833 1.41 0.33 -17.49 0 0.37 1 0 0 22 0 0 0 0 0 25 -0.02 -0.51 -15.69 1250 0.4 0 2 0.47 0.03 2.05 1.5 0.5 0.3 1.7 0 0 1.7 0 0 0 0 0 0 0 0 0 0 0 1.5 0 0.11
24.933 1.41 0.34 -17.5 0.13 0.37 1 0 0 19 0 0 0 0 0 25 -0.12 -0.46 -15.77 1250 0.4 0 2 0.47 0.03 2.05 1.5 0.5 0.3 1.7 0 0 1.7 0 0 0 0 0 0 0 0 0 0 0 1.5 0 0.11
25.033 1.41 0.34 -17.59 0 0.44 0.94 0 0 22 0 0 0 0 0 25 0 -0.51 -15.93 1250 0.4 0 2 0.47 0.03 2.05 1.5 0.5 0.3 1.7 0 0 1.7 0 0 0 0 0 0 0 0 0 0 0 1.5 0 0.11
25.133 1.41 0.34 -17.59 0.06 0.44 0.94 0 0 22 0 0 0 0 0 25 -0.03 -0.56 -15.86 1250 0.4 0 2 0.47 0.03 2.05 1.5 0.5 0.3 1.7 0 0 1.7 0 0 0 0 0 0 0 0 0 0 0 1.5 0 0.11
25.233 1.41 0.34 -17.63 0.06 0.31 0.94 0 0 21 0 0 0 0 0 25 -0.03 -0.44 -16 1250 0.4 0 2 0.47 0.03 2.05 1.5 0.5 0.3 1.7 0 0 1.7 0 0 0 0 0 0 0 0 0 0 0 1.5 0 0.11
25.333 1.41 0.34 -17.61 0.06 0.31 1 0 0 19 0 0 0 0 0 25 -0.08 -0.48 -16.05 1250 0.4 0 2 0.47 0.03 2.05 1.5 0.5 0.3 1.7 0 0 1.7 0 0 0 0 0 0 0 0 0 0 0 1.5 0 0.11
25.433 1.4 0.34 -17.61 0.06 0.37 1 0 0 22 0 0 0 0 0 25 -0.03 -0.49 -16.15 1250 0.4 0 2 0.47 0.03 2.05 1.5 0.5 0.3 1.7 0 0 1.7 0 0 0 0 0 0 0 0 0 0 0 1.5 0 0.11
25.533 1.41 0.34 -17.63 0.06 0.37 1.06 0 0 22 0 0 0 0 0 25 -0.07 -0.5 -16.29 1250 0.4 0 2 0.47 0.03 2.05 1.5 0.5 0.3 1.7 0 0 1.7 0 0 0 0 0 0 0 0 0 0 0 1.5 0 0.11
25.633 1.41 0.33 -17.63 0.13 0.37 1 0 0 20 0 0 0 0 0 25 -0.03 -0.55 -16.39 1250 0.4 0 2 0.47 0.03 2.05 1.5 0.5 0.3 1.7 0 0 1.7 0 0 0 0 0 0 0 0 0 0 0 1.5 0 0.11
25.733 1.41 0.34 -17.7 0.06 0.37 1 0 0 22 0 0 0 0 0 25 -0.08 -0.51 -16.37 1250 0.4 0 2 0.47 0.03 2.05 1.5 0.5 0.3 1.7 0 0 1.7 0 0 0 0 0 0 0 0 0 0 0 1.5 0 0.11
25.833 1.41 0.34 -17.71 0.06 0.37 0.88 0 0 21 0 0 0 0 0 25 -0.08 -0.51 -16.37 1250 0.4 0 2 0.47 0.03 2.05 1.5 0.5 0.3 1.7 0 0 1.7 0 0 0 0 0 0 0 0 0 0 0 1.5 0 0.11
25.933 1.41 0.34 -17.8 0 0.44 0.94 0 0 22 0 0 0 0 0 25 0 -0.58 -16.49 1250 0.4 0 2 0.47 0.03 2.05 1.5 0.5 0.3 1.7 0 0 1.7 0 0 0 0 0 0 0 0 0 0 0 1.5 0 0.11
26.033 1.42 0.34 -17.82 0.06 0.44 1 0 0 21 0 0 0 0 0 25 0.03 -0.52 -16.59 1250 0.4 0 2 0.47 0.03 2.05 1.5 0.5 0.3 1.7 0 0 1.7 0 0 0 0 0 0 0 0 0 0 0 1.5 0 0.11
26.133 1.42 0.34 -17.9 0.06 0.44 0.88 0 0 22 0 0 0 0 0 25 -0.02 -0.5 -16.6 1250 0.4 0 2 0.47 0.03 2.05 1.5 0.5 0.3 1.7 0 0 1.7 0 0 0 0 0 0 0 0 0 0 0 1.5 0 0.11
26.233 1.42 0.34 -17.9 0.06 0.37 0.94 0 0 22 0 0 0 0 0 25 0.02 -0.45 -16.72 1250 0.4 0 2 0.47 0.03 2.05 1.5 0.5 0.3 1.7 0 0 1.7 0 0 0 0 0 0 0 0 0 0 0 1.5 0 0.11
26.333 1.42 0.34 -17.95 0 0.37 1 0 0 21 0 0 0 0 0 25 -0.01 -0.56 -16.92 1250 0.4 0 2 0.47 0.03 2.05 1.5 0.5 0.3 1.7 0 0 1.7 0 0 0 0 0 0 0 0 0 0 0 1.5 0 0.11
26.433 1.42 0.34 -17.93 0.06 0.25 1 0 0 22 0 0 0 0 0 20 0.77 0.06 -21.46 1209 0.4 0 2 0.47 0.03 2.05 1.5 0.5 0.3 1.7 0 0 1.7 0 0 0 0 0 0 0 0 0 0 0 1.5 0 0.11
26.533 1.42 0.33 -17.97 0.06 0.31 1 0 0 21 0 0 0 0 0 20 0.78 -0.04 -23.63 1209 0.4 0 2 0.47 0.03 2.05 1.5 0.5 0.3 1.7 0 0 1.7 0 0 0 0 0 0 0 0 0 0 0 1.5 0 0.11
26.633 1.42 0.33 -17.96 0 0.31 1.06 0 0 21 0 0 0 0 0 20 0.81 0.02 -24.07 1209 0.4 0 2 0.47 0.03 2.05 1.5 0.5 0.3 1.7 0 0 1.7 0 0 0 0 0 0 0 0 0 0 0 1.5 0 0.11
26.734 1.42 0.33 -18.04 0 0.37 1 0 0 22 0 0 0 0 0 20 0.83 -0.51 -21.35 1209 0.4 0 2 0.47 0.03 2.05 1.5 0.5 0.3 1.7 0 0 1.7 0 0 0 0 0 0 0 0 0 0 0 1.5 0 0.11
26.833 1.42 0.33 -18.03 0 0.37 0.94 0 0 22 0 0 0 0 0 20 0.82 -0.05 -23.1 1209 0.4 0 2 0.47 0.03 2.05 1.5 0.5 0.3 1.7 0 0 1.7 0 0 0 0 0 0 0 0 0 0 0 1.5 0 0.11
26.933 1.42 0.34 -18.03 0.06 0.44 1 0 0 21 0 0 0 0 0 20 0.82 -0.08 -25 1209 0.4 0 2 0.47 0.03 2.05 1.5 0.5 0.3 1.7 0 0 1.7 0 0 0 0 0 0 0 0 0 0 0 1.5 0 0.11
27.033 1.41 0.34 -18.03 0.62 1.87 0.44 0 0 22 0 0 0 0 0 20 1.58 -2.23 -26.41 1209 0.4 0 2 0.47 0.03 2.05 1.5 0.5 0.3 1.7 0 0 1.7 0 0 0 0 0 0 0 0 0 0 0 1.5 0 0.11
27.133 1.42 0.34 -17.97 1.81 1.44 -0.13 0 0 22 0 0 0 0 0 21 0.13 -1.3 -23.39 1210 0.4 0 2 0.47 0.03 2.05 1.5 0.5 0.3 1.7 0 0 1.7 0 0 0 0 0 0 0 0 0 0 0 1.5 0 0.11
27.234 1.43 0.35 -17.92 -2 -1 0.94 0 0 22 0 0 0 0 0 20 4.18 2.41 -25.1 1209 0.4 0 2 0.47 0.03 2.05 1.5 0.5 0.3 1.7 0 0 1.7 0 0 0 0 0 0 0 0 0 0 0 1.5 0 0.11
27.333 1.43 0.34 -17.8 -2.31 -1.62 1.62 0 0 23 0 0 0 0 0 20 3.13 1.45 -26.97 1209 0.4 0 2 0.47 0.03 2.05 1.5 0.5 0.3 1.7 0 0 1.7 0 0 0 0 0 0 0 0 0 0 0 1.5 0 0.11
27.433 1.41 0.35 -17.74 2.06 -0.88 2.87 0 0 22 0 0 0 0 0 20 -1.02 0.21 -25.92 1209 0.4 0 2 0.47 0.03 2.05 1.5 0.5 0.3 1.7 0 0 1.7 0 0 0 0 0 0 0 0 0 0 0 1.5 0 0.11
27.534 1.4 0.33 -17.68 0 -0.31 0.94 0 0 22 0 0 0 0 0 20 1.35 0.37 -27.72 1209 0.4 0 2 0.47 0.03 2.05 1.5 0.5 0.3 1.7 0 0 1.7 0 0 0 0 0 0 0 0 0 0 0 1.5 0 0.11
27.633 1.4 0.35 -17.59 0.69 -0.75 0 0 0 22 0 0 0 0 0 21 0.33 0.99 -27.36 1210 0.4 0 2 0.47 0.03 2.05 1.5 0.5 0.3 1.7 0 0 1.7 0 0 0 0 0 0 0 0 0 0 0 1.5 0 0.11
27.733 1.43 0.35 -17.46 -1.69 0.5 1.37 0 0 22 0 0 0 0 0 20 3.8 -0.17 -27.4 1209 0.4 0 2 0.47 0.03 2.05 1.5 0.5 0.3 1.7 0 0 1.7 0 0 0 0 0 0 0 0 0 0 0 1.5 0 0.11
27.833 1.45 0.35 -17.31 0.25 -0.44 4.12 0 0 22 0 0 0 0 0 21 -1.12 1.97 -32.18 1213 0.4 0 2 0.47 0.03 2.05 1.5 0.5 0.3 1.7 0 0 1.7 0 0 0 0 0 0 0 0 0 0 0 1.5 0 0.11
27.934 1.38 0.36 -17.25 1.94 -0.56 4.19 0 0 22 0 0 0 0 0 21 2.22 1.7 -25.86 1216 0.4 0 2 0.47 0.03 2.05 1.5 0.5 0.3 1.7 0 0 1.7 0 0 0 0 0 0 0 0 0 0 0 1.5 0 0.11
28.034 1.37 0.36 -17.17 -4.19 -1.75 0.62 0 0 22 0 0 0 0 0 22 3.3 0.68 -25.49 1221 0.4 0 2 0.47 0.03 2.05 1.5 0.5 0.3 1.7 0 0 1.7 0 0 0 0 0 0 0 0 0 0 0 1.5 0 0.11
28.134 1.4 0.35 -17.11 3.19 0.62 -4 0 0 22 0 0 0 0 0 24 -0.67 -0.3 -25.14 1245 0.4 0 2 0.47 0.03 2.05 1.5 0.5 0.3 1.7 0 0 1.7 0 0 0 0 0 0 0 0 0 0 0 1.5 0 0.11
28.234 1.4 0.35 -17.04 -1 0.75 -2.12 0 0 22 0 0 0 0 0 24 4.58 -0.45 -29.11 1245 0.4 0 2 0.47 0.03 2.05 1.5 0.5 0.3 1.7 0 0 1.7 0 0 0 0 0 0 0 0 0 0 0 1.5 0 0.11
28.334 1.44 0.33 -16.94 0.31 2.94 -0.56 0 0 22 0 0 0 0 0 27 -1.35 -2.23 -30.86 1275 0.4 0 2 0.47 0.03 2.05 1.5 0.5 0.3 1.7 0 0 1.7 0 0 0 0 0 0 0 0 0 0 0 1.5 0 0.11
28.434 1.46 0.34 -16.85 -3.25 -0.13 2.62 0 0 23 0 0 0 0 0 27 4.04 -0.94 -34.16 1273 0.4 0 2 0.47 0.03 2.05 1.5 0.5 0.3 1.7 0 0 1.7 0 0 0 0 0 0 0 0 0 0 0 1.5 0 0.11
28.534 1.46 0.34 -16.73 -2.81 0.56 -0.37 0 0 22 0 0 0 0 0 27 1.92 -1.25 -33.32 1274 0.4 0 2 0.47 0.03 2.05 1.5 0.5 0.3 1.7 0 0 1.7 0 0 0 0 0 0 0 0 0 0 0 1.5 0 0.11
28.634 1.45 0.33 -16.67 -7.5 0.56 2 0 0 22 0 0 0 0 0 28 5.31 -1.03 -34.86 1285 0.4 0 2 0.47 0.03 2.05 1.5 0.5 0.3 1.7 0 0 1.7 0 0 0 0 0 0 0 0 0 0 0 1.5 0 0.11
28.734 1.43 0.32 -16.56 -4.56 -0.88 2.75 0 0 22 0 0 0 0 0 30 1.54 0.09 -36.48 1303 0.4 0 2 0.47 0.03 2.05 1.5 0.5 0.3 1.7 0 0 1.7 0 0 0 0 0 0 0 0 0 0 0 1.5 0 0.11
28.833 1.41 0.31 -16.47 -3.56 -0.56 -6.31 0 0 22 0 0 0 0 0 30 6.07 1.28 -33.83 1303 0.4 0 2 0.47 0.03 2.05 1.5 0.5 0.3 1.7 0 0 1.7 0 0 0 0 0 0 0 0 0 0 0 1.5 0 0.11
28.933 1.44 0.32 -16.35 0.62 0.75 4.69 0 0 23 0 0 0 0 0 30 -1.42 -2.88 -30.9 1303 0.4 0 2 0.47 0.03 2.05 1.5 0.5 0.3 1.7 0 0 1.7 0 0 0 0 0 0 0 0 0 0 0 1.5 0 0.11
29.033 1.4 0.27 -16.29 2.06 -1.19 -5.62 0 0 22 0 0 0 0 0 31 -0.19 2.58 -26.91 1317 0.4 0 2 0.47 0.03 2.05 1.5 0.5 0.3 1.7 0 0 1.7 0 0 0 0 0 0 0 0 0 0 0 1.5 0 0.11
29.134 1.4 0.22 -16.11 -5.31 1.25 -1.31 0 0 22 0 0 0 0 0 31 3.82 -1.25 -38.86 1317 0.4 0 2 0.47 0.03 2.05 1.5 0.5 0.3 1.7 0 0 1.7 0 0 0 0 0 0 0 0 0 0 0 1.5 0 0.11
29.234 1.46 0.21 -16.05 -3.19 -4.25 10.56 0 0 23 0 0 0 0 0 31 -2.36 5.24 -32.21 1315 0.4 0 2 0.47 0.03 2.05 1.5 0.5 0.3 1.7 0 0 1.7 0 0 0 0 0 0 0 0 0 0 0 1.5 0 0.11
29.334 1.46 0.22 -15.93 -4 -3.5 4.5 0 0 23 0 0 0 0 0 34 3.02 -0.64 -33.97 1345 0.4 0 2 0.47 0.03 2.05 1.5 0.5 0.3 1.7 0 0 1.7 0 0 0 0 0 0 0 0 0 0 0 1.5 0 0.11
29.434 1.44 0.16 -15.81 -12.56 -2.75 8.5 0 0 23 0 0 0 0 0 34 3.2 -0.08 -37.74 1345 0.4 0 2 0.47 0.03 2.05 1.5 0.5 0.3 1.7 0 0 1.7 0 0 0 0 0 0 0 0 0 0 0 1.5 0 0.11
29.534 1.53 0.16 -15.74 -2 7.25 -4.12 0 0 22 0 0 0 0 0 34 7.58 -0.74 -34.67 1345 0.4 0 2 0.47 0.03 2.05 1.5 0.5 0.3 1.7 0 0 1.7 0 0 0 0 0 0 0 0 0 0 0 1.5 0 0.11
29.634 1.56 0.21 -15.73 -4.69 -0.62 -1.31 0 0 22 0 0 0 0 0 34 0.58 -3.52 -33.03 1347 0.4 0 2 0.47 0.03 2.05 1.5 0.5 0.3 1.7 0 0 1.7 0 0 0 0 0 0 0 0 0 0 0 1.5 0 0.11
29.734 1.52 0.14 -15.63 3.94 0.37 -2.62 0 0 22 0 0 0 0 0 34 0.93 -2.57 -33.54 1347 0.4 0 2 0.47 0.03 2.05 1.5 0.5 0.3 1.7 0 0 1.7 0 0 0 0 0 0 0 0 0 0 0 1.5 0 0.11
29.834 1.6 0.18 -15.56 6.31 -0.81 8.56 0 0 23 0 0 0 0 0 36 -10.07 0.37 -35.52 1368 0.4 0 2 0.47 0.03 2.05 1.5 0.5 0.3 1.7 0 0 1.7 0 0 0 0 0 0 0 0 0 0 0 1.5 0 0.11
29.934 1.56 0.16 -15.4 -4.31 9.56 1.31 0 0 23 0 0 0 0 0 37 8.25 1.42 -46.8 1374 0.4 0 2 0.47 0.03 2.05 1.5 0.5 0.3 1.7 0 0 1.7 0 0 0 0 0 0 0 0 0 0 0 1.5 0 0.11
30.034 1.71 0.23 -15.36 18.81 9.5 -10.44 0 0 23 0 0 0 0 0 37 -11.03 -5.53 -32.74 1374 0.4 0 2 0.47 0.03 2.05 1.5 0.5 0.3 1.7 0 0 1.7 0 0 0 0 0 0 0 0 0 0 0 1.5 0 0.11
30.134 1.76 0.35 -15.25 12.25 10 -16.44 0 0 23 0 0 0 0 0 37 -6.27 5.23 -39.39 1375 0.4 0 2 0.47 0.03 2.05 1.5 0.5 0.3 1.7 0 0 1.7 0 0 0 0 0 0 0 0 0 0 0 1.5 0 0.11
30.234 1.66 0.08 -15.28 10.13 7.37 2.25 0 0 23 0 0 0 0 0 37 -0.76 5.24 -33.86 1375 0.4 0 2 0.47 0.03 2.05 1.5 0.5 0.3 1.7 0 0 1.7 0 0 0 0 0 0 0 0 0 0 0 1.5 0 0.11
30.334 1.78 0.32 -15.26 20.62 -1.31 -9.69 0 0 24 0 0 0 0 0 38 2.67 5.93 -38.81 1388 0.4 0 2 0.47 0.03 2.05 1.5 0.5 0.3 1.7 0 0 1.7 0 0 0 0 0 0 0 0 0 0 0 1.5 0 0.11
30.434 1.71 0.3 -15.25 -3.94 -3.81 1.69 0 0 24 0 0 0 0 0 38 4.6 0.25 -35.81 1387 0.4 0 2 0.47 0.03 2.05 1.5 0.5 0.3 1.7 0 0 1.7 0 0 0 0 0 0 0 0 0 0 0 1.5 0 0.11
30.534 1.76 0.55 -15.31 -19.31 4.56 7.75 0 0 23 0 0 0 0 0 38 1.28 -6.91 -30.71 1388 0.4 0 2 0.47 0.03 2.05 1.5 0.5 0.3 1.7 0 0 1.7 0 0 0 0 0 0 0 0 0 0 0 1.5 0 0.11
