time roll pitch yaw roll_d pitch_d yaw_d longitude latitude height roll_t pitch_t yaw_t longitude_t latitude_t height_t roll_signal pitch_signal yaw_signal throttle Kp_r_d Ki_r_d Kd_r_d Kp_p_d Ki_p_d Kd_p_d Kp_y_d Ki_y_d Kd_y_d Kp_r Ki_r Kd_r Kp_p Ki_p Kd_p Kp_y Ki_y Kd_y Kp_lon Ki_lon Kd_lon Kp_lat Ki_lat Kd_lat Kp_h Ki_h Kd_h
0 0 0 0 0 0 0 0 0 0 0 0 0 0 0 25 0 0 0 1250 0.5 0.1 0.3 0.5 0.1 0.3 1.5 0.5 0.3 1.7 0 0 1.7 0 0 0 0 0 0 0 0 0 0 0 1.5 0 0.11
0 0 0 0 0 0 0 0 0 0 0 0 0 0 0 25 0 0 0 1250 0.5 0.1 0.3 0.5 0.1 0.3 1.5 0.5 0.3 1.7 0 0 1.7 0 0 0 0 0 0 0 0 0 0 0 1.5 0 0.11
0 0 0 0 0 0 0 0 0 0 0 0 0 0 0 25 0 0 0 1250 0.5 0.1 0.3 0.5 0.1 0.3 1.5 0.5 0.3 1.7 0 0 1.7 0 0 0 0 0 0 0 0 0 0 0 1.5 0 0.11
0 0 0 0 0 0 0 0 0 0 0 0 0 0 0 25 0 0 0 1250 0.5 0.1 0.3 0.5 0.1 0.3 1.5 0.5 0.3 1.7 0 0 1.7 0 0 0 0 0 0 0 0 0 0 0 1.5 0 0.11
0 0 0 0 0 0 0 0 0 0 0 0 0 0 0 25 0 0 0 1250 0.5 0.1 0.3 0.5 0.1 0.3 1.5 0.5 0.3 1.7 0 0 1.7 0 0 0 0 0 0 0 0 0 0 0 1.5 0 0.11
0 0 0 0 0 0 0 0 0 0 0 0 0 0 0 25 0 0 0 1250 0.5 0.1 0.3 0.5 0.1 0.3 1.5 0.5 0.3 1.7 0 0 1.7 0 0 0 0 0 0 0 0 0 0 0 1.5 0 0.11
0 0 0 0 0 0 0 0 0 0 0 0 0 0 0 25 0 0 0 1250 0.5 0.1 0.3 0.5 0.1 0.3 1.5 0.5 0.3 1.7 0 0 1.7 0 0 0 0 0 0 0 0 0 0 0 1.5 0 0.11
0 0 0 0 0 0 0 0 0 0 0 0 0 0 0 25 0 0 0 1250 0.5 0.1 0.3 0.5 0.1 0.3 1.5 0.5 0.3 1.7 0 0 1.7 0 0 0 0 0 0 0 0 0 0 0 1.5 0 0.11
0 0 0 0 0 0 0 0 0 0 0 0 0 0 0 25 0 0 0 1250 0.5 0.1 0.3 0.5 0.1 0.3 1.5 0.5 0.3 1.7 0 0 1.7 0 0 0 0 0 0 0 0 0 0 0 1.5 0 0.11
0 0 0 0 0 0 0 0 0 0 0 0 0 0 0 25 0 0 0 1250 0.5 0.1 0.3 0.5 0.1 0.3 1.5 0.5 0.3 1.7 0 0 1.7 0 0 0 0 0 0 0 0 0 0 0 1.5 0 0.11
0 0 0 0 0 0 0 0 0 0 0 0 0 0 0 25 0 0 0 1250 0.5 0.1 0.3 0.5 0.1 0.3 1.5 0.5 0.3 1.7 0 0 1.7 0 0 0 0 0 0 0 0 0 0 0 1.5 0 0.11
0 0 0 0 0 0 0 0 0 0 0 0 0 0 0 25 0 0 0 1250 0.5 0.1 0.3 0.5 0.1 0.3 1.5 0.5 0.3 1.7 0 0 1.7 0 0 0 0 0 0 0 0 0 0 0 1.5 0 0.11
0 0 0 0 0 0 0 0 0 0 0 0 0 0 0 25 0 0 0 1250 0.5 0.1 0.3 0.5 0.1 0.3 1.5 0.5 0.3 1.7 0 0 1.7 0 0 0 0 0 0 0 0 0 0 0 1.5 0 0.11
0 0 0 0 0 0 0 0 0 0 0 0 0 0 0 25 0 0 0 1250 0.5 0.1 0.3 0.5 0.1 0.3 1.5 0.5 0.3 1.7 0 0 1.7 0 0 0 0 0 0 0 0 0 0 0 1.5 0 0.11
0 0 0 0 0 0 0 0 0 0 0 0 0 0 0 25 0 0 0 1250 0.5 0.1 0.3 0.5 0.1 0.3 1.5 0.5 0.3 1.7 0 0 1.7 0 0 0 0 0 0 0 0 0 0 0 1.5 0 0.11
0 0 0 0 0 0 0 0 0 0 0 0 0 0 0 25 0 0 0 1250 0.5 0.1 0.3 0.5 0.1 0.3 1.5 0.5 0.3 1.7 0 0 1.7 0 0 0 0 0 0 0 0 0 0 0 1.5 0 0.11
0 0 0 0 0 0 0 0 0 0 0 0 0 0 0 25 0 0 0 1250 0.5 0.1 0.3 0.5 0.1 0.3 1.5 0.5 0.3 1.7 0 0 1.7 0 0 0 0 0 0 0 0 0 0 0 1.5 0 0.11
0 0 0 0 0 0 0 0 0 0 0 0 0 0 0 25 0 0 0 1250 0.5 0.1 0.3 0.5 0.1 0.3 1.5 0.5 0.3 1.7 0 0 1.7 0 0 0 0 0 0 0 0 0 0 0 1.5 0 0.11
0 0 0 0 0 0 0 0 0 0 0 0 0 0 0 25 0 0 0 1250 0.5 0.1 0.3 0.5 0.1 0.3 1.5 0.5 0.3 1.7 0 0 1.7 0 0 0 0 0 0 0 0 0 0 0 1.5 0 0.11
0 0 0 0 0 0 0 0 0 0 0 0 0 0 0 25 0 0 0 1250 0.5 0.1 0.3 0.5 0.1 0.3 1.5 0.5 0.3 1.7 0 0 1.7 0 0 0 0 0 0 0 0 0 0 0 1.5 0 0.11
0 0 0 0 0 0 0 0 0 0 0 0 0 0 0 25 0 0 0 1250 0.5 0.1 0.3 0.5 0.1 0.3 1.5 0.5 0.3 1.7 0 0 1.7 0 0 0 0 0 0 0 0 0 0 0 1.5 0 0.11
0 0 0 0 0 0 0 0 0 0 0 0 0 0 0 25 0 0 0 1250 0.5 0.1 0.3 0.5 0.1 0.3 1.5 0.5 0.3 1.7 0 0 1.7 0 0 0 0 0 0 0 0 0 0 0 1.5 0 0.11
0 0 0 0 0 0 0 0 0 0 0 0 0 0 0 25 0 0 0 1250 0.5 0.1 0.3 0.5 0.1 0.3 1.5 0.5 0.3 1.7 0 0 1.7 0 0 0 0 0 0 0 0 0 0 0 1.5 0 0.11
0 0 0 0 0 0 0 0 0 0 0 0 0 0 0 25 0 0 0 1250 0.5 0.1 0.3 0.5 0.1 0.3 1.5 0.5 0.3 1.7 0 0 1.7 0 0 0 0 0 0 0 0 0 0 0 1.5 0 0.11
0 0 0 0 0 0 0 0 0 0 0 0 0 0 0 25 0 0 0 1250 0.5 0.1 0.3 0.5 0.1 0.3 1.5 0.5 0.3 1.7 0 0 1.7 0 0 0 0 0 0 0 0 0 0 0 1.5 0 0.11
0 0 0 0 0 0 0 0 0 0 0 0 0 0 0 25 0 0 0 1250 0.5 0.1 0.3 0.5 0.1 0.3 1.5 0.5 0.3 1.7 0 0 1.7 0 0 0 0 0 0 0 0 0 0 0 1.5 0 0.11
0 0 0 0 0 0 0 0 0 0 0 0 0 0 0 25 0 0 0 1250 0.5 0.1 0.3 0.5 0.1 0.3 1.5 0.5 0.3 1.7 0 0 1.7 0 0 0 0 0 0 0 0 0 0 0 1.5 0 0.11
0 0 0 0 0 0 0 0 0 0 0 0 0 0 0 25 0 0 0 1250 0.5 0.1 0.3 0.5 0.1 0.3 1.5 0.5 0.3 1.7 0 0 1.7 0 0 0 0 0 0 0 0 0 0 0 1.5 0 0.11
0 0 0 0 0 0 0 0 0 0 0 0 0 0 0 25 0 0 0 1250 0.5 0.1 0.3 0.5 0.1 0.3 1.5 0.5 0.3 1.7 0 0 1.7 0 0 0 0 0 0 0 0 0 0 0 1.5 0 0.11
0 0 0 0 0 0 0 0 0 0 0 0 0 0 0 25 0 0 0 1250 0.5 0.1 0.3 0.5 0.1 0.3 1.5 0.5 0.3 1.7 0 0 1.7 0 0 0 0 0 0 0 0 0 0 0 1.5 0 0.11
0 0 0 0 0 0 0 0 0 0 0 0 0 0 0 25 0 0 0 1250 0.5 0.1 0.3 0.5 0.1 0.3 1.5 0.5 0.3 1.7 0 0 1.7 0 0 0 0 0 0 0 0 0 0 0 1.5 0 0.11
0 0 0 0 0 0 0 0 0 0 0 0 0 0 0 25 0 0 0 1250 0.5 0.1 0.3 0.5 0.1 0.3 1.5 0.5 0.3 1.7 0 0 1.7 0 0 0 0 0 0 0 0 0 0 0 1.5 0 0.11
0 0 0 0 0 0 0 0 0 0 0 0 0 0 0 25 0 0 0 1250 0.5 0.1 0.3 0.5 0.1 0.3 1.5 0.5 0.3 1.7 0 0 1.7 0 0 0 0 0 0 0 0 0 0 0 1.5 0 0.11
0 0 0 0 0 0 0 0 0 0 0 0 0 0 0 25 0 0 0 1250 0.5 0.1 0.3 0.5 0.1 0.3 1.5 0.5 0.3 1.7 0 0 1.7 0 0 0 0 0 0 0 0 0 0 0 1.5 0 0.11
0 0 0 0 0 0 0 0 0 0 0 0 0 0 0 25 0 0 0 1250 0.5 0.1 0.3 0.5 0.1 0.3 1.5 0.5 0.3 1.7 0 0 1.7 0 0 0 0 0 0 0 0 0 0 0 1.5 0 0.11
0 0 0 0 0 0 0 0 0 0 0 0 0 0 0 25 0 0 0 1250 0.5 0.1 0.3 0.5 0.1 0.3 1.5 0.5 0.3 1.7 0 0 1.7 0 0 0 0 0 0 0 0 0 0 0 1.5 0 0.11
0 0 0 0 0 0 0 0 0 0 0 0 0 0 0 25 0 0 0 1250 0.5 0.1 0.3 0.5 0.1 0.3 1.5 0.5 0.3 1.7 0 0 1.7 0 0 0 0 0 0 0 0 0 0 0 1.5 0 0.11
0 0 0 0 0 0 0 0 0 0 0 0 0 0 0 25 0 0 0 1250 0.5 0.1 0.3 0.5 0.1 0.3 1.5 0.5 0.3 1.7 0 0 1.7 0 0 0 0 0 0 0 0 0 0 0 1.5 0 0.11
0 0 0 0 0 0 0 0 0 0 0 0 0 0 0 25 0 0 0 1250 0.5 0.1 0.3 0.5 0.1 0.3 1.5 0.5 0.3 1.7 0 0 1.7 0 0 0 0 0 0 0 0 0 0 0 1.5 0 0.11
0 0 0 0 0 0 0 0 0 0 0 0 0 0 0 25 0 0 0 1250 0.5 0.1 0.3 0.5 0.1 0.3 1.5 0.5 0.3 1.7 0 0 1.7 0 0 0 0 0 0 0 0 0 0 0 1.5 0 0.11
0 0 0 0 0 0 0 0 0 0 0 0 0 0 0 25 0 0 0 1250 0.5 0.1 0.3 0.5 0.1 0.3 1.5 0.5 0.3 1.7 0 0 1.7 0 0 0 0 0 0 0 0 0 0 0 1.5 0 0.11
0 0 0 0 0 0 0 0 0 0 0 0 0 0 0 25 0 0 0 1250 0.5 0.1 0.3 0.5 0.1 0.3 1.5 0.5 0.3 1.7 0 0 1.7 0 0 0 0 0 0 0 0 0 0 0 1.5 0 0.11
0 0 0 0 0 0 0 0 0 0 0 0 0 0 0 25 0 0 0 1250 0.5 0.1 0.3 0.5 0.1 0.3 1.5 0.5 0.3 1.7 0 0 1.7 0 0 0 0 0 0 0 0 0 0 0 1.5 0 0.11
0 0 0 0 0 0 0 0 0 0 0 0 0 0 0 25 0 0 0 1250 0.5 0.1 0.3 0.5 0.1 0.3 1.5 0.5 0.3 1.7 0 0 1.7 0 0 0 0 0 0 0 0 0 0 0 1.5 0 0.11
0 0 0 0 0 0 0 0 0 0 0 0 0 0 0 25 0 0 0 1250 0.5 0.1 0.3 0.5 0.1 0.3 1.5 0.5 0.3 1.7 0 0 1.7 0 0 0 0 0 0 0 0 0 0 0 1.5 0 0.11
0 0 0 0 0 0 0 0 0 0 0 0 0 0 0 25 0 0 0 1250 0.5 0.1 0.3 0.5 0.1 0.3 1.5 0.5 0.3 1.7 0 0 1.7 0 0 0 0 0 0 0 0 0 0 0 1.5 0 0.11
0 0 0 0 0 0 0 0 0 0 0 0 0 0 0 25 0 0 0 1250 0.5 0.1 0.3 0.5 0.1 0.3 1.5 0.5 0.3 1.7 0 0 1.7 0 0 0 0 0 0 0 0 0 0 0 1.5 0 0.11
0 0 0 0 0 0 0 0 0 0 0 0 0 0 0 25 0 0 0 1250 0.5 0.1 0.3 0.5 0.1 0.3 1.5 0.5 0.3 1.7 0 0 1.7 0 0 0 0 0 0 0 0 0 0 0 1.5 0 0.11
0 0 0 0 0 0 0 0 0 0 0 0 0 0 0 25 0 0 0 1250 0.5 0.1 0.3 0.5 0.1 0.3 1.5 0.5 0.3 1.7 0 0 1.7 0 0 0 0 0 0 0 0 0 0 0 1.5 0 0.11
0 0 0 0 0 0 0 0 0 0 0 0 0 0 0 25 0 0 0 1250 0.5 0.1 0.3 0.5 0.1 0.3 1.5 0.5 0.3 1.7 0 0 1.7 0 0 0 0 0 0 0 0 0 0 0 1.5 0 0.11
0 0 0 0 0 0 0 0 0 0 0 0 0 0 0 25 0 0 0 1250 0.5 0.1 0.3 0.5 0.1 0.3 1.5 0.5 0.3 1.7 0 0 1.7 0 0 0 0 0 0 0 0 0 0 0 1.5 0 0.11
0 0 0 0 0 0 0 0 0 0 0 0 0 0 0 25 0 0 0 1250 0.5 0.1 0.3 0.5 0.1 0.3 1.5 0.5 0.3 1.7 0 0 1.7 0 0 0 0 0 0 0 0 0 0 0 1.5 0 0.11
0 0 0 0 0 0 0 0 0 0 0 0 0 0 0 25 0 0 0 1250 0.5 0.1 0.3 0.5 0.1 0.3 1.5 0.5 0.3 1.7 0 0 1.7 0 0 0 0 0 0 0 0 0 0 0 1.5 0 0.11
0 0 0 0 0 0 0 0 0 0 0 0 0 0 0 25 0 0 0 1250 0.5 0.1 0.3 0.5 0.1 0.3 1.5 0.5 0.3 1.7 0 0 1.7 0 0 0 0 0 0 0 0 0 0 0 1.5 0 0.11
0 0 0 0 0 0 0 0 0 0 0 0 0 0 0 25 0 0 0 1250 0.5 0.1 0.3 0.5 0.1 0.3 1.5 0.5 0.3 1.7 0 0 1.7 0 0 0 0 0 0 0 0 0 0 0 1.5 0 0.11
0 0 0 0 0 0 0 0 0 0 0 0 0 0 0 25 0 0 0 1250 0.5 0.1 0.3 0.5 0.1 0.3 1.5 0.5 0.3 1.7 0 0 1.7 0 0 0 0 0 0 0 0 0 0 0 1.5 0 0.11
0 0 0 0 0 0 0 0 0 0 0 0 0 0 0 25 0 0 0 1250 0.5 0.1 0.3 0.5 0.1 0.3 1.5 0.5 0.3 1.7 0 0 1.7 0 0 0 0 0 0 0 0 0 0 0 1.5 0 0.11
0 0 0 0 0 0 0 0 0 0 0 0 0 0 0 25 0 0 0 1250 0.5 0.1 0.3 0.5 0.1 0.3 1.5 0.5 0.3 1.7 0 0 1.7 0 0 0 0 0 0 0 0 0 0 0 1.5 0 0.11
0 0 0 0 0 0 0 0 0 0 0 0 0 0 0 25 0 0 0 1250 0.5 0.1 0.3 0.5 0.1 0.3 1.5 0.5 0.3 1.7 0 0 1.7 0 0 0 0 0 0 0 0 0 0 0 1.5 0 0.11
0 0 0 0 0 0 0 0 0 0 0 0 0 0 0 25 0 0 0 1250 0.5 0.1 0.3 0.5 0.1 0.3 1.5 0.5 0.3 1.7 0 0 1.7 0 0 0 0 0 0 0 0 0 0 0 1.5 0 0.11
0 0 0 0 0 0 0 0 0 0 0 0 0 0 0 25 0 0 0 1250 0.5 0.1 0.3 0.5 0.1 0.3 1.5 0.5 0.3 1.7 0 0 1.7 0 0 0 0 0 0 0 0 0 0 0 1.5 0 0.11
0 0 0 0 0 0 0 0 0 0 0 0 0 0 0 25 0 0 0 1250 0.5 0.1 0.3 0.5 0.1 0.3 1.5 0.5 0.3 1.7 0 0 1.7 0 0 0 0 0 0 0 0 0 0 0 1.5 0 0.11
0 0 0 0 0 0 0 0 0 0 0 0 0 0 0 25 0 0 0 1250 0.5 0.1 0.3 0.5 0.1 0.3 1.5 0.5 0.3 1.7 0 0 1.7 0 0 0 0 0 0 0 0 0 0 0 1.5 0 0.11
0 0 0 0 0 0 0 0 0 0 0 0 0 0 0 25 0 0 0 1250 0.5 0.1 0.3 0.5 0.1 0.3 1.5 0.5 0.3 1.7 0 0 1.7 0 0 0 0 0 0 0 0 0 0 0 1.5 0 0.11
0 0 0 0 0 0 0 0 0 0 0 0 0 0 0 25 0 0 0 1250 0.5 0.1 0.3 0.5 0.1 0.3 1.5 0.5 0.3 1.7 0 0 1.7 0 0 0 0 0 0 0 0 0 0 0 1.5 0 0.11
0 0 0 0 0 0 0 0 0 0 0 0 0 0 0 25 0 0 0 1250 0.5 0.1 0.3 0.5 0.1 0.3 1.5 0.5 0.3 1.7 0 0 1.7 0 0 0 0 0 0 0 0 0 0 0 1.5 0 0.11
0 0 0 0 0 0 0 0 0 0 0 0 0 0 0 25 0 0 0 1250 0.5 0.1 0.3 0.5 0.1 0.3 1.5 0.5 0.3 1.7 0 0 1.7 0 0 0 0 0 0 0 0 0 0 0 1.5 0 0.11
0 0 0 0 0 0 0 0 0 0 0 0 0 0 0 25 0 0 0 1250 0.5 0.1 0.3 0.5 0.1 0.3 1.5 0.5 0.3 1.7 0 0 1.7 0 0 0 0 0 0 0 0 0 0 0 1.5 0 0.11
0 0 0 0 0 0 0 0 0 0 0 0 0 0 0 25 0 0 0 1250 0.5 0.1 0.3 0.5 0.1 0.3 1.5 0.5 0.3 1.7 0 0 1.7 0 0 0 0 0 0 0 0 0 0 0 1.5 0 0.11
0 0 0 0 0 0 0 0 0 0 0 0 0 0 0 25 0 0 0 1250 0.5 0.1 0.3 0.5 0.1 0.3 1.5 0.5 0.3 1.7 0 0 1.7 0 0 0 0 0 0 0 0 0 0 0 1.5 0 0.11
0 0 0 0 0 0 0 0 0 0 0 0 0 0 0 25 0 0 0 1250 0.5 0.1 0.3 0.5 0.1 0.3 1.5 0.5 0.3 1.7 0 0 1.7 0 0 0 0 0 0 0 0 0 0 0 1.5 0 0.11
0 0 0 0 0 0 0 0 0 0 0 0 0 0 0 25 0 0 0 1250 0.5 0.1 0.3 0.5 0.1 0.3 1.5 0.5 0.3 1.7 0 0 1.7 0 0 0 0 0 0 0 0 0 0 0 1.5 0 0.11
0 0 0 0 0 0 0 0 0 0 0 0 0 0 0 25 0 0 0 1250 0.5 0.1 0.3 0.5 0.1 0.3 1.5 0.5 0.3 1.7 0 0 1.7 0 0 0 0 0 0 0 0 0 0 0 1.5 0 0.11
0 0 0 0 0 0 0 0 0 0 0 0 0 0 0 25 0 0 0 1250 0.5 0.1 0.3 0.5 0.1 0.3 1.5 0.5 0.3 1.7 0 0 1.7 0 0 0 0 0 0 0 0 0 0 0 1.5 0 0.11
0 0 0 0 0 0 0 0 0 0 0 0 0 0 0 25 0 0 0 1250 0.5 0.1 0.3 0.5 0.1 0.3 1.5 0.5 0.3 1.7 0 0 1.7 0 0 0 0 0 0 0 0 0 0 0 1.5 0 0.11
0 0 0 0 0 0 0 0 0 0 0 0 0 0 0 25 0 0 0 1250 0.5 0.1 0.3 0.5 0.1 0.3 1.5 0.5 0.3 1.7 0 0 1.7 0 0 0 0 0 0 0 0 0 0 0 1.5 0 0.11
0 0 0 0 0 0 0 0 0 0 0 0 0 0 0 25 0 0 0 1250 0.5 0.1 0.3 0.5 0.1 0.3 1.5 0.5 0.3 1.7 0 0 1.7 0 0 0 0 0 0 0 0 0 0 0 1.5 0 0.11
0 0 0 0 0 0 0 0 0 0 0 0 0 0 0 25 0 0 0 1250 0.5 0.1 0.3 0.5 0.1 0.3 1.5 0.5 0.3 1.7 0 0 1.7 0 0 0 0 0 0 0 0 0 0 0 1.5 0 0.11
0 0 0 0 0 0 0 0 0 0 0 0 0 0 0 25 0 0 0 1250 0.5 0.1 0.3 0.5 0.1 0.3 1.5 0.5 0.3 1.7 0 0 1.7 0 0 0 0 0 0 0 0 0 0 0 1.5 0 0.11
0 0 0 0 0 0 0 0 0 0 0 0 0 0 0 25 0 0 0 1250 0.5 0.1 0.3 0.5 0.1 0.3 1.5 0.5 0.3 1.7 0 0 1.7 0 0 0 0 0 0 0 0 0 0 0 1.5 0 0.11
0 0 0 0 0 0 0 0 0 0 0 0 0 0 0 25 0 0 0 1250 0.5 0.1 0.3 0.5 0.1 0.3 1.5 0.5 0.3 1.7 0 0 1.7 0 0 0 0 0 0 0 0 0 0 0 1.5 0 0.11
0 0 0 0 0 0 0 0 0 0 0 0 0 0 0 25 0 0 0 1250 0.5 0.1 0.3 0.5 0.1 0.3 1.5 0.5 0.3 1.7 0 0 1.7 0 0 0 0 0 0 0 0 0 0 0 1.5 0 0.11
0 0 0 0 0 0 0 0 0 0 0 0 0 0 0 25 0 0 0 1250 0.5 0.1 0.3 0.5 0.1 0.3 1.5 0.5 0.3 1.7 0 0 1.7 0 0 0 0 0 0 0 0 0 0 0 1.5 0 0.11
0 0 0 0 0 0 0 0 0 0 0 0 0 0 0 25 0 0 0 1250 0.5 0.1 0.3 0.5 0.1 0.3 1.5 0.5 0.3 1.7 0 0 1.7 0 0 0 0 0 0 0 0 0 0 0 1.5 0 0.11
0 0 0 0 0 0 0 0 0 0 0 0 0 0 0 25 0 0 0 1250 0.5 0.1 0.3 0.5 0.1 0.3 1.5 0.5 0.3 1.7 0 0 1.7 0 0 0 0 0 0 0 0 0 0 0 1.5 0 0.11
0 0 0 0 0 0 0 0 0 0 0 0 0 0 0 25 0 0 0 1250 0.5 0.1 0.3 0.5 0.1 0.3 1.5 0.5 0.3 1.7 0 0 1.7 0 0 0 0 0 0 0 0 0 0 0 1.5 0 0.11
0 0 0 0 0 0 0 0 0 0 0 0 0 0 0 25 0 0 0 1250 0.5 0.1 0.3 0.5 0.1 0.3 1.5 0.5 0.3 1.7 0 0 1.7 0 0 0 0 0 0 0 0 0 0 0 1.5 0 0.11
0 0 0 0 0 0 0 0 0 0 0 0 0 0 0 25 0 0 0 1250 0.5 0.1 0.3 0.5 0.1 0.3 1.5 0.5 0.3 1.7 0 0 1.7 0 0 0 0 0 0 0 0 0 0 0 1.5 0 0.11
0 0 0 0 0 0 0 0 0 0 0 0 0 0 0 25 0 0 0 1250 0.5 0.1 0.3 0.5 0.1 0.3 1.5 0.5 0.3 1.7 0 0 1.7 0 0 0 0 0 0 0 0 0 0 0 1.5 0 0.11
0 0 0 0 0 0 0 0 0 0 0 0 0 0 0 25 0 0 0 1250 0.5 0.1 0.3 0.5 0.1 0.3 1.5 0.5 0.3 1.7 0 0 1.7 0 0 0 0 0 0 0 0 0 0 0 1.5 0 0.11
0 0 0 0 0 0 0 0 0 0 0 0 0 0 0 25 0 0 0 1250 0.5 0.1 0.3 0.5 0.1 0.3 1.5 0.5 0.3 1.7 0 0 1.7 0 0 0 0 0 0 0 0 0 0 0 1.5 0 0.11
0 0 0 0 0 0 0 0 0 0 0 0 0 0 0 25 0 0 0 1250 0.5 0.1 0.3 0.5 0.1 0.3 1.5 0.5 0.3 1.7 0 0 1.7 0 0 0 0 0 0 0 0 0 0 0 1.5 0 0.11
0 0 0 0 0 0 0 0 0 0 0 0 0 0 0 25 0 0 0 1250 0.5 0.1 0.3 0.5 0.1 0.3 1.5 0.5 0.3 1.7 0 0 1.7 0 0 0 0 0 0 0 0 0 0 0 1.5 0 0.11
0 0 0 0 0 0 0 0 0 0 0 0 0 0 0 25 0 0 0 1250 0.5 0.1 0.3 0.5 0.1 0.3 1.5 0.5 0.3 1.7 0 0 1.7 0 0 0 0 0 0 0 0 0 0 0 1.5 0 0.11
0 0 0 0 0 0 0 0 0 0 0 0 0 0 0 25 0 0 0 1250 0.5 0.1 0.3 0.5 0.1 0.3 1.5 0.5 0.3 1.7 0 0 1.7 0 0 0 0 0 0 0 0 0 0 0 1.5 0 0.11
0 0 0 0 0 0 0 0 0 0 0 0 0 0 0 25 0 0 0 1250 0.5 0.1 0.3 0.5 0.1 0.3 1.5 0.5 0.3 1.7 0 0 1.7 0 0 0 0 0 0 0 0 0 0 0 1.5 0 0.11
0 0 0 0 0 0 0 0 0 0 0 0 0 0 0 25 0 0 0 1250 0.5 0.1 0.3 0.5 0.1 0.3 1.5 0.5 0.3 1.7 0 0 1.7 0 0 0 0 0 0 0 0 0 0 0 1.5 0 0.11
0 0 0 0 0 0 0 0 0 0 0 0 0 0 0 25 0 0 0 1250 0.5 0.1 0.3 0.5 0.1 0.3 1.5 0.5 0.3 1.7 0 0 1.7 0 0 0 0 0 0 0 0 0 0 0 1.5 0 0.11
0 0 0 0 0 0 0 0 0 0 0 0 0 0 0 25 0 0 0 1250 0.5 0.1 0.3 0.5 0.1 0.3 1.5 0.5 0.3 1.7 0 0 1.7 0 0 0 0 0 0 0 0 0 0 0 1.5 0 0.11
0 0 0 0 0 0 0 0 0 0 0 0 0 0 0 25 0 0 0 1250 0.5 0.1 0.3 0.5 0.1 0.3 1.5 0.5 0.3 1.7 0 0 1.7 0 0 0 0 0 0 0 0 0 0 0 1.5 0 0.11
0 0 0 0 0 0 0 0 0 0 0 0 0 0 0 25 0 0 0 1250 0.5 0.1 0.3 0.5 0.1 0.3 1.5 0.5 0.3 1.7 0 0 1.7 0 0 0 0 0 0 0 0 0 0 0 1.5 0 0.11
0 0 0 0 0 0 0 0 0 0 0 0 0 0 0 25 0 0 0 1250 0.5 0.1 0.3 0.5 0.1 0.3 1.5 0.5 0.3 1.7 0 0 1.7 0 0 0 0 0 0 0 0 0 0 0 1.5 0 0.11
0 0 0 0 0 0 0 0 0 0 0 0 0 0 0 25 0 0 0 1250 0.5 0.1 0.3 0.5 0.1 0.3 1.5 0.5 0.3 1.7 0 0 1.7 0 0 0 0 0 0 0 0 0 0 0 1.5 0 0.11
0 0 0 0 0 0 0 0 0 0 0 0 0 0 0 25 0 0 0 1250 0.5 0.1 0.3 0.5 0.1 0.3 1.5 0.5 0.3 1.7 0 0 1.7 0 0 0 0 0 0 0 0 0 0 0 1.5 0 0.11
0 0 0 0 0 0 0 0 0 0 0 0 0 0 0 25 0 0 0 1250 0.5 0.1 0.3 0.5 0.1 0.3 1.5 0.5 0.3 1.7 0 0 1.7 0 0 0 0 0 0 0 0 0 0 0 1.5 0 0.11
0 0 0 0 0 0 0 0 0 0 0 0 0 0 0 25 0 0 0 1250 0.5 0.1 0.3 0.5 0.1 0.3 1.5 0.5 0.3 1.7 0 0 1.7 0 0 0 0 0 0 0 0 0 0 0 1.5 0 0.11
0 0 0 0 0 0 0 0 0 0 0 0 0 0 0 25 0 0 0 1250 0.5 0.1 0.3 0.5 0.1 0.3 1.5 0.5 0.3 1.7 0 0 1.7 0 0 0 0 0 0 0 0 0 0 0 1.5 0 0.11
0 0 0 0 0 0 0 0 0 0 0 0 0 0 0 25 0 0 0 1250 0.5 0.1 0.3 0.5 0.1 0.3 1.5 0.5 0.3 1.7 0 0 1.7 0 0 0 0 0 0 0 0 0 0 0 1.5 0 0.11
0 0 0 0 0 0 0 0 0 0 0 0 0 0 0 25 0 0 0 1250 0.5 0.1 0.3 0.5 0.1 0.3 1.5 0.5 0.3 1.7 0 0 1.7 0 0 0 0 0 0 0 0 0 0 0 1.5 0 0.11
0 0 0 0 0 0 0 0 0 0 0 0 0 0 0 25 0 0 0 1250 0.5 0.1 0.3 0.5 0.1 0.3 1.5 0.5 0.3 1.7 0 0 1.7 0 0 0 0 0 0 0 0 0 0 0 1.5 0 0.11
0 0 0 0 0 0 0 0 0 0 0 0 0 0 0 25 0 0 0 1250 0.5 0.1 0.3 0.5 0.1 0.3 1.5 0.5 0.3 1.7 0 0 1.7 0 0 0 0 0 0 0 0 0 0 0 1.5 0 0.11
0 0 0 0 0 0 0 0 0 0 0 0 0 0 0 25 0 0 0 1250 0.5 0.1 0.3 0.5 0.1 0.3 1.5 0.5 0.3 1.7 0 0 1.7 0 0 0 0 0 0 0 0 0 0 0 1.5 0 0.11
0 0 0 0 0 0 0 0 0 0 0 0 0 0 0 25 0 0 0 1250 0.5 0.1 0.3 0.5 0.1 0.3 1.5 0.5 0.3 1.7 0 0 1.7 0 0 0 0 0 0 0 0 0 0 0 1.5 0 0.11
0 0 0 0 0 0 0 0 0 0 0 0 0 0 0 25 0 0 0 1250 0.5 0.1 0.3 0.5 0.1 0.3 1.5 0.5 0.3 1.7 0 0 1.7 0 0 0 0 0 0 0 0 0 0 0 1.5 0 0.11
0 0 0 0 0 0 0 0 0 0 0 0 0 0 0 25 0 0 0 1250 0.5 0.1 0.3 0.5 0.1 0.3 1.5 0.5 0.3 1.7 0 0 1.7 0 0 0 0 0 0 0 0 0 0 0 1.5 0 0.11
0 0 0 0 0 0 0 0 0 0 0 0 0 0 0 25 0 0 0 1250 0.5 0.1 0.3 0.5 0.1 0.3 1.5 0.5 0.3 1.7 0 0 1.7 0 0 0 0 0 0 0 0 0 0 0 1.5 0 0.11
0 0 0 0 0 0 0 0 0 0 0 0 0 0 0 25 0 0 0 1250 0.5 0.1 0.3 0.5 0.1 0.3 1.5 0.5 0.3 1.7 0 0 1.7 0 0 0 0 0 0 0 0 0 0 0 1.5 0 0.11
0 0 0 0 0 0 0 0 0 0 0 0 0 0 0 25 0 0 0 1250 0.5 0.1 0.3 0.5 0.1 0.3 1.5 0.5 0.3 1.7 0 0 1.7 0 0 0 0 0 0 0 0 0 0 0 1.5 0 0.11
0 0 0 0 0 0 0 0 0 0 0 0 0 0 0 25 0 0 0 1250 0.5 0.1 0.3 0.5 0.1 0.3 1.5 0.5 0.3 1.7 0 0 1.7 0 0 0 0 0 0 0 0 0 0 0 1.5 0 0.11
0 0 0 0 0 0 0 0 0 0 0 0 0 0 0 25 0 0 0 1250 0.5 0.1 0.3 0.5 0.1 0.3 1.5 0.5 0.3 1.7 0 0 1.7 0 0 0 0 0 0 0 0 0 0 0 1.5 0 0.11
0 0 0 0 0 0 0 0 0 0 0 0 0 0 0 25 0 0 0 1250 0.5 0.1 0.3 0.5 0.1 0.3 1.5 0.5 0.3 1.7 0 0 1.7 0 0 0 0 0 0 0 0 0 0 0 1.5 0 0.11
0 0 0 0 0 0 0 0 0 0 0 0 0 0 0 25 0 0 0 1250 0.5 0.1 0.3 0.5 0.1 0.3 1.5 0.5 0.3 1.7 0 0 1.7 0 0 0 0 0 0 0 0 0 0 0 1.5 0 0.11
0 0 0 0 0 0 0 0 0 0 0 0 0 0 0 25 0 0 0 1250 0.5 0.1 0.3 0.5 0.1 0.3 1.5 0.5 0.3 1.7 0 0 1.7 0 0 0 0 0 0 0 0 0 0 0 1.5 0 0.11
0 0 0 0 0 0 0 0 0 0 0 0 0 0 0 25 0 0 0 1250 0.5 0.1 0.3 0.5 0.1 0.3 1.5 0.5 0.3 1.7 0 0 1.7 0 0 0 0 0 0 0 0 0 0 0 1.5 0 0.11
0 0 0 0 0 0 0 0 0 0 0 0 0 0 0 25 0 0 0 1250 0.5 0.1 0.3 0.5 0.1 0.3 1.5 0.5 0.3 1.7 0 0 1.7 0 0 0 0 0 0 0 0 0 0 0 1.5 0 0.11
0 0 0 0 0 0 0 0 0 0 0 0 0 0 0 25 0 0 0 1250 0.5 0.1 0.3 0.5 0.1 0.3 1.5 0.5 0.3 1.7 0 0 1.7 0 0 0 0 0 0 0 0 0 0 0 1.5 0 0.11
0 0 0 0 0 0 0 0 0 0 0 0 0 0 0 25 0 0 0 1250 0.5 0.1 0.3 0.5 0.1 0.3 1.5 0.5 0.3 1.7 0 0 1.7 0 0 0 0 0 0 0 0 0 0 0 1.5 0 0.11
0 0 0 0 0 0 0 0 0 0 0 0 0 0 0 25 0 0 0 1250 0.5 0.1 0.3 0.5 0.1 0.3 1.5 0.5 0.3 1.7 0 0 1.7 0 0 0 0 0 0 0 0 0 0 0 1.5 0 0.11
0 0 0 0 0 0 0 0 0 0 0 0 0 0 0 25 0 0 0 1250 0.5 0.1 0.3 0.5 0.1 0.3 1.5 0.5 0.3 1.7 0 0 1.7 0 0 0 0 0 0 0 0 0 0 0 1.5 0 0.11
0 0 0 0 0 0 0 0 0 0 0 0 0 0 0 25 0 0 0 1250 0.5 0.1 0.3 0.5 0.1 0.3 1.5 0.5 0.3 1.7 0 0 1.7 0 0 0 0 0 0 0 0 0 0 0 1.5 0 0.11
0 0 0 0 0 0 0 0 0 0 0 0 0 0 0 25 0 0 0 1250 0.5 0.1 0.3 0.5 0.1 0.3 1.5 0.5 0.3 1.7 0 0 1.7 0 0 0 0 0 0 0 0 0 0 0 1.5 0 0.11
0 0 0 0 0 0 0 0 0 0 0 0 0 0 0 25 0 0 0 1250 0.5 0.1 0.3 0.5 0.1 0.3 1.5 0.5 0.3 1.7 0 0 1.7 0 0 0 0 0 0 0 0 0 0 0 1.5 0 0.11
0 0 0 0 0 0 0 0 0 0 0 0 0 0 0 25 0 0 0 1250 0.5 0.1 0.3 0.5 0.1 0.3 1.5 0.5 0.3 1.7 0 0 1.7 0 0 0 0 0 0 0 0 0 0 0 1.5 0 0.11
0 0 0 0 0 0 0 0 0 0 0 0 0 0 0 25 0 0 0 1250 0.5 0.1 0.3 0.5 0.1 0.3 1.5 0.5 0.3 1.7 0 0 1.7 0 0 0 0 0 0 0 0 0 0 0 1.5 0 0.11
0 0 0 0 0 0 0 0 0 0 0 0 0 0 0 25 0 0 0 1250 0.5 0.1 0.3 0.5 0.1 0.3 1.5 0.5 0.3 1.7 0 0 1.7 0 0 0 0 0 0 0 0 0 0 0 1.5 0 0.11
0 0 0 0 0 0 0 0 0 0 0 0 0 0 0 25 0 0 0 1250 0.5 0.1 0.3 0.5 0.1 0.3 1.5 0.5 0.3 1.7 0 0 1.7 0 0 0 0 0 0 0 0 0 0 0 1.5 0 0.11
0 0 0 0 0 0 0 0 0 0 0 0 0 0 0 25 0 0 0 1250 0.5 0.1 0.3 0.5 0.1 0.3 1.5 0.5 0.3 1.7 0 0 1.7 0 0 0 0 0 0 0 0 0 0 0 1.5 0 0.11
0 0 0 0 0 0 0 0 0 0 0 0 0 0 0 25 0 0 0 1250 0.5 0.1 0.3 0.5 0.1 0.3 1.5 0.5 0.3 1.7 0 0 1.7 0 0 0 0 0 0 0 0 0 0 0 1.5 0 0.11
0 0 0 0 0 0 0 0 0 0 0 0 0 0 0 25 0 0 0 1250 0.5 0.1 0.3 0.5 0.1 0.3 1.5 0.5 0.3 1.7 0 0 1.7 0 0 0 0 0 0 0 0 0 0 0 1.5 0 0.11
0 0 0 0 0 0 0 0 0 0 0 0 0 0 0 25 0 0 0 1250 0.5 0.1 0.3 0.5 0.1 0.3 1.5 0.5 0.3 1.7 0 0 1.7 0 0 0 0 0 0 0 0 0 0 0 1.5 0 0.11
0 0 0 0 0 0 0 0 0 0 0 0 0 0 0 25 0 0 0 1250 0.5 0.1 0.3 0.5 0.1 0.3 1.5 0.5 0.3 1.7 0 0 1.7 0 0 0 0 0 0 0 0 0 0 0 1.5 0 0.11
0 0 0 0 0 0 0 0 0 0 0 0 0 0 0 25 0 0 0 1250 0.5 0 3.3 0.5 0.03 3.3 1.5 0.5 0.3 1.7 0 0 1.7 0 0 0 0 0 0 0 0 0 0 0 1.5 0 0.11
0 0 0 0 0 0 0 0 0 0 0 0 0 0 0 25 0 0 0 1250 0.5 0 3.3 0.5 0.03 3.3 1.5 0.5 0.3 1.7 0 0 1.7 0 0 0 0 0 0 0 0 0 0 0 1.5 0 0.11
0 0 0 0 0 0 0 0 0 0 0 0 0 0 0 25 0 0 0 1250 0.5 0 3.3 0.5 0.03 3.3 1.5 0.5 0.3 1.7 0 0 1.7 0 0 0 0 0 0 0 0 0 0 0 1.5 0 0.11
0 0 0 0 0 0 0 0 0 0 0 0 0 0 0 25 0 0 0 1250 0.5 0 3.3 0.5 0.03 3.3 1.5 0.5 0.3 1.7 0 0 1.7 0 0 0 0 0 0 0 0 0 0 0 1.5 0 0.11
0 0 0 0 0 0 0 0 0 0 0 0 0 0 0 25 0 0 0 1250 0.5 0 3.3 0.5 0.03 3.3 1.5 0.5 0.3 1.7 0 0 1.7 0 0 0 0 0 0 0 0 0 0 0 1.5 0 0.11
0 0 0 0 0 0 0 0 0 0 0 0 0 0 0 25 0 0 0 1250 0.5 0 3.3 0.5 0.03 3.3 1.5 0.5 0.3 1.7 0 0 1.7 0 0 0 0 0 0 0 0 0 0 0 1.5 0 0.11
0 0 0 0 0 0 0 0 0 0 0 0 0 0 0 25 0 0 0 1250 0.5 0 3.3 0.5 0.03 3.3 1.5 0.5 0.3 1.7 0 0 1.7 0 0 0 0 0 0 0 0 0 0 0 1.5 0 0.11
0 0 0 0 0 0 0 0 0 0 0 0 0 0 0 25 0 0 0 1250 0.5 0 3.3 0.5 0.03 3.3 1.5 0.5 0.3 1.7 0 0 1.7 0 0 0 0 0 0 0 0 0 0 0 1.5 0 0.11
0 0 0 0 0 0 0 0 0 0 0 0 0 0 0 25 0 0 0 1250 0.5 0 3.3 0.5 0.03 3.3 1.5 0.5 0.3 1.7 0 0 1.7 0 0 0 0 0 0 0 0 0 0 0 1.5 0 0.11
0 0 0 0 0 0 0 0 0 0 0 0 0 0 0 25 0 0 0 1250 0.5 0 3.3 0.5 0.03 3.3 1.5 0.5 0.3 1.7 0 0 1.7 0 0 0 0 0 0 0 0 0 0 0 1.5 0 0.11
0 0 0 0 0 0 0 0 0 0 0 0 0 0 0 25 0 0 0 1250 0.5 0 3.3 0.5 0.03 3.3 1.5 0.5 0.3 1.7 0 0 1.7 0 0 0 0 0 0 0 0 0 0 0 1.5 0 0.11
0 0 0 0 0 0 0 0 0 0 0 0 0 0 0 25 0 0 0 1250 0.5 0 3.3 0.5 0.03 3.3 1.5 0.5 0.3 1.7 0 0 1.7 0 0 0 0 0 0 0 0 0 0 0 1.5 0 0.11
0 0 0 0 0 0 0 0 0 0 0 0 0 0 0 25 0 0 0 1250 0.5 0 3.3 0.5 0.03 3.3 1.5 0.5 0.3 1.7 0 0 1.7 0 0 0 0 0 0 0 0 0 0 0 1.5 0 0.11
0 0 0 0 0 0 0 0 0 0 0 0 0 0 0 25 0 0 0 1250 0.5 0 3.3 0.5 0.03 3.3 1.5 0.5 0.3 1.7 0 0 1.7 0 0 0 0 0 0 0 0 0 0 0 1.5 0 0.11
0 0 0 0 0 0 0 0 0 0 0 0 0 0 0 25 0 0 0 1250 0.5 0 3.3 0.5 0.03 3.3 1.5 0.5 0.3 1.7 0 0 1.7 0 0 0 0 0 0 0 0 0 0 0 1.5 0 0.11
0 0 0 0 0 0 0 0 0 0 0 0 0 0 0 25 0 0 0 1250 0.5 0 3.3 0.5 0.03 3.3 1.5 0.5 0.3 1.7 0 0 1.7 0 0 0 0 0 0 0 0 0 0 0 1.5 0 0.11
0 0 0 0 0 0 0 0 0 0 0 0 0 0 0 25 0 0 0 1250 0.5 0 3.3 0.5 0.03 3.3 1.5 0.5 0.3 1.7 0 0 1.7 0 0 0 0 0 0 0 0 0 0 0 1.5 0 0.11
0 0 0 0 0 0 0 0 0 0 0 0 0 0 0 25 0 0 0 1250 0.5 0 3.3 0.5 0.03 3.3 1.5 0.5 0.3 1.7 0 0 1.7 0 0 0 0 0 0 0 0 0 0 0 1.5 0 0.11
0 0 0 0 0 0 0 0 0 0 0 0 0 0 0 25 0 0 0 1250 0.5 0 3.3 0.5 0.03 3.3 1.5 0.5 0.3 1.7 0 0 1.7 0 0 0 0 0 0 0 0 0 0 0 1.5 0 0.11
0 0 0 0 0 0 0 0 0 0 0 0 0 0 0 25 0 0 0 1250 0.5 0 3.3 0.5 0.03 3.3 1.5 0.5 0.3 1.7 0 0 1.7 0 0 0 0 0 0 0 0 0 0 0 1.5 0 0.11
0 0 0 0 0 0 0 0 0 0 0 0 0 0 0 25 0 0 0 1250 0.5 0 3.3 0.5 0.03 3.3 1.5 0.5 0.3 1.7 0 0 1.7 0 0 0 0 0 0 0 0 0 0 0 1.5 0 0.11
0 0 0 0 0 0 0 0 0 0 0 0 0 0 0 25 0 0 0 1250 0.5 0 3.3 0.5 0.03 3.3 1.5 0.5 0.3 1.7 0 0 1.7 0 0 0 0 0 0 0 0 0 0 0 1.5 0 0.11
0 0 0 0 0 0 0 0 0 0 0 0 0 0 0 25 0 0 0 1250 0.5 0 3.3 0.5 0.03 3.3 1.5 0.5 0.3 1.7 0 0 1.7 0 0 0 0 0 0 0 0 0 0 0 1.5 0 0.11
0 0 0 0 0 0 0 0 0 0 0 0 0 0 0 25 0 0 0 1250 0.5 0 3.3 0.5 0.03 3.3 1.5 0.5 0.3 1.7 0 0 1.7 0 0 0 0 0 0 0 0 0 0 0 1.5 0 0.11
0 0 0 0 0 0 0 0 0 0 0 0 0 0 0 25 0 0 0 1250 0.5 0 3.3 0.5 0.03 3.3 1.5 0.5 0.3 1.7 0 0 1.7 0 0 0 0 0 0 0 0 0 0 0 1.5 0 0.11
0 0 0 0 0 0 0 0 0 0 0 0 0 0 0 25 0 0 0 1250 0.5 0 3.3 0.5 0.03 3.3 1.5 0.5 0.3 1.7 0 0 1.7 0 0 0 0 0 0 0 0 0 0 0 1.5 0 0.11
0 0 0 0 0 0 0 0 0 0 0 0 0 0 0 25 0 0 0 1250 0.5 0 3.3 0.5 0.03 3.3 1.5 0.5 0.3 1.7 0 0 1.7 0 0 0 0 0 0 0 0 0 0 0 1.5 0 0.11
6.098 1.18 -0.26 8.33 0.06 -0.44 2.06 0 0 18 2 2 0 0 0 22 0 0 0 1221 0.5 0 3.3 0.5 0.03 3.3 1.5 0.5 0.3 1.7 0 0 1.7 0 0 0 0 0 0 0 0 0 0 0 1.5 0 0.11
6.194 1.18 -0.26 8.37 -0.5 -2.87 0.44 0 0 22 2 1 0 0 0 22 0 0 0 1221 0.5 0 3.3 0.5 0.03 3.3 1.5 0.5 0.3 1.7 0 0 1.7 0 0 0 0 0 0 0 0 0 0 0 1.5 0 0.11
6.218 1.18 -0.25 8.38 -1.62 -0.06 0.06 0 0 22 2 2 0 0 0 22 0 0 0 1221 0.5 0 3.3 0.5 0.03 3.3 1.5 0.5 0.3 1.7 0 0 1.7 0 0 0 0 0 0 0 0 0 0 0 1.5 0 0.11
6.45 1.15 -0.27 8.98 -1.69 0.56 1.06 0 0 23 2 2 0 0 0 22 0 0 0 1221 0.5 0 3.3 0.5 0.03 3.3 1.5 0.5 0.3 1.7 0 0 1.7 0 0 0 0 0 0 0 0 0 0 0 1.5 0 0.11
6.55 1.15 -0.26 9.25 -1.06 0.56 -0.19 0 0 22 2 2 0 0 0 22 0 0 0 1221 0.5 0 3.3 0.5 0.03 3.3 1.5 0.5 0.3 1.7 0 0 1.7 0 0 0 0 0 0 0 0 0 0 0 1.5 0 0.11
6.65 1.16 -0.27 9.47 -0.94 0.5 0 0 0 22 2 2 0 0 0 22 0 0 0 1221 0.5 0 3.3 0.5 0.03 3.3 1.5 0.5 0.3 1.7 0 0 1.7 0 0 0 0 0 0 0 0 0 0 0 1.5 0 0.11
6.75 1.18 -0.27 9.78 -0.56 -0.25 2.44 0 0 23 2 2 0 0 0 22 0 0 0 1221 0.5 0 3.3 0.5 0.03 3.3 1.5 0.5 0.3 1.7 0 0 1.7 0 0 0 0 0 0 0 0 0 0 0 1.5 0 0.11
6.85 1.18 -0.26 10.01 0.25 0.44 -1 0 0 23 2 2 0 0 0 22 0 0 0 1221 0.5 0 3.3 0.5 0.03 3.3 1.5 0.5 0.3 1.7 0 0 1.7 0 0 0 0 0 0 0 0 0 0 0 1.5 0 0.11
6.95 1.18 -0.26 10.25 -0.62 -0.25 2.56 0 0 23 2 2 0 0 0 22 0 0 0 1221 0.5 0 3.3 0.5 0.03 3.3 1.5 0.5 0.3 1.7 0 0 1.7 0 0 0 0 0 0 0 0 0 0 0 1.5 0 0.11
7.05 1.19 -0.27 10.59 -0.06 0 1.75 0 0 23 2 2 0 0 0 22 0 0 0 1221 0.5 0 3.3 0.5 0.03 3.3 1.5 0.5 0.3 1.7 0 0 1.7 0 0 0 0 0 0 0 0 0 0 0 1.5 0 0.11
7.15 1.2 -0.26 10.83 0.81 0 0.81 0 0 23 2 2 0 0 0 22 0 0 0 1221 0.5 0 3.3 0.5 0.03 3.3 1.5 0.5 0.3 1.7 0 0 1.7 0 0 0 0 0 0 0 0 0 0 0 1.5 0 0.11
7.25 1.2 -0.26 11.09 -0.06 -0.37 1 0 0 22 2 2 0 0 0 22 0 0 0 1221 0.5 0 3.3 0.5 0.03 3.3 1.5 0.5 0.3 1.7 0.02 0 1.7 0.02 0 0 0 0 0 0 0 0 0 0 1.5 0 0.11
7.35 1.21 -0.26 11.28 0.37 -0.25 1.75 0 0 23 2 2 0 0 0 22 0 0 0 1221 0.5 0 3.3 0.5 0.03 3.3 1.5 0.5 0.3 1.7 0.02 0 1.7 0.02 0 0 0 0 0 0 0 0 0 0 1.5 0 0.11
7.45 1.21 -0.25 11.59 -0.19 0.13 0.5 0 0 23 2 2 0 0 0 22 0 0 0 1221 0.5 0 3.3 0.5 0.03 3.3 1.5 0.5 0.3 1.7 0.02 0 1.7 0.02 0 0 0 0 0 0 0 0 0 0 1.5 0 0.11
7.55 1.21 -0.25 11.84 0 -0.25 1.25 0 0 22 2 2 0 0 0 22 0 0 0 1221 0.5 0 3.3 0.5 0.03 3.3 1.5 0.5 0.3 1.7 0.02 0 1.7 0.02 0 0 0 0 0 0 0 0 0 0 1.5 0 0.11
7.65 1.21 -0.25 12.14 0 -0.06 0.56 0 0 22 2 1 0 0 0 22 0 0 0 1221 0.5 0 3.3 0.5 0.03 3.3 1.5 0.5 0.3 1.7 0.02 0 1.7 0.02 0 0 0 0 0 0 0 0 0 0 1.5 0 0.11
7.75 1.21 -0.24 12.36 0.13 -0.06 1.12 0 0 23 2 2 0 0 0 22 0 0 0 1221 0.5 0 3.3 0.5 0.03 3.3 1.5 0.5 0.3 1.7 0.02 0 1.7 0.02 0 0 0 0 0 0 0 0 0 0 1.5 0 0.11
7.85 1.21 -0.24 12.62 0.06 0.06 0.75 0 0 22 2 2 0 0 0 22 0 0 0 1221 0.5 0 3.3 0.5 0.03 3.3 1.5 0.5 0.3 1.7 0.02 0 1.7 0.02 0 0 0 0 0 0 0 0 0 0 1.5 0 0.11
7.95 1.21 -0.24 12.86 0.06 0.06 1.12 0 0 23 2 2 0 0 0 22 0 0 0 1221 0.5 0 3.3 0.5 0.03 3.3 1.5 0.5 0.3 1.7 0.02 0 1.7 0.02 0 0 0 0 0 0 0 0 0 0 1.5 0 0.11
8.05 1.21 -0.24 13.17 0.06 0.13 0.88 0 0 21 2 1 0 0 0 22 0 0 0 1221 0.5 0 3.3 0.5 0.03 3.3 1.5 0.5 0.3 1.7 0.02 0 1.7 0.02 0 0 0 0 0 0 0 0 0 0 1.5 0 0.11
8.15 1.21 -0.24 13.38 0 0.19 1.06 0 0 23 2 2 0 0 0 22 0 0 0 1221 0.5 0 3.3 0.5 0.03 3.3 1.5 0.5 0.3 1.7 0.02 0 1.7 0.02 0 0 0 0 0 0 0 0 0 0 1.5 0 0.11
8.25 1.21 -0.24 13.68 0 0.06 0.88 0 0 23 2 2 0 0 0 22 0 0 0 1221 0.5 0 3.3 0.5 0.03 3.3 1.5 0.5 0.3 1.7 0.02 0 1.7 0.02 0 0 0 0 0 0 0 0 0 0 1.5 0 0.11
8.35 1.21 -0.24 13.89 -0.06 0.19 0.94 0 0 23 2 1 0 0 0 22 0 0 0 1221 0.5 0 3.3 0.5 0.03 3.3 1.5 0.5 0.3 1.7 0.02 0 1.7 0.02 0 0 0 0 0 0 0 0 0 0 1.5 0 0.11
8.45 1.21 -0.24 14.11 0 0.25 0.88 0 0 23 2 2 0 0 0 22 0 0 0 1221 0.5 0 3.3 0.5 0.03 3.3 1.5 0.5 0.3 1.7 0.02 0 1.7 0.02 0 0 0 0 0 0 0 0 0 0 1.5 0 0.11
8.55 1.21 -0.24 14.37 -0.06 0.31 1 0 0 23 2 2 0 0 0 22 0 0 0 1221 0.5 0 3.3 0.5 0.03 3.3 1.5 0.5 0.3 1.7 0.02 0 1.7 0.02 0 0 0 0 0 0 0 0 0 0 1.5 0 0.11
8.65 1.21 -0.24 14.56 -0.19 0.31 1 0 0 22 2 1 0 0 0 22 0 0 0 1221 0.5 0 3.3 0.5 0.03 3.3 1.5 0.5 0.3 1.7 0.02 0 1.7 0.02 0 0 0 0 0 0 0 0 0 0 1.5 0 0.11
8.75 1.21 -0.24 14.86 0 0.19 1 0 0 23 2 1 0 0 0 22 0 0 0 1221 0.5 0 3.3 0.5 0.03 3.3 1.5 0.5 0.3 1.7 0.02 0 1.7 0.02 0 0 0 0 0 0 0 0 0 0 1.5 0 0.11
8.85 1.21 -0.24 15.1 -0.13 0.25 0.88 0 0 22 2 2 0 0 0 22 0 0 0 1221 0.5 0 3.3 0.5 0.03 3.3 1.5 0.5 0.3 1.7 0.02 0 1.7 0.02 0 0 0 0 0 0 0 0 0 0 1.5 0 0.11
8.95 1.21 -0.24 15.38 -0.19 0.19 0.94 0 0 23 2 2 0 0 0 22 0 0 0 1221 0.5 0 3.3 0.5 0.03 3.3 1.5 0.5 0.3 1.7 0.02 0 1.7 0.02 0 0 0 0 0 0 0 0 0 0 1.5 0 0.11
9.05 1.21 -0.24 15.61 0 0.19 0.94 0 0 23 2 1 0 0 0 22 0 0 0 1221 0.5 0 3.3 0.5 0.03 3.3 1.5 0.5 0.3 1.7 0.02 0 1.7 0.02 0 0 0 0 0 0 0 0 0 0 1.5 0 0.11
9.162 1.21 -0.24 15.89 -0.06 0.19 1 0 0 22 2 2 0 0 0 22 0 0 0 1221 0.5 0 3.3 0.5 0.03 3.3 1.5 0.5 0.3 1.7 0.02 0 1.7 0.02 0 0 0 0 0 0 0 0 0 0 1.5 0 0.11
9.25 1.21 -0.24 16.06 -0.13 0.31 0.94 0 0 22 2 1 0 0 0 22 0 0 0 1221 0.5 0 3.3 0.5 0.03 3.3 1.5 0.5 0.3 1.7 0.02 0 1.7 0.02 0 0 0 0 0 0 0 0 0 0 1.5 0 0.11
9.35 1.21 -0.24 16.27 -0.13 0.19 1 0 0 22 2 2 0 0 0 22 0 0 0 1221 0.5 0 3.3 0.5 0.03 3.3 1.5 0.5 0.3 1.7 0.02 0 1.7 0.02 0 0 0 0 0 0 0 0 0 0 1.5 0 0.11
9.45 1.21 -0.24 16.46 -0.06 0.19 0.94 0 0 22 2 1 0 0 0 22 0 0 0 1221 0.5 0 3.3 0.5 0.03 3.3 1.5 0.5 0.3 1.7 0.02 0 1.7 0.02 0 0 0 0 0 0 0 0 0 0 1.5 0 0.11
9.55 1.21 -0.24 16.73 -0.13 0.13 0.94 0 0 23 2 2 0 0 0 22 0 0 0 1221 0.5 0 3.3 0.5 0.03 3.3 1.5 0.5 0.3 1.7 0.02 0 1.7 0.02 0 0 0 0 0 0 0 0 0 0 1.5 0 0.11
9.65 1.21 -0.24 16.92 -0.06 0.19 0.88 0 0 23 2 1 0 0 0 22 0 0 0 1221 0.5 0 3.3 0.5 0.03 3.3 1.5 0.5 0.3 1.7 0.02 0 1.7 0.02 0 0 0 0 0 0 0 0 0 0 1.5 0 0.11
9.75 1.21 -0.24 17.18 0 0.19 1 0 0 22 2 2 0 0 0 22 0 0 0 1221 0.5 0 3.3 0.5 0.03 3.3 1.5 0.5 0.3 1.7 0.02 0 1.7 0.02 0 0 0 0 0 0 0 0 0 0 1.5 0 0.11
9.85 1.21 -0.24 17.39 0 0.06 1 0 0 23 2 2 0 0 0 22 0 0 0 1221 0.5 0 3.3 0.5 0.03 3.3 1.5 0.5 0.3 1.7 0.02 0 1.7 0.02 0 0 0 0 0 0 0 0 0 0 1.5 0 0.11
9.95 1.21 -0.24 17.62 -0.13 0.19 0.88 0 0 22 2 2 0 0 0 22 0 0 0 1221 0.5 0 3.3 0.5 0.03 3.3 1.5 0.5 0.3 1.7 0.02 0 1.7 0.02 0 0 0 0 0 0 0 0 0 0 1.5 0 0.11
10.05 1.21 -0.24 17.86 -0.13 0.06 1 0 0 22 2 2 0 0 0 22 0 0 0 1221 0.5 0 3.3 0.5 0.03 3.3 1.5 0.5 0.3 1.7 0.02 0 1.7 0.02 0 0 0 0 0 0 0 0 0 0 1.5 0 0.11
10.15 1.21 -0.24 18.09 -0.06 0.19 0.94 0 0 23 2 2 0 0 0 22 0 0 0 1221 0.5 0 3.3 0.5 0.03 3.3 1.5 0.5 0.3 1.7 0.02 0 1.7 0.02 0 0 0 0 0 0 0 0 0 0 1.5 0 0.11
10.25 1.21 -0.24 18.33 0 0.13 0.94 0 0 23 2 2 0 0 0 22 0 0 0 1221 0.5 0 3.3 0.5 0.03 3.3 1.5 0.5 0.3 1.7 0.02 0 1.7 0.02 0 0 0 0 0 0 0 0 0 0 1.5 0 0.11
10.35 1.21 -0.24 18.5 0 0.19 1.06 0 0 23 2 2 0 0 0 22 0 0 0 1221 0.5 0 3.3 0.5 0.03 3.3 1.5 0.5 0.3 1.7 0.02 0 1.7 0.02 0 0 0 0 0 0 0 0 0 0 1.5 0 0.11
10.45 1.21 -0.23 18.73 0 0.13 0.94 0 0 23 2 2 0 0 0 22 0 0 0 1221 0.5 0 3.3 0.5 0.03 3.3 1.5 0.5 0.3 1.7 0.02 0 1.7 0.02 0 0 0 0 0 0 0 0 0 0 1.5 0 0.11
10.55 1.21 -0.23 18.93 0 0.25 0.94 0 0 23 2 2 0 0 0 22 0 0 0 1221 0.5 0 3.3 0.5 0.03 3.3 1.5 0.5 0.3 1.7 0.02 0 1.7 0.02 0 0 0 0 0 0 0 0 0 0 1.5 0 0.11
10.65 1.21 -0.23 19.18 0 0.25 0.94 0 0 21 2 1 0 0 0 22 0 0 0 1221 0.5 0 3.3 0.5 0.03 3.3 1.5 0.5 0.3 1.7 0.02 0 1.7 0.02 0 0 0 0 0 0 0 0 0 0 1.5 0 0.11
10.75 1.21 -0.23 19.32 -0.06 0.13 1 0 0 23 2 2 0 0 0 22 0 0 0 1221 0.5 0 3.3 0.5 0.03 3.3 1.5 0.5 0.3 1.7 0.02 0 1.7 0.02 0 0 0 0 0 0 0 0 0 0 1.5 0 0.11
10.85 1.21 -0.23 19.54 0 0.19 1 0 0 23 2 2 0 0 0 22 0 0 0 1221 0.5 0 3.3 0.5 0.03 3.3 1.5 0.5 0.3 1.7 0.02 0 1.7 0.02 0 0 0 0 0 0 0 0 0 0 1.5 0 0.11
10.95 1.21 -0.23 19.74 -0.06 0.13 0.88 0 0 23 2 2 0 0 0 22 0 0 0 1221 0.5 0 3.3 0.5 0.03 3.3 1.5 0.5 0.3 1.7 0.02 0 1.7 0.02 0 0 0 0 0 0 0 0 0 0 1.5 0 0.11
11.05 1.21 -0.23 20.03 0 0.06 0.88 0 0 23 2 1 0 0 0 22 0 0 0 1221 0.5 0 3.3 0.5 0.03 3.3 1.5 0.5 0.3 1.7 0.02 0 1.7 0.02 0 0 0 0 0 0 0 0 0 0 1.5 0 0.11
11.15 1.21 -0.24 20.24 0 0.06 0.88 0 0 23 2 2 0 0 0 22 0 0 0 1221 0.5 0 3.3 0.5 0.03 3.3 1.5 0.5 0.3 1.7 0.02 0 1.7 0.02 0 0 0 0 0 0 0 0 0 0 1.5 0 0.11
11.25 1.21 -0.24 20.46 -0.06 0.19 0.94 0 0 23 2 2 0 0 0 22 0 0 0 1221 0.5 0 3.3 0.5 0.03 3.3 1.5 0.5 0.3 1.7 0.02 0 1.7 0.02 0 0 0 0 0 0 0 0 0 0 1.5 0 0.11
11.35 1.21 -0.24 20.65 -0.06 0.06 0.94 0 0 22 2 2 0 0 0 22 0 0 0 1221 0.5 0 3.3 0.5 0.03 3.3 1.5 0.5 0.3 1.7 0.02 0 1.7 0.02 0 0 0 0 0 0 0 0 0 0 1.5 0 0.11
11.45 1.21 -0.23 20.83 -0.06 0.19 1 0 0 20 2 1 0 0 0 22 0.83 2.19 -28.16 1221 0.5 0 3.3 0.5 0.03 3.3 1.5 0.5 0.3 1.7 0.02 0 1.7 0.02 0 0 0 0 0 0 0 0 0 0 1.5 0 0.11
11.55 1.22 -0.23 21.05 0 0.13 1 0 0 23 2 1 0 0 0 22 0.6 1.52 -28.55 1221 0.5 0 3.3 0.5 0.03 3.3 1.5 0.5 0.3 1.7 0.02 0 1.7 0.02 0 0 0 0 0 0 0 0 0 0 1.5 0 0.11
11.65 1.22 -0.23 21.2 0 0.13 0.88 0 0 23 2 1 0 0 0 22 0.74 1.52 -28.88 1221 0.5 0 3.3 0.5 0.03 3.3 1.5 0.5 0.3 1.7 0.02 0 1.7 0.02 0 0 0 0 0 0 0 0 0 0 1.5 0 0.11
11.75 1.22 -0.23 21.43 0 0.13 0.94 0 0 22 2 1 0 0 0 22 0.74 1.62 -29.28 1221 0.5 0 3.3 0.5 0.03 3.3 1.5 0.5 0.3 1.7 0.02 0 1.7 0.02 0 0 0 0 0 0 0 0 0 0 1.5 0 0.11
11.85 1.22 -0.23 21.6 0 0.13 0.94 0 0 22 2 2 0 0 0 22 0.6 2.58 -29.77 1221 0.5 0 3.3 0.5 0.03 3.3 1.5 0.5 0.3 1.7 0.02 0 1.7 0.02 0 0 0 0 0 0 0 0 0 0 1.5 0 0.11
11.95 1.22 -0.23 21.82 0 0.13 0.88 0 0 22 2 2 0 0 0 22 0.67 8 -30.06 1221 0.5 0 3.3 0.5 0.03 3.3 1.5 0.5 0.3 1.7 0.02 0 1.7 0.02 0 0 0 0 0 0 0 0 0 0 1.5 0 0.11
12.05 1.22 -0.23 22.01 0 0.13 1 0 0 22 2 2 0 0 0 22 0.69 2.55 -30.47 1221 0.5 0 3.3 0.5 0.03 3.3 1.5 0.5 0.3 1.7 0.02 0 1.7 0.02 0 0 0 0 0 0 0 0 0 0 1.5 0 0.11
12.15 1.22 -0.23 22.2 0 0.19 0.94 0 0 23 2 2 0 0 0 22 0.68 2.4 -30.91 1221 0.5 0 3.3 0.5 0.03 3.3 1.5 0.5 0.3 1.7 0.02 0 1.7 0.02 0 0 0 0 0 0 0 0 0 0 1.5 0 0.11
12.25 1.22 -0.23 22.37 -0.06 0.13 0.94 0 0 23 2 2 0 0 0 22 0.83 2.51 -31.33 1221 0.5 0 3.3 0.5 0.03 3.3 1.5 0.5 0.3 1.7 0.02 0 1.7 0.02 0 0 0 0 0 0 0 0 0 0 1.5 0 0.11
12.35 1.22 -0.23 22.63 -0.06 0.06 1 0 0 23 2 1 0 0 0 22 0.83 1.82 -31.63 1221 0.5 0 3.3 0.5 0.03 3.3 1.5 0.5 0.3 1.7 0.02 0 1.7 0.02 0 0 0 0 0 0 0 0 0 0 1.5 0 0.11
12.45 1.22 -0.23 22.86 -0.13 0.06 0.88 0 0 22 2 2 0 0 0 22 0.85 8.22 -31.98 1221 0.5 0 3.3 0.5 0.03 3.3 1.5 0.5 0.3 1.7 0.02 0 1.7 0.02 0 0 0 0 0 0 0 0 0 0 1.5 0 0.11
12.55 1.22 -0.23 23.1 0 0.13 0.94 0 0 23 2 2 0 0 0 22 0.69 2.64 -32.42 1221 0.5 0 3.3 0.5 0.03 3.3 1.5 0.5 0.3 1.7 0.02 0 1.7 0.02 0 0 0 0 0 0 0 0 0 0 1.5 0 0.11
12.65 1.22 -0.23 23.29 -0.06 0.19 0.94 0 0 23 2 1 0 0 0 22 0.83 2.42 -32.87 1221 0.5 0 3.3 0.5 0.03 3.3 1.5 0.5 0.3 1.7 0.02 0 1.7 0.02 0 0 0 0 0 0 0 0 0 0 1.5 0 0.11
12.75 1.22 -0.23 23.5 0 0.13 0.94 0 0 23 2 1 0 0 0 22 0.77 1.75 -33.25 1221 0.5 0 3.3 0.5 0.03 3.3 1.5 0.5 0.3 1.7 0.02 0 1.7 0.02 0 0 0 0 0 0 0 0 0 0 1.5 0 0.11
12.85 1.22 -0.23 23.69 0 0.19 1 0 0 23 2 2 0 0 0 22 0.75 2.59 -33.66 1221 0.5 0 3.3 0.5 0.03 3.3 1.5 0.5 0.3 1.7 0.02 0 1.7 0.02 0 0 0 0 0 0 0 0 0 0 1.5 0 0.11
12.95 1.22 -0.23 23.86 0 0.13 1 0 0 23 2 1 0 0 0 22 0.76 1.84 -34.03 1221 0.5 0 3.3 0.5 0.03 3.3 1.5 0.5 0.3 1.7 0.02 0 1.7 0.02 0 0 0 0 0 0 0 0 0 0 1.5 0 0.11
13.05 1.22 -0.23 24.06 -0.06 0.19 0.94 0 0 23 2 1 0 0 0 22 0.84 1.7 -34.52 1221 0.5 0 3.3 0.5 0.03 3.3 1.5 0.5 0.3 1.7 0.02 0 1.7 0.02 0 0 0 0 0 0 0 0 0 0 1.5 0 0.11
13.15 1.22 -0.23 24.19 0 0.13 0.94 0 0 23 2 1 0 0 0 22 0.69 2.74 -34.78 1221 0.5 0 3.3 0.5 0.03 3.3 1.5 0.5 0.3 1.7 0.02 0 1.7 0.02 0 0 0 0 0 0 0 0 0 0 1.5 0 0.11
13.25 1.22 -0.23 24.41 -0.06 0.19 1.06 0 0 23 2 2 0 0 0 22 0.83 2.68 -35.34 1221 0.5 0 3.3 0.5 0.03 3.3 1.5 0.5 0.3 1.7 0.02 0 1.7 0.02 0 0 0 0 0 0 0 0 0 0 1.5 0 0.11
13.35 1.22 -0.23 24.57 0 0.13 0.88 0 0 24 2 2 0 0 0 22 0.76 2.76 -35.57 1221 0.5 0 3.3 0.5 0.03 3.3 1.5 0.5 0.3 1.7 0.02 0 1.7 0.02 0 0 0 0 0 0 0 0 0 0 1.5 0 0.11
13.45 1.22 -0.23 24.79 0 0.13 1 0 0 23 2 1 0 0 0 22 0.69 -3.66 -36.06 1221 0.5 0 3.3 0.5 0.03 3.3 1.5 0.5 0.3 1.7 0.02 0 1.7 0.02 0 0 0 0 0 0 0 0 0 0 1.5 0 0.11
13.55 1.22 -0.23 24.98 0 0.19 0.94 0 0 23 2 2 0 0 0 22 0.7 2.79 -36.4 1221 0.5 0 3.3 0.5 0.03 3.3 1.5 0.5 0.3 1.7 0.02 0 1.7 0.02 0 0 0 0 0 0 0 0 0 0 1.5 0 0.11
13.651 1.22 -0.23 25.14 -0.06 0.19 1 0 0 22 2 2 0 0 0 22 0.86 8.37 -36.8 1221 0.5 0 3.3 0.5 0.03 3.3 1.5 0.5 0.3 1.7 0.02 0 1.7 0.02 0 0 0 0 0 0 0 0 0 0 1.5 0 0.11
13.751 1.22 -0.23 25.3 -0.06 0.19 1 0 0 23 2 2 0 0 0 22 0.92 2.7 -37.23 1221 0.5 0 3.3 0.5 0.03 3.3 1.5 0.5 0.3 1.7 0.02 0 1.7 0.02 0 0 0 0 0 0 0 0 0 0 1.5 0 0.11
13.85 1.22 -0.23 25.5 -0.06 0.25 1 0 0 24 2 1 0 0 0 22 0.85 1.74 -37.56 1221 0.5 0 3.3 0.5 0.03 3.3 1.5 0.5 0.3 1.7 0.02 0 1.7 0.02 0 0 0 0 0 0 0 0 0 0 1.5 0 0.11
13.951 1.22 -0.24 25.69 -0.06 0.13 1 0 0 23 2 2 0 0 0 22 0.86 2.76 -38.04 1221 0.5 0 3.3 0.5 0.03 3.3 1.5 0.5 0.3 1.7 0.02 0 1.7 0.02 0 0 0 0 0 0 0 0 0 0 1.5 0 0.11
14.05 1.22 -0.24 25.88 -0.06 0.06 0.94 0 0 23 2 1 0 0 0 22 0.78 2.09 -38.38 1221 0.5 0 3.3 0.5 0.03 3.3 1.5 0.5 0.3 1.7 0.02 0 1.7 0.02 0 0 0 0 0 0 0 0 0 0 1.5 0 0.11
14.15 1.22 -0.24 26.1 0 0.19 1 0 0 23 2 1 0 0 0 22 0.79 -3.67 -38.74 1221 0.5 0 3.3 0.5 0.03 3.3 1.5 0.5 0.3 1.7 0.02 0 1.7 0.02 0 0 0 0 0 0 0 0 0 0 1.5 0 0.11
14.25 1.22 -0.24 26.29 0 0.13 1 0 0 23 2 2 0 0 0 22 0.71 2.96 -39.12 1221 0.5 0 3.3 0.5 0.03 3.3 1.5 0.5 0.3 1.7 0.02 0 1.7 0.02 0 0 0 0 0 0 0 0 0 0 1.5 0 0.11
14.351 1.22 -0.24 26.43 0 0.06 1.06 0 0 23 2 1 0 0 0 22 0.77 2.21 -39.52 1221 0.5 0 3.3 0.5 0.03 3.3 1.5 0.5 0.3 1.7 0.02 0 1.7 0.02 0 0 0 0 0 0 0 0 0 0 1.5 0 0.11
14.451 1.22 -0.23 26.2 -1.25 0 2.06 0 0 23 2 2 0 0 0 22 2.94 3.17 -39.42 1221 0.5 0 3.3 0.5 0.03 3.3 1.5 0.5 0.3 1.7 0.02 0 1.7 0.02 0 0 0 0 0 0 0 0 0 0 1.5 0 0.11
14.55 1.21 -0.24 25.85 0.19 0.19 1.81 0 0 23 2 2 0 0 0 22 0.91 2.34 -41.33 1221 0.5 0 3.3 0.5 0.03 3.3 1.5 0.5 0.3 1.7 0.02 0 1.7 0.02 0 0 0 0 0 0 0 0 0 0 1.5 0 0.11
14.651 1.21 -0.25 25.27 0.13 1.06 0.88 0 0 23 2 2 0 0 0 22 0.25 0.06 -40.74 1221 0.5 0 3.3 0.5 0.03 3.3 1.5 0.5 0.3 1.7 0.02 0 1.7 0.02 0 0 0 0 0 0 0 0 0 0 1.5 0 0.11
14.751 1.21 -0.23 24.43 2 0.94 -0.13 0 0 23 2 2 0 0 0 22 -1.32 2.63 -39.94 1221 0.5 0 3.3 0.5 0.03 3.3 1.5 0.5 0.3 1.7 0.02 0 1.7 0.02 0 0 0 0 0 0 0 0 0 0 1.5 0 0.11
14.851 1.23 -0.23 24.14 1.06 -0.37 0.88 0 0 23 2 2 0 0 0 22 -0.16 5 -41.1 1221 0.5 0 3.3 0.5 0.03 3.3 1.5 0.5 0.3 1.7 0.02 0 1.7 0.02 0 0 0 0 0 0 0 0 0 0 1.5 0 0.11
14.951 1.24 -0.21 23.61 0.44 -1 2.31 0 0 23 2 2 0 0 0 22 1.49 5.49 -42.57 1221 0.5 0 3.3 0.5 0.03 3.3 1.5 0.5 0.3 1.7 0.02 0 1.7 0.02 0 0 0 0 0 0 0 0 0 0 1.5 0 0.11
15.051 1.24 -0.22 23.5 0.25 0.44 1 0 0 23 2 2 0 0 0 22 -0.86 2.38 -41.96 1221 0.5 0 3.3 0.5 0.03 3.3 1.5 0.5 0.3 1.7 0.02 0 1.7 0.02 0 0 0 0 0 0 0 0 0 0 1.5 0 0.11
15.151 1.23 -0.21 22.87 -0.31 0.13 -1.31 0 0 23 2 2 0 0 0 22 2.71 3.86 -41.11 1221 0.5 0 3.3 0.5 0.03 3.3 1.5 0.5 0.3 1.7 0.02 0 1.7 0.02 0 0 0 0 0 0 0 0 0 0 1.5 0 0.11
15.251 1.23 -0.21 22.34 0.56 1.56 1.62 0 0 24 2 2 0 0 0 22 -0.83 0.24 -41.82 1222 0.5 0 3.3 0.5 0.03 3.3 1.5 0.5 0.3 1.7 0.02 0 1.7 0.02 0 0 0 0 0 0 0 0 0 0 1.5 0 0.11
15.35 1.22 -0.22 21.57 0.31 2.56 0.56 0 0 25 2 2 0 0 0 22 2.03 -0.97 -43.58 1222 0.5 0 3.3 0.5 0.03 3.3 1.5 0.5 0.3 1.7 0.02 0 1.7 0.02 0 0 0 0 0 0 0 0 0 0 1.5 0 0.11
15.451 1.21 -0.2 21.06 -4 -0.75 0.56 0 0 24 2 1 0 0 0 22 5.95 1.92 -43.42 1227 0.5 0 3.3 0.5 0.03 3.3 1.5 0.5 0.3 1.7 0.02 0 1.7 0.02 0 0 0 0 0 0 0 0 0 0 1.5 0 0.11
15.55 1.19 -0.19 20.38 -3.06 -0.88 0.19 0 0 24 1 2 0 0 0 22 5.1 3.7 -43.98 1227 0.5 0 3.3 0.5 0.03 3.3 1.5 0.5 0.3 1.7 0.02 0 1.7 0.02 0 0 0 0 0 0 0 0 0 0 1.5 0 0.11
15.651 1.19 -0.19 19.96 1.44 0.5 -0.62 0 0 23 1 2 0 0 0 23 1.64 3.37 -41.45 1234 0.5 0 3.3 0.5 0.03 3.3 1.5 0.5 0.3 1.7 0.02 0 1.7 0.02 0 0 0 0 0 0 0 0 0 0 1.5 0 0.11
15.751 1.19 -0.19 19.35 2.87 1.62 1 0 0 23 1 2 0 0 0 26 -7.15 -1.85 -44.66 1269 0.5 0 3.3 0.5 0.03 3.3 1.5 0.5 0.3 1.7 0.02 0 1.7 0.02 0 0 0 0 0 0 0 0 0 0 1.5 0 0.11
15.851 1.16 -0.19 18.81 -1.87 0.56 -2.5 0 0 23 1 2 0 0 0 28 5.67 2.8 -45.35 1284 0.5 0 3.3 0.5 0.03 3.3 1.5 0.5 0.3 1.7 0.02 0 1.7 0.02 0 0 0 0 0 0 0 0 0 0 1.5 0 0.11
15.95 1.13 -0.19 18.9 0.69 1.12 -1.25 0 0 26 1 2 0 0 0 29 3.6 3.21 -45.94 1297 0.5 0 3.3 0.5 0.03 3.3 1.5 0.5 0.3 1.7 0.02 0 1.7 0.02 0 0 0 0 0 0 0 0 0 0 1.5 0 0.11
16.051 1.14 -0.2 18.96 3 1.25 4.69 0 0 23 1 2 0 0 0 31 -9.36 1.16 -44.25 1311 0.5 0 3.3 0.5 0.03 3.3 1.5 0.5 0.3 1.7 0.02 0 1.7 0.02 0 0 0 0 0 0 0 0 0 0 1.5 0 0.11
16.153 1.12 -0.21 19.04 5.25 3.69 -3.62 0 0 22 1 3 0 0 0 33 -2.08 1.61 -43.56 1337 0.5 0 3.3 0.5 0.03 3.3 1.5 0.5 0.3 1.7 0.02 0 1.7 0.02 0 0 0 0 0 0 0 0 0 0 1.5 0 0.11
16.25 1.14 -0.19 19.04 5.87 2.94 -0.19 0 0 24 1 3 0 0 0 35 -6.67 0.2 -41.61 1351 0.5 0 3.3 0.5 0.03 3.3 1.5 0.5 0.3 1.7 0.02 0 1.7 0.02 0 0 0 0 0 0 0 0 0 0 1.5 0 0.11
16.351 1.11 -0.2 18.94 -10.13 -5.06 5.5 0 0 29 1 2 0 0 0 36 7.98 3.81 -44.46 1368 0.5 0 3.3 0.5 0.03 3.3 1.5 0.5 0.3 1.7 0.02 0 1.7 0.02 0 0 0 0 0 0 0 0 0 0 1.5 0 0.11
16.451 1.12 -0.16 18.79 -7.12 -6.12 3.25 0 0 30 1 2 0 0 0 38 9.1 5.89 -43.94 1381 0.5 0 3.3 0.5 0.03 3.3 1.5 0.5 0.3 1.7 0.02 0 1.7 0.02 0 0 0 0 0 0 0 0 0 0 1.5 0 0.11
16.551 1.15 -0.25 18.59 -4.44 -7.19 3.75 0 0 24 1 2 0 0 0 40 -11 5.43 -42.09 1406 0.5 0 3.3 0.5 0.03 3.3 1.5 0.5 0.3 1.7 0.02 0 1.7 0.02 0 0 0 0 0 0 0 0 0 0 1.5 0 0.11
16.651 1.11 -0.22 18.22 -17.69 -4.75 -5.56 0 0 24 1 2 0 0 0 40 4.49 -0.8 -37.79 1406 0.5 0 3.3 0.5 0.03 3.3 1.5 0.5 0.3 1.7 0.02 0 1.7 0.02 0 0 0 0 0 0 0 0 0 0 1.5 0 0.11
16.751 1.31 0 17.57 -16.5 -5.75 -1.87 0 0 23 1 1 0 0 0 42 1.36 3.08 -34.69 1422 0.5 0 3.3 0.5 0.03 3.3 1.5 0.5 0.3 1.7 0.02 0 1.7 0.02 0 0 0 0 0 0 0 0 0 0 1.5 0 0.11
16.851 1.43 0.56 16.71 17.5 17.5 -13.94 0 0 24 1 1 0 0 0 43 -15.96 -17.61 -25.33 1435 0.5 0 3.3 0.5 0.03 3.3 1.5 0.5 0.3 1.7 0.02 0 1.7 0.02 0 0 0 0 0 0 0 0 0 0 1.5 0 0.11
16.951 1.75 2.08 15.63 -7.25 16.87 -10.69 0 0 21 1 2 0 0 0 43 -17.02 -15.29 -24.12 1436 0.5 0 3.3 0.5 0.03 3.3 1.5 0.5 0.3 1.7 0.02 0 1.7 0.02 0 0 0 0 0 0 0 0 0 0 1.5 0 0.11
17.051 1.67 3.12 14.36 -19.37 -1 -18.56 0 0 23 1 1 0 0 0 43 -33.92 -13.85 -20.65 1436 0.5 0 3.3 0.5 0.03 3.3 1.5 0.5 0.3 1.7 0.02 0 1.7 0.02 0 0 0 0 0 0 0 0 0 0 1.5 0 0.11
17.151 0.94 2.72 13.17 12.63 0.13 -13.5 0 0 21 1 1 0 0 0 43 -40.74 -12.74 -21.26 1436 0.5 0 3.3 0.5 0.03 3.3 1.5 0.5 0.3 1.7 0.02 0 1.7 0.02 0 0 0 0 0 0 0 0 0 0 1.5 0 0.11
17.251 -0.96 2.31 11.94 -3.06 -2.62 -21.31 0 0 21 1 2 0 0 0 43 -61.03 -33.79 -13.96 1435 0.5 0 3.3 0.5 0.03 3.3 1.5 0.5 0.3 1.7 0.02 0 1.7 0.02 0 0 0 0 0 0 0 0 0 0 1.5 0 0.11
17.351 -4.56 2.65 10.6 -18.12 14.81 -29.5 0 0 21 1 1 0 0 0 41 4.69 -24.14 -14.14 1419 0.5 0 3.3 0.5 0.03 3.3 1.5 0.5 0.3 1.7 0.02 0 1.7 0.02 0 0 0 0 0 0 0 0 0 0 1.5 0 0.11
17.451 -8.51 2.61 9.28 -32.38 -14.94 -22.06 0 0 24 1 2 0 0 0 41 4.75 13.9 -19.32 1419 0.5 0 3.3 0.5 0.03 3.3 1.5 0.5 0.3 1.7 0.02 0 1.7 0.02 0 0 0 0 0 0 0 0 0 0 1.5 0 0.11
17.551 -10.11 1.02 7.97 3.62 -23.31 -6.62 0 0 31 1 2 0 0 0 41 7.37 16.65 -25.6 1419 0.5 0 3.3 0.5 0.03 3.3 1.5 0.5 0.3 1.7 0.02 0 1.7 0.02 0 0 0 0 0 0 0 0 0 0 1.5 0 0.11
17.651 -6.93 0.93 6.31 48.31 12.63 -13.06 0 0 36 9 2 0 0 0 41 -6.49 -10.38 -14.65 1419 0.5 0 3.3 0.5 0.03 3.3 1.5 0.5 0.3 1.7 0.02 0 1.7 0.02 0 0 0 0 0 0 0 0 0 0 1.5 0 0.11
17.751 -0.99 4.58 3.88 88 58 -15.25 0 0 39 10 2 0 0 0 41 -59.87 -45.49 -12.09 1419 0.5 0 3.3 0.5 0.03 3.3 1.5 0.5 0.3 1.7 0.02 0 1.7 0.02 0 0 0 0 0 0 0 0 0 0 1.5 0 0.11
17.851 2.87 8.24 1.2 71.94 33.13 -13.69 0 0 40 5 2 0 0 0 41 -87.75 -35.29 -13.73 1419 0.5 0 3.3 0.5 0.03 3.3 1.5 0.5 0.3 1.7 0.02 0 1.7 0.02 0 0 0 0 0 0 0 0 0 0 1.5 0 0.11
17.951 1.57 8.05 -0.62 -67.56 -40.69 2.37 0 0 43 1 2 0 0 0 41 93.42 42.36 -20.62 1419 0.5 0 3.3 0.5 0.03 3.3 1.5 0.5 0.3 1.7 0.02 0 1.7 0.02 0 0 0 0 0 0 0 0 0 0 1.5 0 0.11
18.051 -5.41 3.33 -2.05 -91.19 -57.38 -7.12 0 0 46 2 1 0 0 0 41 39.83 30.76 -19.36 1418 0.5 0 3.3 0.5 0.03 3.3 1.5 0.5 0.3 1.7 0.02 0 1.7 0.02 0 0 0 0 0 0 0 0 0 0 1.5 0 0.11
18.151 -10.43 -2.01 -3.67 -31.69 -43.69 -9.38 0 0 50 1 2 0 0 0 40 10.09 20.88 -21.12 1405 0.5 0 3.3 0.5 0.03 3.3 1.5 0.5 0.3 1.7 0.02 0 1.7 0.02 0 0 0 0 0 0 0 0 0 0 1.5 0 0.11
18.251 -8.22 -2.63 -5.78 44.75 25.44 -28.75 0 0 55 1 2 0 0 0 40 -31.03 -23.1 0.67 1405 0.5 0 3.3 0.5 0.03 3.3 1.5 0.5 0.3 1.7 0.02 0 1.7 0.02 0 0 0 0 0 0 0 0 0 0 1.5 0 0.11
18.351 -2.19 2.04 -7.67 48.31 57.75 -20.62 0 0 56 2 2 0 0 0 40 -8.56 -17.3 -10.07 1405 0.5 0 3.3 0.5 0.03 3.3 1.5 0.5 0.3 1.7 0.02 0 1.7 0.02 0 0 0 0 0 0 0 0 0 0 1.5 0 0.11
18.451 1.14 6.13 -8.98 -1.06 22.81 -15.31 0 0 56 1 1 0 0 0 40 -4.72 -17.33 -10.72 1405 0.5 0 3.3 0.5 0.03 3.3 1.5 0.5 0.3 1.7 0.02 0 1.7 0.02 0 0 0 0 0 0 0 0 0 0 1.5 0 0.11
18.551 0.82 6.24 -10.39 -30.94 -20.19 -13.63 0 0 57 1 2 0 0 0 40 33.99 20.49 -10.97 1404 0.5 0 3.3 0.5 0.03 3.3 1.5 0.5 0.3 1.7 0.02 0 1.7 0.02 0 0 0 0 0 0 0 0 0 0 1.5 0 0.11
18.651 -0.69 3.66 -11.89 -17.62 -22.62 -15.13 0 0 58 1 2 0 0 0 40 6.73 6.85 -7.14 1404 0.5 0 3.3 0.5 0.03 3.3 1.5 0.5 0.3 1.7 0.02 0 1.7 0.02 0 0 0 0 0 0 0 0 0 0 1.5 0 0.11
18.751 0.2 3.59 -13.29 13 9.81 -4.81 0 0 60 1 2 0 0 0 39 -12.08 -11.89 -10.06 1391 0.5 0 3.3 0.5 0.03 3.3 1.5 0.5 0.3 1.7 0.02 0 1.7 0.02 0 0 0 0 0 0 0 0 0 0 1.5 0 0.11
18.851 2.04 6.08 -14.63 22.5 13.88 -9.25 0 0 60 1 2 0 0 0 39 -10.73 -13.06 -13.36 1392 0.5 0 3.3 0.5 0.03 3.3 1.5 0.5 0.3 1.7 0.02 0 1.7 0.02 0 0 0 0 0 0 0 0 0 0 1.5 0 0.11
18.951 2.16 7.87 -15.84 -15.81 -3.37 -5.06 0 0 59 1 2 0 0 0 39 14.45 -4.1 -8.53 1392 0.5 0 3.3 0.5 0.03 3.3 1.5 0.5 0.3 1.7 0.02 0 1.7 0.02 0 0 0 0 0 0 0 0 0 0 1.5 0 0.11
19.051 0.57 7.31 -17.04 -15.94 -12.75 -14.19 0 0 58 1 1 0 0 0 39 9.49 3.9 -8.24 1394 0.5 0 3.3 0.5 0.03 3.3 1.5 0.5 0.3 1.7 0.02 0 1.7 0.02 0 0 0 0 0 0 0 0 0 0 1.5 0 0.11
19.151 -0.51 5.53 -18.19 -0.69 -12.56 -12.88 0 0 58 1 1 0 0 0 40 -2.27 3.43 -8.2 1406 0.5 0 3.3 0.5 0.03 3.3 1.5 0.5 0.3 1.7 0.02 0 1.7 0.02 0 0 0 0 0 0 0 0 0 0 1.5 0 0.11
19.251 -0.02 4.13 -19.4 12.69 -3 -14.94 0 0 56 1 1 0 0 0 40 -13.23 -4.43 -10.77 1404 0.5 0 3.3 0.5 0.03 3.3 1.5 0.5 0.3 1.7 0.02 0 1.7 0.02 0 0 0 0 0 0 0 0 0 0 1.5 0 0.11
19.351 1.33 4.08 -20.6 20.37 14.44 -16.31 0 0 54 1 1 0 0 0 40 -12.86 -10.73 -12.58 1406 0.5 0 3.3 0.5 0.03 3.3 1.5 0.5 0.3 1.7 0.02 0 1.7 0.02 0 0 0 0 0 0 0 0 0 0 1.5 0 0.11
19.451 1.69 4.39 -21.69 8.69 17.56 -22.37 0 0 51 1 1 0 0 0 40 4.27 -3.93 -5.91 1409 0.5 0 3.3 0.5 0.03 3.3 1.5 0.5 0.3 1.7 0.02 0 1.7 0.02 0 0 0 0 0 0 0 0 0 0 1.5 0 0.11
19.551 0.91 4.03 -22.83 -13.69 -5.56 -13.25 0 0 48 1 1 0 0 0 42 11.6 1.68 -7.98 1420 0.5 0 3.3 0.5 0.03 3.3 1.5 0.5 0.3 1.7 0.02 0 1.7 0.02 0 0 0 0 0 0 0 0 0 0 1.5 0 0.11
19.651 0.43 3.56 -24.03 -11.19 5.62 -15.88 0 0 45 1 1 0 0 0 41 0.54 -3.17 -6.34 1419 0.5 0 3.3 0.5 0.03 3.3 1.5 0.5 0.3 1.7 0.02 0 1.7 0.02 0 0 0 0 0 0 0 0 0 0 1.5 0 0.11
19.751 1.24 4.72 -25.26 9.63 23.62 -22.75 0 0 41 1 1 0 0 0 41 -11 -17.43 2.85 1419 0.5 0 3.3 0.5 0.03 3.3 1.5 0.5 0.3 1.7 0.02 0 1.7 0.02 0 0 0 0 0 0 0 0 0 0 1.5 0 0.11
19.851 2.45 6.32 -26.27 -6.25 -4.62 2.25 0 0 40 2 1 0 0 0 41 19.13 14.61 -11.85 1419 0.5 0 3.3 0.5 0.03 3.3 1.5 0.5 0.3 1.7 0.02 0 1.7 0.02 0 0 0 0 0 0 0 0 0 0 1.5 0 0.11
19.951 2.48 6.22 -27.37 1.31 -8.5 -10.06 0 0 37 1 1 0 0 0 41 -13.17 -5.49 -4.16 1419 0.5 0 3.3 0.5 0.03 3.3 1.5 0.5 0.3 1.7 0.02 0 1.7 0.02 0 0 0 0 0 0 0 0 0 0 1.5 0 0.11
20.051 2.96 5.82 -28.54 28.62 -2 -13 0 0 37 1 1 0 0 0 41 -10.99 -1.38 -2.91 1419 0.5 0 3.3 0.5 0.03 3.3 1.5 0.5 0.3 1.7 0.02 0 1.7 0.02 0 0 0 0 0 0 0 0 0 0 1.5 0 0.11
20.151 3.25 5.58 -29.61 -22.94 -2.75 -9.56 0 0 37 1 1 0 0 0 41 18.01 -5.33 -8.14 1419 0.5 0 3.3 0.5 0.03 3.3 1.5 0.5 0.3 1.7 0.02 0 1.7 0.02 0 0 0 0 0 0 0 0 0 0 1.5 0 0.11
20.251 3.09 5.42 -30.53 9.44 4.94 -7.12 0 0 37 2 1 0 0 0 41 -2.23 -4.25 -8.12 1419 0.5 0 3.3 0.5 0.03 3.3 1.5 0.5 0.3 1.7 0.02 0 1.7 0.02 0 0 0 0 0 0 0 0 0 0 1.5 0 0.11
20.351 2.79 5.1 -31.3 -15.31 -22.44 4.75 0 0 38 1 -1 0 0 0 41 0.48 4.4 -10.94 1419 0.5 0 3.3 0.5 0.03 3.3 1.5 0.5 0.3 1.7 0.02 0 1.7 0.02 0 0 0 0 0 0 0 0 0 0 1.5 0 0.11
20.451 1.89 4.71 -32.08 15.44 3.12 -11.38 0 0 37 2 -2 0 0 0 41 -20.16 -20.14 -7.64 1419 0.5 0 3.3 0.5 0.03 3.3 1.5 0.5 0.3 1.7 0.02 0 1.7 0.02 0 0 0 0 0 0 0 0 0 0 1.5 0 0.11
20.551 1.77 5.11 -32.73 21.69 16.12 -10.5 0 0 38 2 -6 0 0 0 42 -0.51 -16.26 -9.04 1420 0.5 0 3.3 0.5 0.03 3.3 1.5 0.5 0.3 1.7 0.02 0 1.7 0.02 0 0 0 0 0 0 0 0 0 0 1.5 0 0.11
20.651 1.92 4.98 -33.37 -9.63 -8.75 2.87 0 0 39 2 -9 0 0 0 41 4.87 -6.82 -13.79 1419 0.5 0 3.3 0.5 0.03 3.3 1.5 0.5 0.3 1.7 0.02 0 1.7 0.02 0 0 0 0 0 0 0 0 0 0 1.5 0 0.11
20.751 1.47 3.31 -34.13 -11.19 -28.06 -12.56 0 0 40 2 -8 0 0 0 41 13.8 11.69 -6.9 1419 0.5 0 3.3 0.5 0.03 3.3 1.5 0.5 0.3 1.7 0.02 0 1.7 0.02 0 0 0 0 0 0 0 0 0 0 1.5 0 0.11
20.851 0.93 0.94 -34.96 -4.94 -18 -16.19 0 0 41 2 -7 0 0 0 41 -14.3 -3.86 -7.47 1419 0.5 0 3.3 0.5 0.03 3.3 1.5 0.5 0.3 1.7 0.02 0 1.7 0.02 0 0 0 0 0 0 0 0 0 0 1.5 0 0.11
20.951 0.67 -0.09 -35.71 1.75 1.81 -16.06 0 0 43 2 -2 0 0 0 41 0.42 -6.19 -8.53 1419 0.5 0 3.3 0.5 0.03 3.3 1.5 0.5 0.3 1.7 0.02 0 1.7 0.02 0 0 0 0 0 0 0 0 0 0 1.5 0 0.11
21.051 0.76 0.53 -36.46 5.06 17.75 -12 0 0 44 2 2 0 0 0 41 4.12 -4.3 -6.38 1419 0.5 0 3.3 0.5 0.03 3.3 1.5 0.5 0.3 1.7 0.02 0 1.7 0.02 0 0 0 0 0 0 0 0 0 0 1.5 0 0.11
21.151 0.85 1.66 -37.08 -5.81 5.75 4 0 0 45 1 2 0 0 0 41 -3.29 -4.79 -11.96 1419 0.5 0 3.3 0.5 0.03 3.3 1.5 0.5 0.3 1.7 0.02 0 1.7 0.02 0 0 0 0 0 0 0 0 0 0 1.5 0 0.11
21.251 1.2 2.43 -37.7 17.69 7.81 -7.69 0 0 46 1 2 0 0 0 41 -4.83 -0.37 -8.98 1419 0.5 0 3.3 0.5 0.03 3.3 1.5 0.5 0.3 1.7 0.02 0 1.7 0.02 0 0 0 0 0 0 0 0 0 0 1.5 0 0.11
21.351 0.71 2.26 -38.32 -27.12 -12.75 -10.31 0 0 49 1 1 0 0 0 41 19.6 3.37 -1.67 1418 0.5 0 3.3 0.5 0.03 3.3 1.5 0.5 0.3 1.7 0.02 0 1.7 0.02 0 0 0 0 0 0 0 0 0 0 1.5 0 0.11
21.451 -1.35 1.85 -39.08 -13.63 12.38 -21.37 0 0 53 1 1 0 0 0 41 14.86 0.73 -4.75 1411 0.5 0 3.3 0.5 0.03 3.3 1.5 0.5 0.3 1.7 0.02 0 1.7 0.02 0 0 0 0 0 0 0 0 0 0 1.5 0 0.11
21.551 -3.07 1.55 -39.65 -27.56 0 0.37 0 0 54 1 1 0 0 0 39 25.83 3.02 -15.53 1391 0.5 0 3.3 0.5 0.03 3.3 1.5 0.5 0.3 1.7 0.02 0 1.7 0.02 0 0 0 0 0 0 0 0 0 0 1.5 0 0.11
21.651 -2.14 1.88 -40.26 28.56 11.5 -8.81 0 0 58 1 2 0 0 0 39 -9.96 -6.45 -7.14 1393 0.5 0 3.3 0.5 0.03 3.3 1.5 0.5 0.3 1.7 0.02 0 1.7 0.02 0 0 0 0 0 0 0 0 0 0 1.5 0 0.11
21.751 0.79 2.63 -40.92 35.06 10.44 -1.37 0 0 59 1 2 0 0 0 39 -11.91 -4.26 -7.76 1393 0.5 0 3.3 0.5 0.03 3.3 1.5 0.5 0.3 1.7 0.02 0 1.7 0.02 0 0 0 0 0 0 0 0 0 0 1.5 0 0.11
21.851 2.38 3.26 -41.47 -1.25 6.94 -0.88 0 0 61 1 2 0 0 0 39 20.04 8.79 -12.22 1393 0.5 0 3.3 0.5 0.03 3.3 1.5 0.5 0.3 1.7 0.02 0 1.7 0.02 0 0 0 0 0 0 0 0 0 0 1.5 0 0.11
21.951 1.32 3.66 -42.02 -2.75 6.56 -12.5 0 0 62 1 2 0 0 0 39 4.58 -2.9 -6.52 1393 0.5 0 3.3 0.5 0.03 3.3 1.5 0.5 0.3 1.7 0.02 0 1.7 0.02 0 0 0 0 0 0 0 0 0 0 1.5 0 0.11
22.051 0.13 3.88 -42.58 3.12 3.12 -6 0 0 62 1 2 0 0 0 39 3.85 -0.96 -8.8 1393 0.5 0 3.3 0.5 0.03 3.3 1.5 0.5 0.3 1.7 0.02 0 1.7 0.02 0 0 0 0 0 0 0 0 0 0 1.5 0 0.11
22.151 0.3 4.5 -43.13 18.75 14.56 -14 0 0 59 1 2 0 0 0 39 -8.25 -8.73 -5.24 1393 0.5 0 3.3 0.5 0.03 3.3 1.5 0.5 0.3 1.7 0.02 0 1.7 0.02 0 0 0 0 0 0 0 0 0 0 1.5 0 0.11
22.251 0.76 5.24 -43.63 24.19 7.69 -8.44 0 0 57 1 2 0 0 0 39 -8.69 -2.39 -10.23 1395 0.5 0 3.3 0.5 0.03 3.3 1.5 0.5 0.3 1.7 0.02 0 1.7 0.02 0 0 0 0 0 0 0 0 0 0 1.5 0 0.11
22.351 0.03 4.99 -43.98 -0.13 -7.56 -7.56 0 0 56 1 2 0 0 0 40 12.13 2.02 -11.91 1406 0.5 0 3.3 0.5 0.03 3.3 1.5 0.5 0.3 1.7 0.02 0 1.7 0.02 0 0 0 0 0 0 0 0 0 0 1.5 0 0.11
22.451 -1.54 4.24 -44.27 -24.44 -10.63 -2.94 0 0 53 1 2 0 0 0 40 15.15 3.75 -13.83 1406 0.5 0 3.3 0.5 0.03 3.3 1.5 0.5 0.3 1.7 0.02 0 1.7 0.02 0 0 0 0 0 0 0 0 0 0 1.5 0 0.11
22.551 -1.68 4.09 -44.63 0.13 -8.25 -2.31 0 0 51 1 2 0 0 0 40 -0.66 -3.11 -11.32 1407 0.5 0 3.3 0.5 0.03 3.3 1.5 0.5 0.3 1.7 0.02 0 1.7 0.02 0 0 0 0 0 0 0 0 0 0 1.5 0 0.11
22.651 -0.21 4.93 -44.97 3.94 9.13 5.12 0 0 48 1 1 0 0 0 42 -6.9 -18.54 -10.47 1421 0.5 0 3.3 0.5 0.03 3.3 1.5 0.5 0.3 1.7 0.02 0 1.7 0.02 0 0 0 0 0 0 0 0 0 0 1.5 0 0.11
22.751 1.04 6.24 -45.21 6.87 12.44 0.37 0 0 46 1 1 0 0 0 41 -16.22 -27.63 -12.88 1419 0.5 0 3.3 0.5 0.03 3.3 1.5 0.5 0.3 1.7 0.02 0 1.7 0.02 0 0 0 0 0 0 0 0 0 0 1.5 0 0.11
22.851 0.77 6.88 -45.46 -31.62 -15.19 7 0 0 44 1 1 0 0 0 41 14.64 -1.98 -12.49 1419 0.5 0 3.3 0.5 0.03 3.3 1.5 0.5 0.3 1.7 0.02 0 1.7 0.02 0 0 0 0 0 0 0 0 0 0 1.5 0 0.11
22.951 -0.23 6.53 -45.8 -12.38 -7 2.25 0 0 44 1 1 0 0 0 41 3.27 -6.28 -13.53 1419 0.5 0 3.3 0.5 0.03 3.3 1.5 0.5 0.3 1.7 0.02 0 1.7 0.02 0 0 0 0 0 0 0 0 0 0 1.5 0 0.11
23.051 -0.18 6.26 -46.16 6.12 -0.69 5.31 0 0 43 1 2 0 0 0 41 13.9 10.91 -14.39 1415 0.5 0 3.3 0.5 0.03 3.3 1.5 0.5 0.3 1.7 0.02 0 1.7 0.02 0 0 0 0 0 0 0 0 0 0 1.5 0 0.11
23.151 -0.05 5.7 -46.57 -6.31 -7.44 4.5 0 0 43 1 2 0 0 0 39 -0.54 -5.05 -8.85 1391 0.5 0 3.3 0.5 0.03 3.3 1.5 0.5 0.3 1.7 0.02 0 1.7 0.02 0 0 0 0 0 0 0 0 0 0 1.5 0 0.11
23.251 0.49 5.19 -47.04 -1.25 -0.37 -6 0 0 41 2 2 0 0 0 39 -3.44 -0.11 -10.1 1393 0.5 0 3.3 0.5 0.03 3.3 1.5 0.5 0.3 1.7 0.02 0 1.7 0.02 0 0 0 0 0 0 0 0 0 0 1.5 0 0.11
23.351 1.42 4.61 -47.58 27.19 8.94 -14.44 0 0 42 1 2 0 0 0 39 -8.5 -2.65 -13.32 1393 0.5 0 3.3 0.5 0.03 3.3 1.5 0.5 0.3 1.7 0.02 0 1.7 0.02 0 0 0 0 0 0 0 0 0 0 1.5 0 0.11
23.451 1.63 4.24 -48.11 11.38 -3.06 -5.62 0 0 43 1 2 0 0 0 39 -1.93 0.02 -9.27 1393 0.5 0 3.3 0.5 0.03 3.3 1.5 0.5 0.3 1.7 0.02 0 1.7 0.02 0 0 0 0 0 0 0 0 0 0 1.5 0 0.11
23.554 0.76 4.3 -48.66 -5.87 2.31 -9.19 0 0 42 1 1 0 0 0 40 -3.67 -11.6 -7.58 1407 0.5 0 3.3 0.5 0.03 3.3 1.5 0.5 0.3 1.7 0.02 0 1.7 0.02 0 0 0 0 0 0 0 0 0 0 1.5 0 0.11
23.651 -0.52 5.2 -49.16 0.25 3.87 -6.56 0 0 42 1 1 0 0 0 40 3.63 -6.72 -11.75 1405 0.5 0 3.3 0.5 0.03 3.3 1.5 0.5 0.3 1.7 0.02 0 1.7 0.02 0 0 0 0 0 0 0 0 0 0 1.5 0 0.11
23.751 -1.55 5.61 -49.52 -14.19 -6.81 -0.25 0 0 37 1 1 0 0 0 40 6.64 -4.15 -14.42 1405 0.5 0 3.3 0.5 0.03 3.3 1.5 0.5 0.3 1.7 0.02 0 1.7 0.02 0 0 0 0 0 0 0 0 0 0 1.5 0 0.11
23.851 -1.4 4.97 -49.66 -0.56 -13.88 -7.06 0 0 36 1 1 0 0 0 40 -2.95 2.74 -14.72 1405 0.5 0 3.3 0.5 0.03 3.3 1.5 0.5 0.3 1.7 0.02 0 1.7 0.02 0 0 0 0 0 0 0 0 0 0 1.5 0 0.11
23.951 -0.51 3.94 -49.87 9.5 -4.94 -3.87 0 0 36 1 1 0 0 0 40 1.08 0.13 -12.95 1406 0.5 0 3.3 0.5 0.03 3.3 1.5 0.5 0.3 1.7 0.02 0 1.7 0.02 0 0 0 0 0 0 0 0 0 0 1.5 0 0.11
24.051 -0.32 3.6 -50.23 4.87 2.31 -3.81 0 0 33 1 1 0 0 0 40 3.42 -3.65 -12.39 1405 0.5 0 3.3 0.5 0.03 3.3 1.5 0.5 0.3 1.7 0.02 0 1.7 0.02 0 0 0 0 0 0 0 0 0 0 1.5 0 0.11
24.151 -0.94 3.78 -50.61 -7.37 5.81 -10.63 0 0 34 1 1 0 0 0 40 4.6 -8.47 -9.27 1406 0.5 0 3.3 0.5 0.03 3.3 1.5 0.5 0.3 1.7 0.02 0 1.7 0.02 0 0 0 0 0 0 0 0 0 0 1.5 0 0.11
24.251 -0.73 3.99 -50.95 -1.87 -4.19 2.06 0 0 29 1 -5 0 0 0 40 -3.9 -10.55 -14.46 1407 0.5 0 3.3 0.5 0.03 3.3 1.5 0.5 0.3 1.7 0.02 0 1.7 0.02 0 0 0 0 0 0 0 0 0 0 1.5 0 0.11
24.351 0.4 3.28 -51.34 -2.37 -20.56 0.37 0 0 27 1 -8 0 0 0 40 -3.84 -0.14 -10.62 1406 0.5 0 3.3 0.5 0.03 3.3 1.5 0.5 0.3 1.7 0.02 0 1.7 0.02 0 0 0 0 0 0 0 0 0 0 1.5 0 0.11
24.451 1.27 1.33 -51.8 13.19 -8.25 -9.56 0 0 27 2 -8 0 0 0 40 1.84 -0.19 -15.77 1407 0.5 0 3.3 0.5 0.03 3.3 1.5 0.5 0.3 1.7 0.02 0 1.7 0.02 0 0 0 0 0 0 0 0 0 0 1.5 0 0.11
24.551 1.47 0.58 -52.21 -13.25 -4.62 -8.44 0 0 24 2 -7 0 0 0 40 37.91 2.71 -14 1407 0.5 0 3.3 0.5 0.03 3.3 1.5 0.5 0.3 1.7 0.02 0 1.7 0.02 0 0 0 0 0 0 0 0 0 0 1.5 0 0.11
24.651 1.24 1.12 -52.71 -5.31 1.19 1.06 0 0 25 2 -5 0 0 0 42 -3.24 -7.17 -12.04 1420 0.5 0 3.3 0.5 0.03 3.3 1.5 0.5 0.3 1.7 0.02 0 1.7 0.02 0 0 0 0 0 0 0 0 0 0 1.5 0 0.11
24.751 2.67 1.54 -53.24 23.37 -5.75 -2.81 0 0 24 2 -4 0 0 0 41 -15.95 -1.04 -7.97 1419 0.5 0 3.3 0.5 0.03 3.3 1.5 0.5 0.3 1.7 0.02 0 1.7 0.02 0 0 0 0 0 0 0 0 0 0 1.5 0 0.11
24.851 4.21 0.36 -53.89 -7.25 -31.56 7.31 0 0 23 2 -2 0 0 0 41 6.49 15.82 -11.04 1419 0.5 0 3.3 0.5 0.03 3.3 1.5 0.5 0.3 1.7 0.02 0 1.7 0.02 0 0 0 0 0 0 0 0 0 0 1.5 0 0.11
24.951 3.89 -1.4 -54.55 -4.94 -18 -1.62 0 0 22 2 1 0 0 0 41 -5.19 -4.16 -7.49 1419 0.5 0 3.3 0.5 0.03 3.3 1.5 0.5 0.3 1.7 0.02 0 1.7 0.02 0 0 0 0 0 0 0 0 0 0 1.5 0 0.11
25.052 2.82 -0.8 -55.17 2.69 34 -14.88 0 0 23 2 1 0 0 0 41 7.95 -10.65 -12.36 1418 0.5 0 3.3 0.5 0.03 3.3 1.5 0.5 0.3 1.7 0.02 0 1.7 0.02 0 0 0 0 0 0 0 0 0 0 1.5 0 0.11
25.151 2.02 1.04 -55.63 1.25 23.19 -17.69 0 0 24 2 1 0 0 0 40 0.2 -7.04 -6.72 1405 0.5 0 3.3 0.5 0.03 3.3 1.5 0.5 0.3 1.7 0.02 0 1.7 0.02 0 0 0 0 0 0 0 0 0 0 1.5 0 0.11
25.251 1.72 1.71 -56.1 -23.94 1.31 -7.75 0 0 24 2 1 0 0 0 40 21.96 3.93 -7.61 1405 0.5 0 3.3 0.5 0.03 3.3 1.5 0.5 0.3 1.7 0.02 0 1.7 0.02 0 0 0 0 0 0 0 0 0 0 1.5 0 0.11
25.352 1.72 0.73 -56.63 -8.88 -10.69 8.63 0 0 24 2 1 0 0 0 40 -3.25 2.95 -9.85 1405 0.5 0 3.3 0.5 0.03 3.3 1.5 0.5 0.3 1.7 0.02 0 1.7 0.02 0 0 0 0 0 0 0 0 0 0 1.5 0 0.11
25.451 3.24 -0.6 -57.16 12.94 -13.94 -2.81 0 0 23 2 1 0 0 0 40 -12.8 1.73 -8.48 1405 0.5 0 3.3 0.5 0.03 3.3 1.5 0.5 0.3 1.7 0.02 0 1.7 0.02 0 0 0 0 0 0 0 0 0 0 1.5 0 0.11
25.551 5.05 -0.13 -57.57 2.87 10 -2.56 0 0 25 2 1 0 0 0 40 -4.26 -12.47 -12.13 1405 0.5 0 3.3 0.5 0.03 3.3 1.5 0.5 0.3 1.7 0.02 0 1.7 0.02 0 0 0 0 0 0 0 0 0 0 1.5 0 0.11
25.651 5.39 2.23 -57.84 9.06 29.25 -5.44 0 0 25 2 1 0 0 0 40 -7.38 -13.8 -13.63 1406 0.5 0 3.3 0.5 0.03 3.3 1.5 0.5 0.3 1.7 0.02 0 1.7 0.02 0 0 0 0 0 0 0 0 0 0 1.5 0 0.11
25.751 3.96 3.52 -58.25 -27.75 2.62 -0.06 0 0 23 1 1 0 0 0 40 28.07 12.02 -13.05 1406 0.5 0 3.3 0.5 0.03 3.3 1.5 0.5 0.3 1.7 0.02 0 1.7 0.02 0 0 0 0 0 0 0 0 0 0 1.5 0 0.11
25.851 2.29 2.71 -58.88 -13.38 -12.13 -1.87 0 0 22 1 1 0 0 0 40 0.68 3.86 -8.95 1406 0.5 0 3.3 0.5 0.03 3.3 1.5 0.5 0.3 1.7 0.02 0 1.7 0.02 0 0 0 0 0 0 0 0 0 0 1.5 0 0.11
25.951 2.76 2.9 -59.62 12 5.87 -5.75 0 0 22 1 1 0 0 0 40 -18.85 -11.47 -4.04 1406 0.5 0 3.3 0.5 0.03 3.3 1.5 0.5 0.3 1.7 0.02 0 1.7 0.02 0 0 0 0 0 0 0 0 0 0 1.5 0 0.11
26.051 4.25 5.08 -60.23 14.75 20.5 -9.69 0 0 20 1 1 0 0 0 40 -2.96 -15.58 -6.7 1406 0.5 0 3.3 0.5 0.03 3.3 1.5 0.5 0.3 1.7 0.02 0 1.7 0.02 0 0 0 0 0 0 0 0 0 0 1.5 0 0.11
26.151 4.27 6.89 -60.85 -18.94 -5.25 1.62 0 0 22 1 1 0 0 0 40 24 15.2 -9.43 1406 0.5 0 3.3 0.5 0.03 3.3 1.5 0.5 0.3 1.7 0.02 0 1.7 0.02 0 0 0 0 0 0 0 0 0 0 1.5 0 0.11
26.251 2.75 6.21 -61.64 -36.69 -15.56 -12.81 0 0 22 2 1 0 0 0 40 16.71 0.38 -3.1 1406 0.5 0 3.3 0.5 0.03 3.3 1.5 0.5 0.3 1.7 0.02 0 1.7 0.02 0 0 0 0 0 0 0 0 0 0 1.5 0 0.11
26.351 1.82 4.71 -62.39 -8.44 -7.81 -5.19 0 0 21 2 1 0 0 0 40 -3.81 -1.89 -6.39 1406 0.5 0 3.3 0.5 0.03 3.3 1.5 0.5 0.3 1.7 0.02 0 1.7 0.02 0 0 0 0 0 0 0 0 0 0 1.5 0 0.11
26.451 2.44 4.92 -62.97 7.25 15.56 -5.44 0 0 20 2 1 0 0 0 40 -8.55 -13.7 -5.98 1406 0.5 0 3.3 0.5 0.03 3.3 1.5 0.5 0.3 1.7 0.02 0 1.7 0.02 0 0 0 0 0 0 0 0 0 0 1.5 0 0.11
26.551 3.14 6.22 -63.61 -1.37 15.13 -7.37 0 0 21 1 1 0 0 0 40 6.05 -13.67 -4.29 1406 0.5 0 3.3 0.5 0.03 3.3 1.5 0.5 0.3 1.7 0.02 0 1.7 0.02 0 0 0 0 0 0 0 0 0 0 1.5 0 0.11
26.651 3.67 6.22 -64.23 19.31 3.62 -11.94 0 0 22 1 1 0 0 0 40 -13.72 -3.21 -4.38 1406 0.5 0 3.3 0.5 0.03 3.3 1.5 0.5 0.3 1.7 0.02 0 1.7 0.02 0 0 0 0 0 0 0 0 0 0 1.5 0 0.11
26.751 3.64 4.16 -64.76 -7.19 -27.5 -3.25 0 0 21 1 1 0 0 0 40 22.28 16.41 -6.49 1407 0.5 0 3.3 0.5 0.03 3.3 1.5 0.5 0.3 1.7 0.02 0 1.7 0.02 0 0 0 0 0 0 0 0 0 0 1.5 0 0.11
26.851 2.35 3.14 -65.36 -29.44 4.37 -6.75 0 0 21 1 0 0 0 0 40 30.32 -18.27 -5 1407 0.5 0 3.3 0.5 0.03 3.3 1.5 0.5 0.3 1.7 0.02 0 1.7 0.02 0 0 0 0 0 0 0 0 0 0 1.5 0 0.11
26.952 1.03 4.43 -65.9 -12.5 12.63 -6.37 0 0 21 1 0 0 0 0 40 5.34 -18.1 -6.43 1407 0.5 0 3.3 0.5 0.03 3.3 1.5 0.5 0.3 1.7 0.02 0 1.7 0.02 0 0 0 0 0 0 0 0 0 0 1.5 0 0.11
27.052 1.85 5.86 -66.42 6.69 -2.06 -6 0 0 21 1 0 0 0 0 40 -7.13 -5.38 -1.94 1407 0.5 0 3.3 0.5 0.03 3.3 1.5 0.5 0.3 1.7 0.02 0 1.7 0.02 0 0 0 0 0 0 0 0 0 0 1.5 0 0.11
27.151 3.41 5.59 -67.13 12.19 -16.87 -0.88 0 0 21 1 0 0 0 0 42 -16.86 -0.85 -0.13 1420 0.5 0 3.3 0.5 0.03 3.3 1.5 0.5 0.3 1.7 0.02 0 1.7 0.02 0 0 0 0 0 0 0 0 0 0 1.5 0 0.11
27.251 4.41 4.26 -67.83 31.06 -14 -9 0 0 21 1 0 0 0 0 41 -19.99 -3.91 -2.07 1419 0.5 0 3.3 0.5 0.03 3.3 1.5 0.5 0.3 1.7 0.02 0 1.7 0.02 0 0 0 0 0 0 0 0 0 0 1.5 0 0.11
27.352 3.45 3.36 -68.38 -32.56 0 -7.12 0 0 21 1 0 0 0 0 41 19.01 -4.62 -4.41 1419 0.5 0 3.3 0.5 0.03 3.3 1.5 0.5 0.3 1.7 0.02 0 1.7 0.02 0 0 0 0 0 0 0 0 0 0 1.5 0 0.11
27.451 1.1 3.55 -68.79 -27.25 -1.94 6 0 0 21 1 0 0 0 0 41 7.31 -9.73 -11.42 1419 0.5 0 3.3 0.5 0.03 3.3 1.5 0.5 0.3 1.7 0.02 0 1.7 0.02 0 0 0 0 0 0 0 0 0 0 1.5 0 0.11
27.551 0.12 4.64 -69.26 -1.25 15.69 0.56 0 0 21 2 1 0 0 0 41 5.01 -14.65 -5.87 1419 0.5 0 3.3 0.5 0.03 3.3 1.5 0.5 0.3 1.7 0.02 0 1.7 0.02 0 0 0 0 0 0 0 0 0 0 1.5 0 0.11
27.651 0.37 5.76 -69.76 9.44 4.37 3.12 0 0 22 1 1 0 0 0 41 11.84 7.47 -9.21 1419 0.5 0 3.3 0.5 0.03 3.3 1.5 0.5 0.3 1.7 0.02 0 1.7 0.02 0 0 0 0 0 0 0 0 0 0 1.5 0 0.11
27.751 1.07 5.73 -70.2 -6.5 0.88 4.94 0 0 24 2 2 0 0 0 41 6.1 -5.06 -9.82 1419 0.5 0 3.3 0.5 0.03 3.3 1.5 0.5 0.3 1.7 0.02 0 1.7 0.02 0 0 0 0 0 0 0 0 0 0 1.5 0 0.11
27.852 1.65 5.7 -70.58 13.63 10.5 -5.5 0 0 25 2 2 0 0 0 41 -11.83 -15.65 -7.51 1419 0.5 0 3.3 0.5 0.03 3.3 1.5 0.5 0.3 1.7 0.02 0 1.7 0.02 0 0 0 0 0 0 0 0 0 0 1.5 0 0.11
27.951 1.69 6.91 -70.94 -9.94 4.25 6.5 0 0 26 2 1 0 0 0 41 25.23 -5.22 -10.73 1419 0.5 0 3.3 0.5 0.03 3.3 1.5 0.5 0.3 1.7 0.02 0 1.7 0.02 0 0 0 0 0 0 0 0 0 0 1.5 0 0.11
28.052 1.09 7.6 -71.38 2.31 -6.62 -3 0 0 28 2 2 0 0 0 41 -15.64 -3.13 -5.57 1419 0.5 0 3.3 0.5 0.03 3.3 1.5 0.5 0.3 1.7 0.02 0 1.7 0.02 0 0 0 0 0 0 0 0 0 0 1.5 0 0.11
28.152 0.37 6.92 -71.86 -3.19 -17.31 0.31 0 0 30 2 1 0 0 0 41 10.43 3.74 -8.97 1419 0.5 0 3.3 0.5 0.03 3.3 1.5 0.5 0.3 1.7 0.02 0 1.7 0.02 0 0 0 0 0 0 0 0 0 0 1.5 0 0.11
28.251 -0.66 6.56 -72.34 -18.62 -9.56 7.06 0 0 31 2 1 0 0 0 41 7.69 -11.91 -9.26 1419 0.5 0 3.3 0.5 0.03 3.3 1.5 0.5 0.3 1.7 0.02 0 1.7 0.02 0 0 0 0 0 0 0 0 0 0 1.5 0 0.11
28.352 -0.89 7.6 -72.85 9.5 11.56 -6.81 0 0 32 2 1 0 0 0 41 -10.51 -24.49 -0.74 1419 0.5 0 3.3 0.5 0.03 3.3 1.5 0.5 0.3 1.7 0.02 0 1.7 0.02 0 0 0 0 0 0 0 0 0 0 1.5 0 0.11
28.452 0.05 8.18 -73.23 4.62 -6.12 10.19 0 0 31 2 1 0 0 0 41 13.43 3.17 -10.04 1419 0.5 0 3.3 0.5 0.03 3.3 1.5 0.5 0.3 1.7 0.02 0 1.7 0.02 0 0 0 0 0 0 0 0 0 0 1.5 0 0.11
28.552 0.86 7.04 -73.51 -2.81 -23.62 10.19 0 0 32 2 1 0 0 0 41 -5.35 -4.28 -10.93 1419 0.5 0 3.3 0.5 0.03 3.3 1.5 0.5 0.3 1.7 0.02 0 1.7 0.02 0 0 0 0 0 0 0 0 0 0 1.5 0 0.11
28.652 1.88 6.12 -73.89 28.5 -0.44 -3.37 0 0 34 2 1 0 0 0 41 -5.97 -6.12 -5.5 1419 0.5 0 3.3 0.5 0.03 3.3 1.5 0.5 0.3 1.7 0.02 0 1.7 0.02 0 0 0 0 0 0 0 0 0 0 1.5 0 0.11
28.752 1.67 5.65 -74.38 -23.31 -13.25 3.69 0 0 35 2 1 0 0 0 41 11.42 -4.91 -4.98 1419 0.5 0 3.3 0.5 0.03 3.3 1.5 0.5 0.3 1.7 0.02 0 1.7 0.02 0 0 0 0 0 0 0 0 0 0 1.5 0 0.11
28.852 0.18 4.83 -75.07 -17 -19.62 -5.69 0 0 36 2 1 0 0 0 41 27.86 16.33 -3.91 1419 0.5 0 3.3 0.5 0.03 3.3 1.5 0.5 0.3 1.7 0.02 0 1.7 0.02 0 0 0 0 0 0 0 0 0 0 1.5 0 0.11
28.952 -1.07 3.59 -75.71 -6.87 -11.56 -9.81 0 0 36 2 0 0 0 0 41 0.61 -9.28 -1.14 1419 0.5 0 3.3 0.5 0.03 3.3 1.5 0.5 0.3 1.7 0.02 0 1.7 0.02 0 0 0 0 0 0 0 0 0 0 1.5 0 0.11
29.052 0.23 4.46 -76.4 34.44 23 -19.56 0 0 39 2 0 0 0 0 42 -31.76 -22.51 0.17 1420 0.5 0 3.3 0.5 0.03 3.3 1.5 0.5 0.3 1.7 0.02 0 1.7 0.02 0 0 0 0 0 0 0 0 0 0 1.5 0 0.11
29.152 2.38 6.01 -76.99 12.81 17.31 -6.5 0 0 39 2 0 0 0 0 42 1.35 -5.37 -10.61 1420 0.5 0 3.3 0.5 0.03 3.3 1.5 0.5 0.3 1.7 0.02 0 1.7 0.02 0 0 0 0 0 0 0 0 0 0 1.5 0 0.11
29.252 2.53 5.47 -77.49 -9.81 -18.94 -5.5 0 0 41 2 0 0 0 0 41 -25.01 9.09 -3.37 1419 0.5 0 3.3 0.5 0.03 3.3 1.5 0.5 0.3 1.7 0.02 0 1.7 0.02 0 0 0 0 0 0 0 0 0 0 1.5 0 0.11
29.352 1.12 4.06 -78.07 -16.31 -17.06 2.12 0 0 42 2 0 0 0 0 41 24.64 8.08 -5.19 1418 0.5 0 3.3 0.5 0.03 3.3 1.5 0.5 0.3 1.7 0.02 0 1.7 0.02 0 0 0 0 0 0 0 0 0 0 1.5 0 0.11
29.452 -1.05 4.49 -78.61 -14.31 9.63 0 0 0 44 2 0 0 0 0 41 6.28 -18.03 -2.93 1419 0.5 0 3.3 0.5 0.03 3.3 1.5 0.5 0.3 1.7 0.02 0 1.7 0.02 0 0 0 0 0 0 0 0 0 0 1.5 0 0.11
