time roll pitch yaw roll_d pitch_d yaw_d longitude latitude height roll_t pitch_t yaw_t longitude_t latitude_t height_t roll_signal pitch_signal yaw_signal throttle Kp_r_d Ki_r_d Kd_r_d Kp_p_d Ki_p_d Kd_p_d Kp_y_d Ki_y_d Kd_y_d Kp_r Ki_r Kd_r Kp_p Ki_p Kd_p Kp_y Ki_y Kd_y Kp_lon Ki_lon Kd_lon Kp_lat Ki_lat Kd_lat Kp_h Ki_h Kd_h
0 0 0 0 0 0 0 0 0 0 0 0 0 0 0 25 0 0 0 1250 0.5 0.1 0.3 0.5 0.1 0.3 1.5 0.5 0.3 1.7 0 0 1.7 0 0 0 0 0 0 0 0 0 0 0 1.5 0 0.11
0 0 0 0 0 0 0 0 0 0 0 0 0 0 0 25 0 0 0 1250 0.5 0.1 0.3 0.5 0.1 0.3 1.5 0.5 0.3 1.7 0 0 1.7 0 0 0 0 0 0 0 0 0 0 0 1.5 0 0.11
0 0 0 0 0 0 0 0 0 0 0 0 0 0 0 25 0 0 0 1250 0.5 0.1 0.3 0.5 0.1 0.3 1.5 0.5 0.3 1.7 0 0 1.7 0 0 0 0 0 0 0 0 0 0 0 1.5 0 0.11
0 0 0 0 0 0 0 0 0 0 0 0 0 0 0 25 0 0 0 1250 0.5 0.1 0.3 0.5 0.1 0.3 1.5 0.5 0.3 1.7 0 0 1.7 0 0 0 0 0 0 0 0 0 0 0 1.5 0 0.11
0 0 0 0 0 0 0 0 0 0 0 0 0 0 0 25 0 0 0 1250 0.5 0.1 0.3 0.5 0.1 0.3 1.5 0.5 0.3 1.7 0 0 1.7 0 0 0 0 0 0 0 0 0 0 0 1.5 0 0.11
0 0 0 0 0 0 0 0 0 0 0 0 0 0 0 25 0 0 0 1250 0.5 0.1 0.3 0.5 0.1 0.3 1.5 0.5 0.3 1.7 0 0 1.7 0 0 0 0 0 0 0 0 0 0 0 1.5 0 0.11
0 0 0 0 0 0 0 0 0 0 0 0 0 0 0 25 0 0 0 1250 0.5 0.1 0.3 0.5 0.1 0.3 1.5 0.5 0.3 1.7 0 0 1.7 0 0 0 0 0 0 0 0 0 0 0 1.5 0 0.11
0 0 0 0 0 0 0 0 0 0 0 0 0 0 0 25 0 0 0 1250 0.5 0.1 0.3 0.5 0.1 0.3 1.5 0.5 0.3 1.7 0 0 1.7 0 0 0 0 0 0 0 0 0 0 0 1.5 0 0.11
0 0 0 0 0 0 0 0 0 0 0 0 0 0 0 25 0 0 0 1250 0.5 0.1 0.3 0.5 0.1 0.3 1.5 0.5 0.3 1.7 0 0 1.7 0 0 0 0 0 0 0 0 0 0 0 1.5 0 0.11
0 0 0 0 0 0 0 0 0 0 0 0 0 0 0 25 0 0 0 1250 0.5 0.1 0.3 0.5 0.1 0.3 1.5 0.5 0.3 1.7 0 0 1.7 0 0 0 0 0 0 0 0 0 0 0 1.5 0 0.11
0 0 0 0 0 0 0 0 0 0 0 0 0 0 0 25 0 0 0 1250 0.5 0.1 0.3 0.5 0.1 0.3 1.5 0.5 0.3 1.7 0 0 1.7 0 0 0 0 0 0 0 0 0 0 0 1.5 0 0.11
0 0 0 0 0 0 0 0 0 0 0 0 0 0 0 25 0 0 0 1250 0.5 0.1 0.3 0.5 0.1 0.3 1.5 0.5 0.3 1.7 0 0 1.7 0 0 0 0 0 0 0 0 0 0 0 1.5 0 0.11
0 0 0 0 0 0 0 0 0 0 0 0 0 0 0 25 0 0 0 1250 0.5 0.1 0.3 0.5 0.1 0.3 1.5 0.5 0.3 1.7 0 0 1.7 0 0 0 0 0 0 0 0 0 0 0 1.5 0 0.11
0 0 0 0 0 0 0 0 0 0 0 0 0 0 0 25 0 0 0 1250 0.5 0.1 0.3 0.5 0.1 0.3 1.5 0.5 0.3 1.7 0 0 1.7 0 0 0 0 0 0 0 0 0 0 0 1.5 0 0.11
0 0 0 0 0 0 0 0 0 0 0 0 0 0 0 25 0 0 0 1250 0.5 0.1 0.3 0.5 0.1 0.3 1.5 0.5 0.3 1.7 0 0 1.7 0 0 0 0 0 0 0 0 0 0 0 1.5 0 0.11
0 0 0 0 0 0 0 0 0 0 0 0 0 0 0 25 0 0 0 1250 0.5 0.1 0.3 0.5 0.1 0.3 1.5 0.5 0.3 1.7 0 0 1.7 0 0 0 0 0 0 0 0 0 0 0 1.5 0 0.11
0 0 0 0 0 0 0 0 0 0 0 0 0 0 0 25 0 0 0 1250 0.5 0.1 0.3 0.5 0.1 0.3 1.5 0.5 0.3 1.7 0 0 1.7 0 0 0 0 0 0 0 0 0 0 0 1.5 0 0.11
0 0 0 0 0 0 0 0 0 0 0 0 0 0 0 25 0 0 0 1250 0.5 0.1 0.3 0.5 0.1 0.3 1.5 0.5 0.3 1.7 0 0 1.7 0 0 0 0 0 0 0 0 0 0 0 1.5 0 0.11
0 0 0 0 0 0 0 0 0 0 0 0 0 0 0 25 0 0 0 1250 0.5 0.1 0.3 0.5 0.1 0.3 1.5 0.5 0.3 1.7 0 0 1.7 0 0 0 0 0 0 0 0 0 0 0 1.5 0 0.11
0 0 0 0 0 0 0 0 0 0 0 0 0 0 0 25 0 0 0 1250 0.5 0.1 0.3 0.5 0.1 0.3 1.5 0.5 0.3 1.7 0 0 1.7 0 0 0 0 0 0 0 0 0 0 0 1.5 0 0.11
0 0 0 0 0 0 0 0 0 0 0 0 0 0 0 25 0 0 0 1250 0.5 0.1 0.3 0.5 0.1 0.3 1.5 0.5 0.3 1.7 0 0 1.7 0 0 0 0 0 0 0 0 0 0 0 1.5 0 0.11
0 0 0 0 0 0 0 0 0 0 0 0 0 0 0 25 0 0 0 1250 0.5 0.1 0.3 0.5 0.1 0.3 1.5 0.5 0.3 1.7 0 0 1.7 0 0 0 0 0 0 0 0 0 0 0 1.5 0 0.11
0 0 0 0 0 0 0 0 0 0 0 0 0 0 0 25 0 0 0 1250 0.5 0.1 0.3 0.5 0.1 0.3 1.5 0.5 0.3 1.7 0 0 1.7 0 0 0 0 0 0 0 0 0 0 0 1.5 0 0.11
0 0 0 0 0 0 0 0 0 0 0 0 0 0 0 25 0 0 0 1250 0.5 0.1 0.3 0.5 0.1 0.3 1.5 0.5 0.3 1.7 0 0 1.7 0 0 0 0 0 0 0 0 0 0 0 1.5 0 0.11
0 0 0 0 0 0 0 0 0 0 0 0 0 0 0 25 0 0 0 1250 0.5 0.1 0.3 0.5 0.1 0.3 1.5 0.5 0.3 1.7 0 0 1.7 0 0 0 0 0 0 0 0 0 0 0 1.5 0 0.11
0 0 0 0 0 0 0 0 0 0 0 0 0 0 0 25 0 0 0 1250 0.5 0.1 0.3 0.5 0.1 0.3 1.5 0.5 0.3 1.7 0 0 1.7 0 0 0 0 0 0 0 0 0 0 0 1.5 0 0.11
0 0 0 0 0 0 0 0 0 0 0 0 0 0 0 25 0 0 0 1250 0.5 0.1 0.3 0.5 0.1 0.3 1.5 0.5 0.3 1.7 0 0 1.7 0 0 0 0 0 0 0 0 0 0 0 1.5 0 0.11
0 0 0 0 0 0 0 0 0 0 0 0 0 0 0 25 0 0 0 1250 0.5 0.1 0.3 0.5 0.1 0.3 1.5 0.5 0.3 1.7 0 0 1.7 0 0 0 0 0 0 0 0 0 0 0 1.5 0 0.11
0 0 0 0 0 0 0 0 0 0 0 0 0 0 0 25 0 0 0 1250 0.5 0.1 0.3 0.5 0.1 0.3 1.5 0.5 0.3 1.7 0 0 1.7 0 0 0 0 0 0 0 0 0 0 0 1.5 0 0.11
0 0 0 0 0 0 0 0 0 0 0 0 0 0 0 25 0 0 0 1250 0.5 0.1 0.3 0.5 0.1 0.3 1.5 0.5 0.3 1.7 0 0 1.7 0 0 0 0 0 0 0 0 0 0 0 1.5 0 0.11
0 0 0 0 0 0 0 0 0 0 0 0 0 0 0 25 0 0 0 1250 0.5 0.1 0.3 0.5 0.1 0.3 1.5 0.5 0.3 1.7 0 0 1.7 0 0 0 0 0 0 0 0 0 0 0 1.5 0 0.11
0 0 0 0 0 0 0 0 0 0 0 0 0 0 0 25 0 0 0 1250 0.5 0.1 0.3 0.5 0.1 0.3 1.5 0.5 0.3 1.7 0 0 1.7 0 0 0 0 0 0 0 0 0 0 0 1.5 0 0.11
0 0 0 0 0 0 0 0 0 0 0 0 0 0 0 25 0 0 0 1250 0.5 0.1 0.3 0.5 0.1 0.3 1.5 0.5 0.3 1.7 0 0 1.7 0 0 0 0 0 0 0 0 0 0 0 1.5 0 0.11
0 0 0 0 0 0 0 0 0 0 0 0 0 0 0 25 0 0 0 1250 0.5 0.1 0.3 0.5 0.1 0.3 1.5 0.5 0.3 1.7 0 0 1.7 0 0 0 0 0 0 0 0 0 0 0 1.5 0 0.11
0 0 0 0 0 0 0 0 0 0 0 0 0 0 0 25 0 0 0 1250 0.5 0.1 0.3 0.5 0.1 0.3 1.5 0.5 0.3 1.7 0 0 1.7 0 0 0 0 0 0 0 0 0 0 0 1.5 0 0.11
0 0 0 0 0 0 0 0 0 0 0 0 0 0 0 25 0 0 0 1250 0.5 0.1 0.3 0.5 0.1 0.3 1.5 0.5 0.3 1.7 0 0 1.7 0 0 0 0 0 0 0 0 0 0 0 1.5 0 0.11
0 0 0 0 0 0 0 0 0 0 0 0 0 0 0 25 0 0 0 1250 0.5 0.1 0.3 0.5 0.1 0.3 1.5 0.5 0.3 1.7 0 0 1.7 0 0 0 0 0 0 0 0 0 0 0 1.5 0 0.11
0 0 0 0 0 0 0 0 0 0 0 0 0 0 0 25 0 0 0 1250 0.5 0.1 0.3 0.5 0.1 0.3 1.5 0.5 0.3 1.7 0 0 1.7 0 0 0 0 0 0 0 0 0 0 0 1.5 0 0.11
0 0 0 0 0 0 0 0 0 0 0 0 0 0 0 25 0 0 0 1250 0.5 0.1 0.3 0.5 0.1 0.3 1.5 0.5 0.3 1.7 0 0 1.7 0 0 0 0 0 0 0 0 0 0 0 1.5 0 0.11
0 0 0 0 0 0 0 0 0 0 0 0 0 0 0 25 0 0 0 1250 0.5 0.1 0.3 0.5 0.1 0.3 1.5 0.5 0.3 1.7 0 0 1.7 0 0 0 0 0 0 0 0 0 0 0 1.5 0 0.11
0 0 0 0 0 0 0 0 0 0 0 0 0 0 0 25 0 0 0 1250 0.5 0.1 0.3 0.5 0.1 0.3 1.5 0.5 0.3 1.7 0 0 1.7 0 0 0 0 0 0 0 0 0 0 0 1.5 0 0.11
0 0 0 0 0 0 0 0 0 0 0 0 0 0 0 25 0 0 0 1250 0.5 0.1 0.3 0.5 0.1 0.3 1.5 0.5 0.3 1.7 0 0 1.7 0 0 0 0 0 0 0 0 0 0 0 1.5 0 0.11
0 0 0 0 0 0 0 0 0 0 0 0 0 0 0 25 0 0 0 1250 0.5 0.1 0.3 0.5 0.1 0.3 1.5 0.5 0.3 1.7 0 0 1.7 0 0 0 0 0 0 0 0 0 0 0 1.5 0 0.11
0 0 0 0 0 0 0 0 0 0 0 0 0 0 0 25 0 0 0 1250 0.5 0.1 0.3 0.5 0.1 0.3 1.5 0.5 0.3 1.7 0 0 1.7 0 0 0 0 0 0 0 0 0 0 0 1.5 0 0.11
0 0 0 0 0 0 0 0 0 0 0 0 0 0 0 25 0 0 0 1250 0.5 0.1 0.3 0.5 0.1 0.3 1.5 0.5 0.3 1.7 0 0 1.7 0 0 0 0 0 0 0 0 0 0 0 1.5 0 0.11
0 0 0 0 0 0 0 0 0 0 0 0 0 0 0 25 0 0 0 1250 0.5 0.1 0.3 0.5 0.1 0.3 1.5 0.5 0.3 1.7 0 0 1.7 0 0 0 0 0 0 0 0 0 0 0 1.5 0 0.11
0 0 0 0 0 0 0 0 0 0 0 0 0 0 0 25 0 0 0 1250 0.5 0.1 0.3 0.5 0.1 0.3 1.5 0.5 0.3 1.7 0 0 1.7 0 0 0 0 0 0 0 0 0 0 0 1.5 0 0.11
0 0 0 0 0 0 0 0 0 0 0 0 0 0 0 25 0 0 0 1250 0.5 0.1 0.3 0.5 0.1 0.3 1.5 0.5 0.3 1.7 0 0 1.7 0 0 0 0 0 0 0 0 0 0 0 1.5 0 0.11
0 0 0 0 0 0 0 0 0 0 0 0 0 0 0 25 0 0 0 1250 0.5 0.1 0.3 0.5 0.1 0.3 1.5 0.5 0.3 1.7 0 0 1.7 0 0 0 0 0 0 0 0 0 0 0 1.5 0 0.11
0 0 0 0 0 0 0 0 0 0 0 0 0 0 0 25 0 0 0 1250 0.5 0.1 0.3 0.5 0.1 0.3 1.5 0.5 0.3 1.7 0 0 1.7 0 0 0 0 0 0 0 0 0 0 0 1.5 0 0.11
0 0 0 0 0 0 0 0 0 0 0 0 0 0 0 25 0 0 0 1250 0.5 0.1 0.3 0.5 0.1 0.3 1.5 0.5 0.3 1.7 0 0 1.7 0 0 0 0 0 0 0 0 0 0 0 1.5 0 0.11
0 0 0 0 0 0 0 0 0 0 0 0 0 0 0 25 0 0 0 1250 0.5 0.1 0.3 0.5 0.1 0.3 1.5 0.5 0.3 1.7 0 0 1.7 0 0 0 0 0 0 0 0 0 0 0 1.5 0 0.11
0 0 0 0 0 0 0 0 0 0 0 0 0 0 0 25 0 0 0 1250 0.5 0.1 0.3 0.5 0.1 0.3 1.5 0.5 0.3 1.7 0 0 1.7 0 0 0 0 0 0 0 0 0 0 0 1.5 0 0.11
0 0 0 0 0 0 0 0 0 0 0 0 0 0 0 25 0 0 0 1250 0.5 0.1 0.3 0.5 0.1 0.3 1.5 0.5 0.3 1.7 0 0 1.7 0 0 0 0 0 0 0 0 0 0 0 1.5 0 0.11
0 0 0 0 0 0 0 0 0 0 0 0 0 0 0 25 0 0 0 1250 0.5 0.1 0.3 0.5 0.1 0.3 1.5 0.5 0.3 1.7 0 0 1.7 0 0 0 0 0 0 0 0 0 0 0 1.5 0 0.11
0 0 0 0 0 0 0 0 0 0 0 0 0 0 0 25 0 0 0 1250 0.5 0.1 0.3 0.5 0.1 0.3 1.5 0.5 0.3 1.7 0 0 1.7 0 0 0 0 0 0 0 0 0 0 0 1.5 0 0.11
0 0 0 0 0 0 0 0 0 0 0 0 0 0 0 25 0 0 0 1250 0.5 0.1 0.3 0.5 0.1 0.3 1.5 0.5 0.3 1.7 0 0 1.7 0 0 0 0 0 0 0 0 0 0 0 1.5 0 0.11
0 0 0 0 0 0 0 0 0 0 0 0 0 0 0 25 0 0 0 1250 0.5 0.1 0.3 0.5 0.1 0.3 1.5 0.5 0.3 1.7 0 0 1.7 0 0 0 0 0 0 0 0 0 0 0 1.5 0 0.11
0 0 0 0 0 0 0 0 0 0 0 0 0 0 0 25 0 0 0 1250 0.5 0.1 0.3 0.5 0.1 0.3 1.5 0.5 0.3 1.7 0 0 1.7 0 0 0 0 0 0 0 0 0 0 0 1.5 0 0.11
0 0 0 0 0 0 0 0 0 0 0 0 0 0 0 25 0 0 0 1250 0.5 0.1 0.3 0.5 0.1 0.3 1.5 0.5 0.3 1.7 0 0 1.7 0 0 0 0 0 0 0 0 0 0 0 1.5 0 0.11
0 0 0 0 0 0 0 0 0 0 0 0 0 0 0 25 0 0 0 1250 0.5 0.1 0.3 0.5 0.1 0.3 1.5 0.5 0.3 1.7 0 0 1.7 0 0 0 0 0 0 0 0 0 0 0 1.5 0 0.11
0 0 0 0 0 0 0 0 0 0 0 0 0 0 0 25 0 0 0 1250 0.5 0.1 0.3 0.5 0.1 0.3 1.5 0.5 0.3 1.7 0 0 1.7 0 0 0 0 0 0 0 0 0 0 0 1.5 0 0.11
0 0 0 0 0 0 0 0 0 0 0 0 0 0 0 25 0 0 0 1250 0.5 0.1 0.3 0.5 0.1 0.3 1.5 0.5 0.3 1.7 0 0 1.7 0 0 0 0 0 0 0 0 0 0 0 1.5 0 0.11
0 0 0 0 0 0 0 0 0 0 0 0 0 0 0 25 0 0 0 1250 0.5 0.1 0.3 0.5 0.1 0.3 1.5 0.5 0.3 1.7 0 0 1.7 0 0 0 0 0 0 0 0 0 0 0 1.5 0 0.11
0 0 0 0 0 0 0 0 0 0 0 0 0 0 0 25 0 0 0 1250 0.5 0.1 0.3 0.5 0.1 0.3 1.5 0.5 0.3 1.7 0 0 1.7 0 0 0 0 0 0 0 0 0 0 0 1.5 0 0.11
0 0 0 0 0 0 0 0 0 0 0 0 0 0 0 25 0 0 0 1250 0.5 0.1 0.3 0.5 0.1 0.3 1.5 0.5 0.3 1.7 0 0 1.7 0 0 0 0 0 0 0 0 0 0 0 1.5 0 0.11
0 0 0 0 0 0 0 0 0 0 0 0 0 0 0 25 0 0 0 1250 0.5 0.1 0.3 0.5 0.1 0.3 1.5 0.5 0.3 1.7 0 0 1.7 0 0 0 0 0 0 0 0 0 0 0 1.5 0 0.11
0 0 0 0 0 0 0 0 0 0 0 0 0 0 0 25 0 0 0 1250 0.5 0.1 0.3 0.5 0.1 0.3 1.5 0.5 0.3 1.7 0 0 1.7 0 0 0 0 0 0 0 0 0 0 0 1.5 0 0.11
0 0 0 0 0 0 0 0 0 0 0 0 0 0 0 25 0 0 0 1250 0.5 0.1 0.3 0.5 0.1 0.3 1.5 0.5 0.3 1.7 0 0 1.7 0 0 0 0 0 0 0 0 0 0 0 1.5 0 0.11
0 0 0 0 0 0 0 0 0 0 0 0 0 0 0 25 0 0 0 1250 0.5 0.1 0.3 0.5 0.1 0.3 1.5 0.5 0.3 1.7 0 0 1.7 0 0 0 0 0 0 0 0 0 0 0 1.5 0 0.11
0 0 0 0 0 0 0 0 0 0 0 0 0 0 0 25 0 0 0 1250 0.5 0.1 0.3 0.5 0.1 0.3 1.5 0.5 0.3 1.7 0 0 1.7 0 0 0 0 0 0 0 0 0 0 0 1.5 0 0.11
0 0 0 0 0 0 0 0 0 0 0 0 0 0 0 25 0 0 0 1250 0.5 0.1 0.3 0.5 0.1 0.3 1.5 0.5 0.3 1.7 0 0 1.7 0 0 0 0 0 0 0 0 0 0 0 1.5 0 0.11
0 0 0 0 0 0 0 0 0 0 0 0 0 0 0 25 0 0 0 1250 0.5 0.1 0.3 0.5 0.1 0.3 1.5 0.5 0.3 1.7 0 0 1.7 0 0 0 0 0 0 0 0 0 0 0 1.5 0 0.11
0 0 0 0 0 0 0 0 0 0 0 0 0 0 0 25 0 0 0 1250 0.5 0.1 0.3 0.5 0.1 0.3 1.5 0.5 0.3 1.7 0 0 1.7 0 0 0 0 0 0 0 0 0 0 0 1.5 0 0.11
0 0 0 0 0 0 0 0 0 0 0 0 0 0 0 25 0 0 0 1250 0.5 0.1 0.3 0.5 0.1 0.3 1.5 0.5 0.3 1.7 0 0 1.7 0 0 0 0 0 0 0 0 0 0 0 1.5 0 0.11
0 0 0 0 0 0 0 0 0 0 0 0 0 0 0 25 0 0 0 1250 0.5 0.1 0.3 0.5 0.1 0.3 1.5 0.5 0.3 1.7 0 0 1.7 0 0 0 0 0 0 0 0 0 0 0 1.5 0 0.11
0 0 0 0 0 0 0 0 0 0 0 0 0 0 0 25 0 0 0 1250 0.5 0.1 0.3 0.5 0.1 0.3 1.5 0.5 0.3 1.7 0 0 1.7 0 0 0 0 0 0 0 0 0 0 0 1.5 0 0.11
0 0 0 0 0 0 0 0 0 0 0 0 0 0 0 25 0 0 0 1250 0.5 0.1 0.3 0.5 0.1 0.3 1.5 0.5 0.3 1.7 0 0 1.7 0 0 0 0 0 0 0 0 0 0 0 1.5 0 0.11
0 0 0 0 0 0 0 0 0 0 0 0 0 0 0 25 0 0 0 1250 0.5 0.1 0.3 0.5 0.1 0.3 1.5 0.5 0.3 1.7 0 0 1.7 0 0 0 0 0 0 0 0 0 0 0 1.5 0 0.11
0 0 0 0 0 0 0 0 0 0 0 0 0 0 0 25 0 0 0 1250 0.5 0.1 0.3 0.5 0.1 0.3 1.5 0.5 0.3 1.7 0 0 1.7 0 0 0 0 0 0 0 0 0 0 0 1.5 0 0.11
0 0 0 0 0 0 0 0 0 0 0 0 0 0 0 25 0 0 0 1250 0.5 0.1 0.3 0.5 0.1 0.3 1.5 0.5 0.3 1.7 0 0 1.7 0 0 0 0 0 0 0 0 0 0 0 1.5 0 0.11
0 0 0 0 0 0 0 0 0 0 0 0 0 0 0 25 0 0 0 1250 0.5 0.1 0.3 0.5 0.1 0.3 1.5 0.5 0.3 1.7 0 0 1.7 0 0 0 0 0 0 0 0 0 0 0 1.5 0 0.11
0 0 0 0 0 0 0 0 0 0 0 0 0 0 0 25 0 0 0 1250 0.5 0.1 0.3 0.5 0.1 0.3 1.5 0.5 0.3 1.7 0 0 1.7 0 0 0 0 0 0 0 0 0 0 0 1.5 0 0.11
0 0 0 0 0 0 0 0 0 0 0 0 0 0 0 25 0 0 0 1250 0.5 0.1 0.3 0.5 0.1 0.3 1.5 0.5 0.3 1.7 0 0 1.7 0 0 0 0 0 0 0 0 0 0 0 1.5 0 0.11
0 0 0 0 0 0 0 0 0 0 0 0 0 0 0 25 0 0 0 1250 0.5 0.1 0.3 0.5 0.1 0.3 1.5 0.5 0.3 1.7 0 0 1.7 0 0 0 0 0 0 0 0 0 0 0 1.5 0 0.11
0 0 0 0 0 0 0 0 0 0 0 0 0 0 0 25 0 0 0 1250 0.5 0.1 0.3 0.5 0.1 0.3 1.5 0.5 0.3 1.7 0 0 1.7 0 0 0 0 0 0 0 0 0 0 0 1.5 0 0.11
0 0 0 0 0 0 0 0 0 0 0 0 0 0 0 25 0 0 0 1250 0.5 0.1 0.3 0.5 0.1 0.3 1.5 0.5 0.3 1.7 0 0 1.7 0 0 0 0 0 0 0 0 0 0 0 1.5 0 0.11
6.29 1.16 0.12 -0.64 1.56 0.69 1.37 0 0 20 1 -2 0 0 0 22 0 0 0 1223 0.5 0.1 0.3 0.5 0.1 0.3 1.5 0.5 0.3 1.7 0 0 1.7 0 0 0 0 0 0 0 0 0 0 0 1.5 0 0.11
6.381 1.18 0.12 -0.54 -1.31 -0.19 1.87 0 0 21 1 -2 0 0 0 22 0 0 0 1222 0.5 0.1 0.3 0.5 0.1 0.3 1.5 0.5 0.3 1.7 0 0 1.7 0 0 0 0 0 0 0 0 0 0 0 1.5 0 0.11
6.481 1.15 0.11 -0.45 -0.06 -0.44 0.81 0 0 21 2 -1 0 0 0 21 0 0 0 1218 0.5 0.1 0.3 0.5 0.1 0.3 1.5 0.5 0.3 1.7 0 0 1.7 0 0 0 0 0 0 0 0 0 0 0 1.5 0 0.11
6.581 1.16 0.11 -0.38 0.06 0 0 0 0 22 2 -2 0 0 0 22 0 0 0 1225 0.5 0.1 0.3 0.5 0.1 0.3 1.5 0.5 0.3 1.7 0 0 1.7 0 0 0 0 0 0 0 0 0 0 0 1.5 0 0.11
6.681 1.16 0.12 -0.31 0.06 0 0.69 0 0 21 2 -1 0 0 0 22 0 0 0 1222 0.5 0.1 0.3 0.5 0.1 0.3 1.5 0.5 0.3 1.7 0 0 1.7 0 0 0 0 0 0 0 0 0 0 0 1.5 0 0.11
6.781 1.16 0.11 -0.25 -0.31 0.44 1.44 0 0 19 1 -1 0 0 0 22 0 0 0 1221 0.5 0.1 0.3 0.5 0.1 0.3 1.5 0.5 0.3 1.7 0 0 1.7 0 0 0 0 0 0 0 0 0 0 0 1.5 0 0.11
6.881 1.15 0.11 -0.19 0.25 0.06 0.31 0 0 21 2 -2 0 0 0 22 0 0 0 1221 0.5 0.1 0.3 0.5 0.1 0.3 1.5 0.5 0.3 1.7 0 0 1.7 0 0 0 0 0 0 0 0 0 0 0 1.5 0 0.11
6.981 1.15 0.1 -0.11 0.25 -0.37 1.81 0 0 22 2 -2 0 0 0 22 0 0 0 1220 0.5 0.1 0.3 0.5 0.1 0.3 1.5 0.5 0.3 1.7 0 0 1.7 0 0 0 0 0 0 0 0 0 0 0 1.5 0 0.11
7.081 1.15 0.1 -0.01 -0.31 0.19 1.56 0 0 21 2 -1 0 0 0 22 0 0 0 1221 0.5 0.1 0.3 0.5 0.1 0.3 1.5 0.5 0.3 1.7 0 0 1.7 0 0 0 0 0 0 0 0 0 0 0 1.5 0 0.11
7.181 1.16 0.1 0.05 0.62 0.81 1.81 0 0 22 2 -2 0 0 0 22 0 0 0 1221 0.5 0.1 0.3 0.5 0.1 0.3 1.5 0.5 0.3 1.7 0 0 1.7 0 0 0 0 0 0 0 0 0 0 0 1.5 0 0.11
7.281 1.16 0.1 0.12 0.31 -0.25 0.69 0 0 21 1 -2 0 0 0 21 0 0 0 1219 0.5 0.1 0.3 0.5 0.1 0.3 1.5 0.5 0.3 1.7 0 0 1.7 0 0 0 0 0 0 0 0 0 0 0 1.5 0 0.11
7.381 1.16 0.1 0.19 0 -0.06 1.25 0 0 22 1 -2 0 0 0 22 0 0 0 1221 0.5 0.1 0.3 0.5 0.1 0.3 1.5 0.5 0.3 1.7 0 0 1.7 0 0 0 0 0 0 0 0 0 0 0 1.5 0 0.11
7.481 1.16 0.1 0.24 0.5 0.19 0.94 0 0 22 2 -2 0 0 0 21 0 0 0 1219 0.5 0.1 0.3 0.5 0.1 0.3 1.5 0.5 0.3 1.7 0 0 1.7 0 0 0 0 0 0 0 0 0 0 0 1.5 0 0.11
7.581 1.16 0.11 0.33 0 0 1.19 0 0 21 2 -2 0 0 0 22 0 0 0 1222 0.5 0.1 0.3 0.5 0.1 0.3 1.5 0.5 0.3 1.7 0 0 1.7 0 0 0 0 0 0 0 0 0 0 0 1.5 0 0.11
7.681 1.16 0.1 0.42 0.13 0 1 0 0 21 2 -1 0 0 0 22 0 0 0 1221 0.5 0.1 0.3 0.5 0.1 0.3 1.5 0.5 0.3 1.7 0 0 1.7 0 0 0 0 0 0 0 0 0 0 0 1.5 0 0.11
7.781 1.16 0.1 0.48 0.06 0 1 0 0 20 2 -1 0 0 0 22 0 0 0 1221 0.5 0.1 0.3 0.5 0.1 0.3 1.5 0.5 0.3 1.7 0 0 1.7 0 0 0 0 0 0 0 0 0 0 0 1.5 0 0.11
7.881 1.16 0.1 0.56 0.19 0 1 0 0 20 1 -2 0 0 0 22 0 0 0 1223 0.5 0.1 0.3 0.5 0.1 0.3 1.5 0.5 0.3 1.7 0 0 1.7 0 0 0 0 0 0 0 0 0 0 0 1.5 0 0.11
7.981 1.16 0.1 0.59 0.06 0.13 1 0 0 21 2 -2 0 0 0 22 0 0 0 1221 0.5 0.1 0.3 0.5 0.1 0.3 1.5 0.5 0.3 1.7 0 0 1.7 0 0 0 0 0 0 0 0 0 0 0 1.5 0 0.11
8.081 1.16 0.1 0.67 0 0.25 1.06 0 0 22 3 -2 0 0 0 22 0 0 0 1222 0.5 0.1 0.3 0.5 0.1 0.3 1.5 0.5 0.3 1.7 0 0 1.7 0 0 0 0 0 0 0 0 0 0 0 1.5 0 0.11
8.181 1.16 0.1 0.71 0 0.06 1 0 0 22 2 -2 0 0 0 22 0 0 0 1222 0.5 0.1 0.3 0.5 0.1 0.3 1.5 0.5 0.3 1.7 0 0 1.7 0 0 0 0 0 0 0 0 0 0 0 1.5 0 0.11
8.281 1.18 0.1 0.8 0 0.25 0.94 0 0 21 2 -2 0 0 0 22 0 0 0 1221 0.5 0.1 0.3 0.5 0.1 0.3 1.5 0.5 0.3 1.7 0 0 1.7 0 0 0 0 0 0 0 0 0 0 0 1.5 0 0.11
8.381 1.16 0.1 0.85 0 0.19 1 0 0 22 1 -1 0 0 0 22 0 0 0 1221 0.5 0.1 0.3 0.5 0.1 0.3 1.5 0.5 0.3 1.7 0 0 1.7 0 0 0 0 0 0 0 0 0 0 0 1.5 0 0.11
8.481 1.16 0.1 0.94 -0.06 0.31 0.94 0 0 22 1 -1 0 0 0 22 0 0 0 1222 0.5 0.1 0.3 0.5 0.1 0.3 1.5 0.5 0.3 1.7 0 0 1.7 0 0 0 0 0 0 0 0 0 0 0 1.5 0 0.11
8.581 1.16 0.1 1.05 0 0.31 0.94 0 0 21 2 -2 0 0 0 21 0 0 0 1217 0.5 0.1 0.3 0.5 0.1 0.3 1.5 0.5 0.3 1.7 0 0 1.7 0 0 0 0 0 0 0 0 0 0 0 1.5 0 0.11
8.681 1.16 0.1 1.18 0 0.25 0.94 0 0 21 1 -2 0 0 0 22 0 0 0 1222 0.5 0.1 0.3 0.5 0.1 0.3 1.5 0.5 0.3 1.7 0 0 1.7 0 0 0 0 0 0 0 0 0 0 0 1.5 0 0.11
8.781 1.16 0.1 1.26 0 0.31 1.06 0 0 20 1 -2 0 0 0 22 0 0 0 1225 0.5 0.1 0.3 0.5 0.1 0.3 1.5 0.5 0.3 1.7 0 0 1.7 0 0 0 0 0 0 0 0 0 0 0 1.5 0 0.11
8.881 1.16 0.1 1.33 0 0.19 1 0 0 19 1 -1 0 0 0 22 0 0 0 1222 0.5 0.1 0.3 0.5 0.1 0.3 1.5 0.5 0.3 1.7 0 0 1.7 0 0 0 0 0 0 0 0 0 0 0 1.5 0 0.11
8.981 1.16 0.1 1.37 0 0.25 1.06 0 0 22 2 -1 0 0 0 21 0 0 0 1216 0.5 0.1 0.3 0.5 0.1 0.3 1.5 0.5 0.3 1.7 0 0 1.7 0 0 0 0 0 0 0 0 0 0 0 1.5 0 0.11
9.081 1.16 0.1 1.45 0 0.25 0.94 0 0 22 1 -2 0 0 0 22 0 0 0 1221 0.5 0 3.3 0.5 0.03 3.3 1.5 0.5 0.3 1.7 0 0 1.7 0 0 0 0 0 0 0 0 0 0 0 1.5 0 0.11
9.181 1.16 0.1 1.48 -0.06 0.19 1 0 0 22 2 -2 0 0 0 22 0 0 0 1220 0.5 0 3.3 0.5 0.03 3.3 1.5 0.5 0.3 1.7 0 0 1.7 0 0 0 0 0 0 0 0 0 0 0 1.5 0 0.11
9.281 1.16 0.1 1.55 0 0.19 0.94 0 0 21 1 -2 0 0 0 22 0 0 0 1223 0.5 0 3.3 0.5 0.03 3.3 1.5 0.5 0.3 1.7 0 0 1.7 0 0 0 0 0 0 0 0 0 0 0 1.5 0 0.11
9.381 1.16 0.09 1.64 0 0.19 1.06 0 0 22 2 -1 0 0 0 22 0 0 0 1222 0.5 0 3.3 0.5 0.03 3.3 1.5 0.5 0.3 1.7 0 0 1.7 0 0 0 0 0 0 0 0 0 0 0 1.5 0 0.11
9.481 1.16 0.1 1.74 0 0.25 0.94 0 0 22 2 -2 0 0 0 22 0 0 0 1225 0.5 0 3.3 0.5 0.03 3.3 1.5 0.5 0.3 1.7 0 0 1.7 0 0 0 0 0 0 0 0 0 0 0 1.5 0 0.11
9.581 1.15 0.1 1.83 -0.06 0.19 1 0 0 21 1 -2 0 0 0 22 0 0 0 1223 0.5 0 3.3 0.5 0.03 3.3 1.5 0.5 0.3 1.7 0 0 1.7 0 0 0 0 0 0 0 0 0 0 0 1.5 0 0.11
9.681 1.16 0.1 1.89 0 0.25 0.88 0 0 22 2 -1 0 0 0 22 0 0 0 1221 0.5 0 3.3 0.5 0.03 3.3 1.5 0.5 0.3 1.7 0 0 1.7 0 0 0 0 0 0 0 0 0 0 0 1.5 0 0.11
9.781 1.16 0.1 1.98 0 0.13 0.88 0 0 21 2 -2 0 0 0 22 0 0 0 1223 0.5 0 3.3 0.5 0.03 3.3 1.5 0.5 0.3 1.7 0 0 1.7 0 0 0 0 0 0 0 0 0 0 0 1.5 0 0.11
9.881 1.15 0.1 2.03 0 0.13 1 0 0 21 2 -2 0 0 0 22 0 0 0 1221 0.5 0 3.3 0.5 0.03 3.3 1.5 0.5 0.3 1.7 0 0 1.7 0 0 0 0 0 0 0 0 0 0 0 1.5 0 0.11
9.981 1.15 0.1 2.08 -0.06 0.19 0.94 0 0 21 2 -3 0 0 0 22 0 0 0 1220 0.5 0 3.3 0.5 0.03 3.3 1.5 0.5 0.3 1.7 0 0 1.7 0 0 0 0 0 0 0 0 0 0 0 1.5 0 0.11
10.081 1.15 0.1 2.13 0 0.06 0.88 0 0 22 1 -2 0 0 0 22 0 0 0 1221 0.5 0 3.3 0.5 0.03 3.3 1.5 0.5 0.3 1.7 0 0 1.7 0 0 0 0 0 0 0 0 0 0 0 1.5 0 0.11
10.181 1.15 0.1 2.21 0 0.13 1 0 0 22 2 -3 0 0 0 22 0 0 0 1225 0.5 0 3.3 0.5 0.03 3.3 1.5 0.5 0.3 1.7 0 0 1.7 0 0 0 0 0 0 0 0 0 0 0 1.5 0 0.11
10.281 1.15 0.1 2.29 0 0.19 0.94 0 0 22 2 -1 0 0 0 21 0 0 0 1218 0.5 0 3.3 0.5 0.03 3.3 1.5 0.5 0.3 1.7 0 0 1.7 0 0 0 0 0 0 0 0 0 0 0 1.5 0 0.11
10.381 1.15 0.1 2.35 -0.06 0.19 1 0 0 21 2 -2 0 0 0 22 0 0 0 1222 0.5 0 3.3 0.5 0.03 3.3 1.5 0.5 0.3 1.7 0 0 1.7 0 0 0 0 0 0 0 0 0 0 0 1.5 0 0.11
10.481 1.15 0.1 2.4 0 0.25 1 0 0 22 1 -2 0 0 0 22 0 0 0 1224 0.5 0 3.3 0.5 0.03 3.3 1.5 0.5 0.3 1.7 0 0 1.7 0 0 0 0 0 0 0 0 0 0 0 1.5 0 0.11
10.582 1.15 0.1 2.44 0 0.13 1 0 0 22 2 -2 0 0 0 21 0 0 0 1219 0.5 0 3.3 0.5 0.03 3.3 1.5 0.5 0.3 1.7 0 0 1.7 0 0 0 0 0 0 0 0 0 0 0 1.5 0 0.11
10.681 1.15 0.1 2.52 0 0.31 1 0 0 21 2 -2 0 0 0 22 0 -0.21 -23.67 1223 0.5 0 3.3 0.5 0.03 3.3 1.5 0.5 0.3 1.7 0 0 1.7 0 0 0 0 0 0 0 0 0 0 0 1.5 0 0.11
10.781 1.15 0.1 2.61 -0.06 0.25 0.94 0 0 21 2 -1 0 0 0 21 0.01 -0.2 -24.06 1218 0.5 0 3.3 0.5 0.03 3.3 1.5 0.5 0.3 1.7 0 0 1.7 0 0 0 0 0 0 0 0 0 0 0 1.5 0 0.11
10.882 1.16 0.1 2.71 0 0.19 0.88 0 0 22 1 -2 0 0 0 22 0.01 -0.13 -22.95 1225 0.5 0 3.3 0.5 0.03 3.3 1.5 0.5 0.3 1.7 0 0 1.7 0 0 0 0 0 0 0 0 0 0 0 1.5 0 0.11
10.983 1.16 0.1 2.79 0 0.13 1.06 0 0 22 1 -3 0 0 0 22 0.01 0.03 -22.83 1224 0.5 0 3.3 0.5 0.03 3.3 1.5 0.5 0.3 1.7 0 0 1.7 0 0 0 0 0 0 0 0 0 0 0 1.5 0 0.11
11.083 1.15 0.1 2.88 0 0.13 1 0 0 22 1 -2 0 0 0 22 0.02 0 -25.19 1224 0.5 0 3.3 0.5 0.03 3.3 1.5 0.5 0.3 1.7 0 0 1.7 0 0 0 0 0 0 0 0 0 0 0 1.5 0 0.11
11.183 1.16 0.1 2.96 0 0.25 0.94 0 0 22 1 -2 0 0 0 22 0 -0.2 -25.62 1225 0.5 0 3.3 0.5 0.03 3.3 1.5 0.5 0.3 1.7 0 0 1.7 0 0 0 0 0 0 0 0 0 0 0 1.5 0 0.11
11.283 1.16 0.1 3.03 0 0.13 0.94 0 0 22 1 -2 0 0 0 22 0 0.02 -24.43 1225 0.5 0 3.3 0.5 0.03 3.3 1.5 0.5 0.3 1.7 0 0 1.7 0 0 0 0 0 0 0 0 0 0 0 1.5 0 0.11
11.383 1.16 0.1 3.04 0 0.19 1 0 0 22 2 -3 0 0 0 22 0 -0.07 -23.27 1223 0.5 0 3.3 0.5 0.03 3.3 1.5 0.5 0.3 1.7 0 0 1.7 0 0 0 0 0 0 0 0 0 0 0 1.5 0 0.11
11.483 1.16 0.1 3.1 0 0.13 0.94 0 0 22 3 -2 0 0 0 21 -0.01 -0.05 -24.86 1212 0.5 0 3.3 0.5 0.03 3.3 1.5 0.5 0.3 1.7 0 0 1.7 0 0 0 0 0 0 0 0 0 0 0 1.5 0 0.11
11.583 1.16 0.1 3.16 -0.06 0.19 0.94 0 0 21 1 -1 0 0 0 22 0.02 -0.14 -27.08 1224 0.5 0 3.3 0.5 0.03 3.3 1.5 0.5 0.3 1.7 0 0 1.7 0 0 0 0 0 0 0 0 0 0 0 1.5 0 0.11
11.683 1.16 0.1 3.23 0 0.25 1 0 0 21 1 -1 0 0 0 21 0 -0.21 -27.48 1219 0.5 0 3.3 0.5 0.03 3.3 1.5 0.5 0.3 1.7 0 0 1.7 0 0 0 0 0 0 0 0 0 0 0 1.5 0 0.11
11.784 1.16 0.1 3.28 0 0.13 0.94 0 0 22 2 -1 0 0 0 22 -0.07 -0.04 -26.29 1221 0.5 0 3.3 0.5 0.03 3.3 1.5 0.5 0.3 1.7 0 0 1.7 0 0 0 0 0 0 0 0 0 0 0 1.5 0 0.11
11.883 1.16 0.1 3.34 0 0.19 1 0 0 21 2 -2 0 0 0 22 -0.05 -0.21 -26.62 1224 0.5 0 3.3 0.5 0.03 3.3 1.5 0.5 0.3 1.7 0 0 1.7 0 0 0 0 0 0 0 0 0 0 0 1.5 0 0.11
11.983 1.16 0.1 3.42 0 0.19 1 0 0 22 1 -1 0 0 0 21 0 -0.23 -27.06 1219 0.5 0 3.3 0.5 0.03 3.3 1.5 0.5 0.3 1.7 0 0 1.7 0 0 0 0 0 0 0 0 0 0 0 1.5 0 0.11
12.084 1.16 0.1 3.49 0 0.25 0.88 0 0 22 1 -2 0 0 0 22 0 -0.22 -28.93 1226 0.5 0 3.3 0.5 0.03 3.3 1.5 0.5 0.3 1.7 0.02 0 1.7 0.02 0 0 0 0 0 0 0 0 0 0 1.5 0 0.11
12.184 1.16 0.1 3.6 -0.06 0.19 0.94 0 0 22 1 -2 0 0 0 22 0.08 -0.2 -27.45 1221 0.5 0 3.3 0.5 0.03 3.3 1.5 0.5 0.3 1.7 0.02 0 1.7 0.02 0 0 0 0 0 0 0 0 0 0 1.5 0 0.11
12.284 1.16 0.1 3.66 -0.06 0.19 1 0 0 22 2 -3 0 0 0 22 0.09 -0.08 -28.05 1223 0.5 0 3.3 0.5 0.03 3.3 1.5 0.5 0.3 1.7 0.02 0 1.7 0.02 0 0 0 0 0 0 0 0 0 0 1.5 0 0.11
12.384 1.16 0.1 3.71 0 0.25 1 0 0 22 1 -2 0 0 0 22 0 -0.25 -30.1 1223 0.5 0 3.3 0.5 0.03 3.3 1.5 0.5 0.3 1.7 0.02 0 1.7 0.02 0 0 0 0 0 0 0 0 0 0 1.5 0 0.11
12.484 1.16 0.1 3.82 0 0.13 0.94 0 0 21 2 -2 0 0 0 22 -0.07 -0.05 -31.9 1220 0.5 0 3.3 0.5 0.03 3.3 1.5 0.5 0.3 1.7 0.02 0 1.7 0.02 0 0 0 0 0 0 0 0 0 0 1.5 0 0.11
12.584 1.16 0.1 3.9 0 0.13 0.94 0 0 21 2 -2 0 0 0 21 -0.01 -0.06 -30.88 1219 0.5 0 3.3 0.5 0.03 3.3 1.5 0.5 0.3 1.7 0.02 0 1.7 0.02 0 0 0 0 0 0 0 0 0 0 1.5 0 0.11
12.684 1.16 0.1 3.98 -0.13 0.13 0.94 0 0 21 2 0 0 0 0 22 0.08 -0.07 -32.98 1220 0.5 0 3.3 0.5 0.03 3.3 1.5 0.5 0.3 1.7 0.02 0 1.7 0.02 0 0 0 0 0 0 0 0 0 0 1.5 0 0.11
12.784 1.16 0.1 4.06 0 0.19 1 0 0 21 2 -2 0 0 0 22 0 -0.14 -31.61 1220 0.5 0 3.3 0.5 0.03 3.3 1.5 0.5 0.3 1.7 0.02 0 1.7 0.02 0 0 0 0 0 0 0 0 0 0 1.5 0 0.11
12.883 1.16 0.1 4.11 -0.06 0.19 1 0 0 21 2 -2 0 0 0 22 0.08 -0.14 -29.77 1221 0.5 0 3.3 0.5 0.03 3.3 1.5 0.5 0.3 1.7 0.02 0 1.7 0.02 0 0 0 0 0 0 0 0 0 0 1.5 0 0.11
12.984 1.16 0.1 4.17 0 0.25 0.94 0 0 22 2 -2 0 0 0 22 0.01 -0.21 -30.82 1223 0.5 0 3.3 0.5 0.03 3.3 1.5 0.5 0.3 1.7 0.02 0 1.7 0.02 0 0 0 0 0 0 0 0 0 0 1.5 0 0.11
13.083 1.16 0.1 4.25 -0.06 0.13 1.06 0 0 22 1 -1 0 0 0 21 0.1 -0.13 -29.72 1218 0.5 0 3.3 0.5 0.03 3.3 1.5 0.5 0.3 1.7 0.02 0 1.7 0.02 0 0 0 0 0 0 0 0 0 0 1.5 0 0.11
13.184 1.16 0.1 4.33 0 0.19 1 0 0 21 1 -3 0 0 0 22 0.01 -0.16 -32.01 1222 0.5 0 3.3 0.5 0.03 3.3 1.5 0.5 0.3 1.7 0.02 0 1.7 0.02 0 0 0 0 0 0 0 0 0 0 1.5 0 0.11
13.284 1.16 0.1 4.38 0 0.13 0.94 0 0 22 2 -4 0 0 0 21 0.03 -0.08 -30.14 1219 0.5 0 3.3 0.5 0.03 3.3 1.5 0.5 0.3 1.7 0.02 0 1.7 0.02 0 0 0 0 0 0 0 0 0 0 1.5 0 0.11
13.384 1.16 0.1 4.45 -0.06 0.19 1 0 0 21 1 -2 0 0 0 21 -0.01 -2.22 -31.77 1219 0.5 0 3.3 0.5 0.03 3.3 1.5 0.5 0.3 1.7 0.02 0 1.7 0.02 0 0 0 0 0 0 0 0 0 0 1.5 0 0.11
13.484 1.16 0.1 4.53 -0.06 0.13 1 0 0 22 1 -2 0 0 0 21 -5.6 -1.94 -33.84 1216 0.5 0 3.3 0.5 0.03 3.3 1.5 0.5 0.3 1.7 0.02 0 1.7 0.02 0 0 0 0 0 0 0 0 0 0 1.5 0 0.11
13.584 1.15 0.1 4.6 0 0.25 0.94 0 0 21 2 0 0 0 0 21 0.79 -0.64 -35.73 1214 0.5 0 3.3 0.5 0.03 3.3 1.5 0.5 0.3 1.7 0.02 0 1.7 0.02 0 0 0 0 0 0 0 0 0 0 1.5 0 0.11
13.684 1.16 0.1 4.7 0 0.19 0.94 0 0 22 2 0 0 0 0 21 -4.84 10.71 -33.06 1217 0.5 0 3.3 0.5 0.03 3.3 1.5 0.5 0.3 1.7 0.02 0 1.7 0.02 0 0 0 0 0 0 0 0 0 0 1.5 0 0.11
13.783 1.16 0.1 4.79 0 0.13 1.06 0 0 22 2 -1 0 0 0 22 0.7 -1.29 -35.02 1221 0.5 0 3.3 0.5 0.03 3.3 1.5 0.5 0.3 1.7 0.02 0 1.7 0.02 0 0 0 0 0 0 0 0 0 0 1.5 0 0.11
13.884 1.16 0.1 4.88 0 0.19 1 0 0 22 1 -2 0 0 0 22 -0.08 -2.23 -33.87 1221 0.5 0 3.3 0.5 0.03 3.3 1.5 0.5 0.3 1.7 0.02 0 1.7 0.02 0 0 0 0 0 0 0 0 0 0 1.5 0 0.11
13.984 1.16 0.1 4.95 0 0.19 1 0 0 21 1 -2 0 0 0 22 -11.3 -2.24 -34.26 1229 0.5 0 3.3 0.5 0.03 3.3 1.5 0.5 0.3 1.7 0.02 0 1.7 0.02 0 0 0 0 0 0 0 0 0 0 1.5 0 0.11
14.083 1.16 0.1 5.04 0 0.13 1 0 0 22 2 -2 0 0 0 22 0.77 -2.27 -34.64 1220 0.5 0 3.3 0.5 0.03 3.3 1.5 0.5 0.3 1.7 0.02 0 1.7 0.02 0 0 0 0 0 0 0 0 0 0 1.5 0 0.11
14.184 1.16 0.1 5.11 -0.06 0.13 0.94 0 0 22 1 0 0 0 0 22 0.01 -0.45 -37.99 1221 0.5 0 3.3 0.5 0.03 3.3 1.5 0.5 0.3 1.7 0.02 0 1.7 0.02 0 0 0 0 0 0 0 0 0 0 1.5 0 0.11
14.284 1.16 0.1 5.19 0 0.19 0.94 0 0 21 1 -2 0 0 0 22 -0.09 -2.33 -35.39 1226 0.5 0 3.3 0.5 0.03 3.3 1.5 0.5 0.3 1.7 0.02 0 1.7 0.02 0 0 0 0 0 0 0 0 0 0 1.5 0 0.11
14.384 1.16 0.1 5.27 0.06 0.19 1.06 0 0 22 3 -1 0 0 0 22 1.57 9.86 -33.02 1222 0.5 0 3.3 0.5 0.03 3.3 1.5 0.5 0.3 1.7 0.02 0 1.7 0.02 0 0 0 0 0 0 0 0 0 0 1.5 0 0.11
14.484 1.16 0.1 5.34 -0.06 0.13 0.94 0 0 21 -1 0 0 0 0 22 -1.76 -0.58 -38.88 1224 0.5 0 3.3 0.5 0.03 3.3 1.5 0.5 0.3 1.7 0.02 0 1.7 0.02 0 0 0 0 0 0 0 0 0 0 1.5 0 0.11
14.584 1.16 0.1 5.38 0.06 0.25 1.06 0 0 21 1 -1 0 0 0 22 -0.16 -1.6 -39.5 1225 0.5 0 3.3 0.5 0.03 3.3 1.5 0.5 0.3 1.7 0.02 0 1.7 0.02 0 0 0 0 0 0 0 0 0 0 1.5 0 0.11
14.684 1.16 0.1 5.43 0 0.25 1 0 0 22 5 -1 0 0 0 20 25.77 20.88 -35.84 1197 0.5 0 3.3 0.5 0.03 3.3 1.5 0.5 0.3 1.7 0.02 0 1.7 0.02 0 0 0 0 0 0 0 0 0 0 1.5 0 0.11
14.784 1.16 0.1 5.48 0.06 0.19 0.94 0 0 22 1 -3 0 0 0 23 -0.16 -3.32 -37.01 1231 0.5 0 3.3 0.5 0.03 3.3 1.5 0.5 0.3 1.7 0.02 0 1.7 0.02 0 0 0 0 0 0 0 0 0 0 1.5 0 0.11
14.884 1.16 0.1 5.57 0 0.13 1.06 0 0 22 -2 1 0 0 0 22 0.8 22.59 -40.79 1223 0.5 0 3.3 0.5 0.03 3.3 1.5 0.5 0.3 1.7 0.02 0 1.7 0.02 0 0 0 0 0 0 0 0 0 0 1.5 0 0.11
14.984 1.16 0.09 5.67 0 0.19 1 0 0 22 1 -1 0 0 0 22 -0.16 -1.59 -39.39 1222 0.5 0 3.3 0.5 0.03 3.3 1.5 0.5 0.3 1.7 0.02 0 1.7 0.02 0 0 0 0 0 0 0 0 0 0 1.5 0 0.11
15.084 1.16 0.1 5.77 0 0.19 0.94 0 0 22 2 -2 0 0 0 21 0.65 -2.57 -38.13 1216 0.5 0 3.3 0.5 0.03 3.3 1.5 0.5 0.3 1.7 0.02 0 1.7 0.02 0 0 0 0 0 0 0 0 0 0 1.5 0 0.11
15.184 1.16 0.1 5.86 0 0.19 1.06 0 0 21 3 -2 0 0 0 22 1.63 -2.5 -41.55 1226 0.5 0 3.3 0.5 0.03 3.3 1.5 0.5 0.3 1.7 0.02 0 1.7 0.02 0 0 0 0 0 0 0 0 0 0 1.5 0 0.11
15.284 1.16 0.09 5.97 0 0.13 0.94 0 0 21 -1 -2 0 0 0 22 -1.78 -2.49 -38.82 1229 0.5 0 3.3 0.5 0.03 3.3 1.5 0.5 0.3 1.7 0.02 0 1.7 0.02 0 0 0 0 0 0 0 0 0 0 1.5 0 0.11
15.384 1.16 0.09 6.04 0 0.06 1 0 0 22 1 -3 0 0 0 22 1.71 -3.14 -39.86 1224 0.5 0 3.3 0.5 0.03 3.3 1.5 0.5 0.3 1.7 0.02 0 1.7 0.02 0 0 0 0 0 0 0 0 0 0 1.2 0 0.05
15.484 1.16 0.09 6.08 0 0.13 1.06 0 0 21 -1 -2 0 0 0 22 -1.82 -2.49 -38.06 1225 0.5 0 3.3 0.5 0.03 3.3 1.5 0.5 0.3 1.7 0.02 0 1.7 0.02 0 0 0 0 0 0 0 0 0 0 1.2 0 0.05
15.584 1.16 0.09 6.16 0 0.19 0.94 0 0 22 0 -2 0 0 0 22 -1.06 -2.59 -38.35 1221 0.5 0 3.3 0.5 0.03 3.3 1.5 0.5 0.3 1.7 0.02 0 1.7 0.02 0 0 0 0 0 0 0 0 0 0 1.2 0 0.05
15.684 1.16 0.09 6.26 0 0.19 1 0 0 21 -2 -3 0 0 0 24 -25.06 -3.51 -41.67 1248 0.5 0 3.3 0.5 0.03 3.3 1.5 0.5 0.3 1.7 0.02 0 1.7 0.02 0 0 0 0 0 0 0 0 0 0 1.2 0 0.05
15.784 1.16 0.09 6.33 0 0.25 0.94 0 0 21 1 -3 0 0 0 22 -0.14 -3.47 -40.48 1229 0.5 0 3.3 0.5 0.03 3.3 1.5 0.5 0.3 1.7 0.02 0 1.7 0.02 0 0 0 0 0 0 0 0 0 0 1.2 0 0.05
15.884 1.18 0.09 6.45 -0.06 0.13 1.06 0 0 21 1 -2 0 0 0 22 -0.91 -8.07 -42.81 1223 0.5 0 3.3 0.5 0.03 3.3 1.5 0.5 0.3 1.7 0.02 0 1.7 0.02 0 0 0 0 0 0 0 0 0 0 1.2 0 0.05
15.984 1.18 0.09 6.53 0 0.25 1.06 0 0 21 2 -2 0 0 0 22 0.77 -2.74 -39.88 1223 0.5 0 3.3 0.5 0.03 3.3 1.5 0.5 0.3 1.7 0.02 0 1.7 0.02 0 0 0 0 0 0 0 0 0 0 1.2 0 0.05
16.084 1.18 0.09 6.53 -0.06 0.06 1 0 0 21 1 0 0 0 0 21 -0.07 -0.87 -44.67 1218 0.5 0 3.3 0.5 0.03 3.3 1.5 0.5 0.3 1.7 0.02 0 1.7 0.02 0 0 0 0 0 0 0 0 0 0 1.2 0 0.05
16.184 1.18 0.09 6.6 0 0.25 0.94 0 0 21 2 -2 0 0 0 21 6.38 -2.69 -43.46 1218 0.5 0 3.3 0.5 0.03 3.3 1.5 0.5 0.3 1.7 0.02 0 1.7 0.02 0 0 0 0 0 0 0 0 0 0 1.2 0 0.05
16.284 1.18 0.09 6.67 -0.19 0.19 1 0 0 21 1 -1 0 0 0 23 0.1 -1.87 -46.82 1230 0.5 0 3.3 0.5 0.03 3.3 1.5 0.5 0.3 1.7 0.02 0 1.7 0.02 0 0 0 0 0 0 0 0 0 0 1.2 0 0.05
16.384 1.18 0.09 6.77 0 0.13 1 0 0 21 1 -2 0 0 0 22 1.64 -2.66 -42.44 1222 0.5 0 3.3 0.5 0.03 3.3 1.5 0.5 0.3 1.7 0.02 0 1.7 0.02 0 0 0 0 0 0 0 0 0 0 1.2 0 0.05
16.484 1.18 0.09 6.82 0 0.13 1 0 0 22 2 -3 0 0 0 22 0.77 -3.59 -42.97 1229 0.5 0 3.3 0.5 0.03 3.3 1.5 0.5 0.3 1.7 0.02 0 1.7 0.02 0 0 0 0 0 0 0 0 0 0 1.2 0 0.05
16.584 1.19 0.09 6.88 0.06 0.19 0.94 0 0 21 1 -2 0 0 0 21 -0.16 -1.08 -44.81 1218 0.5 0 3.3 0.5 0.03 3.3 1.5 0.5 0.3 1.7 0.02 0 1.7 0.02 0 0 0 0 0 0 0 0 0 0 1.2 0 0.05
16.684 1.19 0.09 6.91 0.06 0.13 0.94 0 0 22 1 -2 0 0 0 22 -0.22 -2.72 -43.6 1227 0.5 0 3.3 0.5 0.03 3.3 1.5 0.5 0.3 1.7 0.02 0 1.7 0.02 0 0 0 0 0 0 0 0 0 0 1.2 0 0.05
16.784 1.19 0.09 7.02 0 0.19 1 0 0 22 0 -3 0 0 0 22 -0.94 -3.53 -41.02 1221 0.5 0 3.3 0.5 0.03 3.3 1.5 0.5 0.3 1.7 0.02 0 1.7 0.02 0 0 0 0 0 0 0 0 0 0 1.2 0 0.05
16.884 1.19 0.09 7.09 0 0.25 0.94 0 0 21 3 -1 0 0 0 22 7.24 3.48 -45.71 1220 0.5 0 3.3 0.5 0.03 3.3 1.5 0.5 0.3 1.7 0.02 0 1.7 0.02 0 0 0 0 0 0 0 0 0 0 1.2 0 0.05
16.984 1.19 0.09 7.14 0 0.25 1 0 0 22 2 -1 0 0 0 22 0.7 -2.16 -46.13 1220 0.5 0 3.3 0.5 0.03 3.3 1.5 0.5 0.3 1.7 0.02 0 1.7 0.02 0 0 0 0 0 0 0 0 0 0 1.2 0 0.05
17.084 1.19 0.09 7.25 -0.13 0.13 1.06 0 0 21 2 -2 0 0 0 22 0.86 -2.8 -46.56 1221 0.5 0 3.3 0.5 0.03 3.3 1.5 0.5 0.3 1.7 0.02 0 1.7 0.02 0 0 0 0 0 0 0 0 0 0 1.2 0 0.05
17.184 1.19 0.09 7.35 0 0.25 1.06 0 0 22 1 -2 0 0 0 22 -0.06 -2.93 -46.77 1223 0.5 0 3.3 0.5 0.03 3.3 1.5 0.5 0.3 1.7 0.02 0 1.7 0.02 0 0 0 0 0 0 0 0 0 0 1.2 0 0.05
17.284 1.18 0.09 7.45 0 0.13 1.06 0 0 21 2 -2 0 0 0 22 0.71 -2.84 -47.26 1221 0.5 0 3.3 0.5 0.03 3.3 1.5 0.5 0.3 1.7 0.02 0 1.7 0.02 0 0 0 0 0 0 0 0 0 0 1.2 0 0.05
17.384 1.18 0.09 7.5 -0.06 0.19 0.94 0 0 21 2 -2 0 0 0 22 0.86 -3.04 -47.53 1221 0.5 0 3.3 0.5 0.03 3.3 1.5 0.5 0.3 1.7 0.02 0 1.7 0.02 0 0 0 0 0 0 0 0 0 0 1.2 0 0.05
17.484 1.18 0.1 7.6 0 0.19 0.94 0 0 21 2 -2 0 0 0 22 0.79 -2.92 -48.01 1222 0.5 0 3.3 0.5 0.03 3.3 1.5 0.5 0.3 1.7 0.02 0 1.7 0.02 0 0 0 0 0 0 0 0 0 0 1.2 0 0.05
17.584 1.18 0.1 7.67 -0.06 0.25 0.94 0 0 22 2 -2 0 0 0 22 0.88 -3.05 -46.57 1221 0.5 0 3.3 0.5 0.03 3.3 1.5 0.5 0.3 1.7 0.02 0 1.7 0.02 0 0 0 0 0 0 0 0 0 0 1.2 0 0.05
17.684 1.18 0.1 7.76 0 0.13 1 0 0 21 2 -2 0 0 0 22 0.77 -3.02 -48.71 1222 0.5 0 3.3 0.5 0.03 3.3 1.5 0.5 0.3 1.7 0.02 0 1.7 0.02 0 0 0 0 0 0 0 0 0 0 1.2 0 0.05
17.784 1.18 0.1 7.81 -0.13 0.19 1 0 0 21 2 -2 0 0 0 22 0.95 -3.01 -49.18 1221 0.5 0 3.3 0.5 0.03 3.3 1.5 0.5 0.3 1.7 0.02 0 1.7 0.02 0 0 0 0 0 0 0 0 0 0 1.2 0 0.05
17.884 1.18 0.1 7.9 -0.06 0.19 1.12 0 0 21 2 -2 0 0 0 22 0.94 -3.23 -49.62 1221 0.5 0 3.3 0.5 0.03 3.3 1.5 0.5 0.3 1.7 0.02 0 1.7 0.02 0 0 0 0 0 0 0 0 0 0 1.2 0 0.05
17.984 1.16 0.1 8.03 0 0.25 1 0 0 22 2 -2 0 0 0 22 0.74 -3.2 -50.01 1221 0.5 0 3.3 0.5 0.03 3.3 1.5 0.5 0.3 1.7 0.02 0 1.7 0.02 0 0 0 0 0 0 0 0 0 0 1.2 0 0.05
18.084 1.16 0.1 8.15 0 0.19 1 0 0 21 2 -2 0 0 0 22 0.81 -3.08 -50.35 1222 0.5 0 3.3 0.5 0.03 3.3 1.5 0.5 0.3 1.7 0.02 0 1.7 0.02 0 0 0 0 0 0 0 0 0 0 1.2 0 0.05
18.184 1.16 0.1 8.25 0 0.31 1 0 0 22 2 -2 0 0 0 22 0.75 -3.34 -50.77 1222 0.5 0 3.3 0.5 0.03 3.3 1.5 0.5 0.3 1.7 0.02 0 1.7 0.02 0 0 0 0 0 0 0 0 0 0 1.2 0 0.05
18.284 1.16 0.11 8.36 -0.06 0.13 1 0 0 22 2 -2 0 0 0 22 0.81 -3.12 -49.64 1221 0.5 0 3.3 0.5 0.03 3.3 1.5 0.5 0.3 1.7 0.02 0 1.7 0.02 0 0 0 0 0 0 0 0 0 0 1.2 0 0.05
18.384 1.16 0.11 8.47 0 0.19 1 0 0 21 2 -2 0 0 0 22 0.74 -3.22 -51.54 1221 0.5 0 3.3 0.5 0.03 3.3 1.5 0.5 0.3 1.7 0.02 0 1.7 0.02 0 0 0 0 0 0 0 0 0 0 1.2 0 0.05
18.484 1.16 0.11 8.55 0 0.19 1 0 0 22 2 -2 0 0 0 22 0.82 -3.32 -51.92 1221 0.5 0 3.3 0.5 0.03 3.3 1.5 0.5 0.3 1.7 0.02 0 1.7 0.02 0 0 0 0 0 0 0 0 0 0 1.2 0 0.05
18.584 1.16 0.11 8.62 -0.06 0.13 0.94 0 0 21 2 -2 0 0 0 22 0.95 -3.26 -52.19 1222 0.5 0 3.3 0.5 0.03 3.3 1.5 0.5 0.3 1.7 0.02 0 1.7 0.02 0 0 0 0 0 0 0 0 0 0 1.2 0 0.05
18.684 1.16 0.11 8.71 -0.06 0.19 0.94 0 0 21 2 -2 0 0 0 22 0.91 -3.23 -52.65 1222 0.5 0 3.3 0.5 0.03 3.3 1.5 0.5 0.3 1.7 0.02 0 1.7 0.02 0 0 0 0 0 0 0 0 0 0 1.2 0 0.05
18.784 1.16 0.11 8.8 0 0.25 0.94 0 0 21 2 -2 0 0 0 22 0.75 -3.41 -52.92 1222 0.5 0 3.3 0.5 0.03 3.3 1.5 0.5 0.3 1.7 0.02 0 1.7 0.02 0 0 0 0 0 0 0 0 0 0 1.2 0 0.05
18.884 1.16 0.11 8.84 0 0.13 0.94 0 0 21 2 -2 0 0 0 22 0.82 -3.32 -53.35 1221 0.5 0 3.3 0.5 0.03 3.3 1.5 0.5 0.3 1.7 0.02 0 1.7 0.02 0 0 0 0 0 0 0 0 0 0 1.2 0 0.05
18.984 1.16 0.11 8.88 -0.06 0.25 1.06 0 0 22 2 -2 0 0 0 22 0.89 -3.48 -53.81 1221 0.5 0 3.3 0.5 0.03 3.3 1.5 0.5 0.3 1.7 0.02 0 1.7 0.02 0 0 0 0 0 0 0 0 0 0 1.2 0 0.05
19.084 1.16 0.11 8.93 0 0.13 1 0 0 21 2 -2 0 0 0 22 0.82 -3.38 -54.17 1221 0.5 0 3.3 0.5 0.03 3.3 1.5 0.5 0.3 1.7 0.02 0 1.7 0.02 0 0 0 0 0 0 0 0 0 0 1.2 0 0.05
19.184 1.16 0.11 9.01 0 0.19 1 0 0 21 2 -2 0 0 0 22 0.82 -3.44 -54.59 1221 0.5 0 3.3 0.5 0.03 3.3 1.5 0.5 0.3 1.7 0.02 0 1.7 0.02 0 0 0 0 0 0 0 0 0 0 1.2 0 0.05
19.284 1.16 0.11 9.09 0 0.13 1 0 0 22 2 -2 0 0 0 22 0.82 -3.41 -54.88 1222 0.5 0 3.3 0.5 0.03 3.3 1.5 0.5 0.3 1.7 0.02 0 1.7 0.02 0 0 0 0 0 0 0 0 0 0 1.2 0 0.05
19.384 1.16 0.11 9.16 0 0.19 1.06 0 0 22 2 -2 0 0 0 22 0.75 -3.38 -55.31 1221 0.5 0 3.3 0.5 0.03 3.3 1.5 0.5 0.3 1.7 0.02 0 1.7 0.02 0 0 0 0 0 0 0 0 0 0 1.2 0 0.05
19.484 1.16 0.11 9.25 0 0.13 0.88 0 0 22 2 -2 0 0 0 22 0.82 -3.38 -55.62 1221 0.5 0 3.3 0.5 0.03 3.3 1.5 0.5 0.3 1.7 0.02 0 1.7 0.02 0 0 0 0 0 0 0 0 0 0 1.2 0 0.05
19.584 1.16 0.11 9.36 0 0.25 1 0 0 21 2 -2 0 0 0 22 0.82 -3.57 -56.12 1221 0.5 0 3.3 0.5 0.03 3.3 1.5 0.5 0.3 1.7 0.02 0 1.7 0.02 0 0 0 0 0 0 0 0 0 0 1.2 0 0.05
19.684 1.16 0.12 9.46 -0.06 0.19 1 0 0 21 2 -2 0 0 0 22 0.84 -3.63 -56.5 1221 0.5 0 3.3 0.5 0.03 3.3 1.5 0.5 0.3 1.7 0.02 0 1.7 0.02 0 0 0 0 0 0 0 0 0 0 1.2 0 0.05
19.784 1.16 0.12 9.56 0 0.13 1 0 0 21 2 -2 0 0 0 22 0.83 -3.5 -56.96 1221 0.5 0 3.3 0.5 0.03 3.3 1.5 0.5 0.3 1.7 0.02 0 1.7 0.02 0 0 0 0 0 0 0 0 0 0 1.2 0 0.05
19.884 1.18 0.11 9.59 0 0.25 1 0 0 20 2 -2 0 0 0 22 0.81 -3.67 -57.26 1221 0.5 0 3.3 0.5 0.03 3.3 1.5 0.5 0.3 1.7 0.02 0 1.7 0.02 0 0 0 0 0 0 0 0 0 0 1.2 0 0.05
19.984 1.18 0.12 9.66 -0.06 0.19 0.94 0 0 21 2 -2 0 0 0 22 0.82 -3.71 -57.43 1221 0.5 0 3.3 0.5 0.03 3.3 1.5 0.5 0.3 1.7 0.02 0 1.7 0.02 0 0 0 0 0 0 0 0 0 0 1.2 0 0.05
20.084 1.16 0.11 9.71 0 0.06 1.06 0 0 22 2 -2 0 0 0 22 0.83 -3.47 -57.53 1227 0.5 0 3.3 0.5 0.03 3.3 1.5 0.5 0.3 1.7 0.02 0 1.7 0.02 0 0 0 0 0 0 0 0 0 0 1.2 0 0.05
20.184 1.16 0.11 9.8 0 0.19 1 0 0 22 2 -2 0 0 0 22 0.85 -3.66 -55.91 1221 0.5 0 3.3 0.5 0.03 3.3 1.5 0.5 0.3 1.7 0.02 0 1.7 0.02 0 0 0 0 0 0 0 0 0 0 1.2 0 0.05
20.284 1.18 0.12 9.9 0 0.25 1 0 0 22 2 -2 0 0 0 22 0.74 -3.8 -56.13 1222 0.5 0 3.3 0.5 0.03 3.3 1.5 0.5 0.3 1.7 0.02 0 1.7 0.02 0 0 0 0 0 0 0 0 0 0 1.2 0 0.05
20.384 1.18 0.12 9.98 0 0.25 1 0 0 22 2 -2 0 0 0 22 0.82 -3.8 -56 1221 0.5 0 3.3 0.5 0.03 3.3 1.5 0.5 0.3 1.7 0.02 0 1.7 0.02 0 0 0 0 0 0 0 0 0 0 1.2 0 0.05
20.484 1.18 0.12 10.05 0 0.25 1 0 0 22 2 -2 0 0 0 22 0.83 -3.77 -57.47 1221 0.5 0 3.3 0.5 0.03 3.3 1.5 0.5 0.3 1.7 0.02 0 1.7 0.02 0 0 0 0 0 0 0 0 0 0 1.2 0 0.05
20.584 1.18 0.11 10.1 0 0.19 1 0 0 19 2 -2 0 0 0 22 0.83 -3.83 -57.53 1221 0.5 0 3.3 0.5 0.03 3.3 1.5 0.5 0.3 1.7 0.02 0 1.7 0.02 0 0 0 0 0 0 0 0 0 0 1.2 0 0.05
20.684 1.18 0.12 10.14 0 0.25 1.06 0 0 21 2 -2 0 0 0 22 0.76 -3.97 -57.57 1221 0.5 0 3.3 0.5 0.03 3.3 1.5 0.5 0.3 1.7 0.02 0 1.7 0.02 0 0 0 0 0 0 0 0 0 0 1.2 0 0.05
20.784 1.18 0.12 10.18 -0.06 0.13 1 0 0 22 2 -2 0 0 0 22 0.83 -3.74 -57.77 1221 0.5 0 3.3 0.5 0.03 3.3 1.5 0.5 0.3 1.7 0.02 0 1.7 0.02 0 0 0 0 0 0 0 0 0 0 1.2 0 0.05
20.884 1.18 0.12 10.25 0 0.19 1 0 0 21 2 -2 0 0 0 22 0.84 -3.86 -57.5 1221 0.5 0 3.3 0.5 0.03 3.3 1.5 0.5 0.3 1.7 0.02 0 1.7 0.02 0 0 0 0 0 0 0 0 0 0 1.2 0 0.05
20.984 1.18 0.11 10.35 0 0.13 1 0 0 21 2 -2 0 0 0 22 0.91 -3.72 -57.43 1221 0.5 0 3.3 0.5 0.03 3.3 1.5 0.5 0.3 1.7 0.02 0 1.7 0.02 0 0 0 0 0 0 0 0 0 0 1.2 0 0.05
21.084 1.19 0.11 10.44 -0.06 0.13 0.88 0 0 21 2 -2 0 0 0 22 0.84 -3.74 -57.42 1221 0.5 0 3.3 0.5 0.03 3.3 1.5 0.5 0.3 1.7 0.02 0 1.7 0.02 0 0 0 0 0 0 0 0 0 0 1.2 0 0.05
21.184 1.18 0.11 10.5 -0.13 0.19 1 0 0 21 2 -2 0 0 0 22 0.97 -3.86 -57.47 1221 0.5 0 3.3 0.5 0.03 3.3 1.5 0.5 0.3 1.7 0.02 0 1.7 0.02 0 0 0 0 0 0 0 0 0 0 1.2 0 0.05
21.284 1.18 0.12 10.58 0 0.25 1 0 0 20 2 -2 0 0 0 22 0.78 -3.95 -57.47 1221 0.5 0 3.3 0.5 0.03 3.3 1.5 0.5 0.3 1.7 0.02 0 1.7 0.02 0 0 0 0 0 0 0 0 0 0 1.2 0 0.05
21.384 1.18 0.12 10.67 0 0.25 0.94 0 0 22 2 -2 0 0 0 22 0.83 -4.06 -57.41 1221 0.5 0 3.3 0.5 0.03 3.3 1.5 0.5 0.3 1.7 0.02 0 1.7 0.02 0 0 0 0 0 0 0 0 0 0 1.2 0 0.05
21.484 1.19 0.12 10.78 0 0.25 1.06 0 0 22 2 -2 0 0 0 22 0.82 -4.03 -57.55 1221 0.5 0 3.3 0.5 0.03 3.3 1.5 0.5 0.3 1.7 0.02 0 1.7 0.02 0 0 0 0 0 0 0 0 0 0 1.2 0 0.05
21.584 1.19 0.12 10.87 -0.13 0.19 0.94 0 0 22 2 -2 0 0 0 22 1 -4.04 -57.4 1221 0.5 0 3.3 0.5 0.03 3.3 1.5 0.5 0.3 1.7 0.02 0 1.7 0.02 0 0 0 0 0 0 0 0 0 0 1.2 0 0.05
21.684 1.18 0.12 10.89 0.19 -0.25 1.25 0 0 23 2 -2 0 0 0 22 0.58 -3.84 -57.49 1221 0.5 0 3.3 0.5 0.03 3.3 1.5 0.5 0.3 1.7 0.02 0 1.7 0.02 0 0 0 0 0 0 0 0 0 0 1.2 0 0.05
21.784 1.18 0.11 10.73 0 -0.19 2.37 0 0 22 2 -2 0 0 0 22 1.82 -4.71 -60.32 1222 0.5 0 3.3 0.5 0.03 3.3 1.5 0.5 0.3 1.7 0.02 0 1.7 0.02 0 0 0 0 0 0 0 0 0 0 1.2 0 0.05
21.884 1.18 0.11 10.32 0 0.31 2.69 0 0 20 2 -2 0 0 0 22 0.89 -5.18 -60.01 1221 0.5 0 3.3 0.5 0.03 3.3 1.5 0.5 0.3 1.7 0.02 0 1.7 0.02 0 0 0 0 0 0 0 0 0 0 1.2 0 0.05
21.984 1.19 0.13 9.89 0.31 0 -0.44 0 0 22 2 -2 0 0 0 22 1.62 -3.71 -56.18 1221 0.5 0 3.3 0.5 0.03 3.3 1.5 0.5 0.3 1.7 0.02 0 1.7 0.02 0 0 0 0 0 0 0 0 0 0 1.2 0 0.05
22.084 1.18 0.15 9.43 -0.56 0.19 -2.37 0 0 22 2 -2 0 0 0 22 1.1 -5.58 -54.26 1221 0.5 0 3.3 0.5 0.03 3.3 1.5 0.5 0.3 1.7 0.02 0 1.7 0.02 0 0 0 0 0 0 0 0 0 0 1.2 0 0.05
22.184 1.19 0.15 9.23 -0.81 -0.56 -0.19 0 0 22 2 -2 0 0 0 22 2.6 -2.78 -55.2 1222 0.5 0 3.3 0.5 0.03 3.3 1.5 0.5 0.3 1.7 0.02 0 1.7 0.02 0 0 0 0 0 0 0 0 0 0 1.2 0 0.05
22.284 1.2 0.16 8.96 -0.37 0.31 0.25 0 0 21 2 -2 0 0 0 22 2.11 -2.8 -56.14 1227 0.5 0 3.3 0.5 0.03 3.3 1.5 0.5 0.3 1.7 0.02 0 1.7 0.02 0 0 0 0 0 0 0 0 0 0 1.2 0 0.05
22.384 1.2 0.16 8.79 -0.56 -0.44 3 0 0 20 2 -2 0 0 0 22 -0.89 -2.23 -59.58 1227 0.5 0 3.3 0.5 0.03 3.3 1.5 0.5 0.3 1.7 0.02 0 1.7 0.02 0 0 0 0 0 0 0 0 0 0 1.2 0 0.05
22.484 1.21 0.15 8.15 1.25 2.25 2.5 0 0 20 1 -2 0 0 0 22 -2.42 -7.07 -57.53 1227 0.5 0 3.3 0.5 0.03 3.3 1.5 0.5 0.3 1.7 0.02 0 1.7 0.02 0 0 0 0 0 0 0 0 0 0 1.2 0 0.05
22.584 1.16 0.16 7.72 -1.69 0 -3.5 0 0 22 2 -2 0 0 0 22 10.51 -2.7 -56.88 1227 0.5 0 3.3 0.5 0.03 3.3 1.5 0.5 0.3 1.7 0.02 0 1.7 0.02 0 0 0 0 0 0 0 0 0 0 1.2 0 0.05
22.684 1.18 0.21 7.16 -2 0.56 2.81 0 0 23 2 -2 0 0 0 22 -1.34 -8.62 -59.37 1227 0.5 0 3.3 0.5 0.03 3.3 1.5 0.5 0.3 1.7 0.02 0 1.7 0.02 0 0 0 0 0 0 0 0 0 0 1.2 0 0.05
22.784 1.16 0.21 6.81 2.75 1.5 0.69 0 0 22 2 -2 0 0 0 22 -0.87 -3.1 -54.96 1227 0.5 0 3.3 0.5 0.03 3.3 1.5 0.5 0.3 1.7 0.02 0 1.7 0.02 0 0 0 0 0 0 0 0 0 0 1.2 0 0.05
22.884 1.15 0.23 6.36 -2.31 0.25 0 0 0 22 2 -2 0 0 0 22 3.65 -5.83 -58.79 1227 0.5 0 3.3 0.5 0.03 3.3 1.5 0.5 0.3 1.7 0.02 0 1.7 0.02 0 0 0 0 0 0 0 0 0 0 1.2 0 0.05
22.984 1.15 0.22 6.1 -1.56 -0.94 3.31 0 0 22 2 -2 0 0 0 22 1.61 -3.75 -59.66 1227 0.5 0 3.3 0.5 0.03 3.3 1.5 0.5 0.3 1.7 0.02 0 1.7 0.02 0 0 0 0 0 0 0 0 0 0 1.2 0 0.05
23.084 1.18 0.23 5.59 4.06 1.5 1.81 0 0 22 2 -2 0 0 0 22 -8.11 -9.92 -57.05 1227 0.5 0 3.3 0.5 0.03 3.3 1.5 0.5 0.3 1.7 0.02 0 1.7 0.02 0 0 0 0 0 0 0 0 0 0 1.2 0 0.05
23.185 1.2 0.23 5.31 3 0.88 1.44 0 0 22 2 -2 0 0 0 22 0.03 -2.39 -55.31 1227 0.5 0 3.3 0.5 0.03 3.3 1.5 0.5 0.3 1.7 0.02 0 1.7 0.02 0 0 0 0 0 0 0 0 0 0 1.2 0 0.05
23.285 1.2 0.23 5.04 0.37 -0.81 1.87 0 0 22 2 -2 0 0 0 22 2.07 -3.36 -57.24 1227 0.5 0 3.3 0.5 0.03 3.3 1.5 0.5 0.3 1.7 0.02 0 1.7 0.02 0 0 0 0 0 0 0 0 0 0 1.2 0 0.05
23.385 1.2 0.23 4.66 -3.94 -1.5 2.87 0 0 22 2 -2 0 0 0 22 6.6 -1.53 -60.34 1228 0.5 0 3.3 0.5 0.03 3.3 1.5 0.5 0.3 1.7 0.02 0 1.7 0.02 0 0 0 0 0 0 0 0 0 0 1.2 0 0.05
23.484 1.2 0.23 4.39 2.69 0.81 2.5 0 0 22 2 -2 0 0 0 22 -8.02 -8.02 -59 1228 0.5 0 3.3 0.5 0.03 3.3 1.5 0.5 0.3 1.7 0.02 0 1.7 0.02 0 0 0 0 0 0 0 0 0 0 1.2 0 0.05
23.584 1.16 0.22 3.98 2.44 2.12 0.56 0 0 22 2 -2 0 0 0 24 0.8 -3.4 -57.57 1242 0.5 0 3.3 0.5 0.03 3.3 1.5 0.5 0.3 1.7 0.02 0 1.7 0.02 0 0 0 0 0 0 0 0 0 0 1.2 0 0.05
23.684 1.14 0.22 3.77 -0.31 -0.37 -0.56 0 0 22 2 -2 0 0 0 24 6 -2.06 -57.69 1244 0.5 0 3.3 0.5 0.03 3.3 1.5 0.5 0.3 1.7 0.02 0 1.7 0.02 0 0 0 0 0 0 0 0 0 0 1.2 0 0.05
23.784 1.14 0.23 3.37 1.19 0.31 -0.69 0 0 22 1 -2 0 0 0 25 -0.33 -5.94 -56.28 1255 0.5 0 3.3 0.5 0.03 3.3 1.5 0.5 0.3 1.7 0.02 0 1.7 0.02 0 0 0 0 0 0 0 0 0 0 1.2 0 0.05
23.884 1.13 0.21 3.08 0.94 1.81 -3.06 0 0 22 2 -2 0 0 0 28 6.24 -5.53 -56.86 1284 0.5 0 3.3 0.5 0.03 3.3 1.5 0.5 0.3 1.7 0.02 0 1.7 0.02 0 0 0 0 0 0 0 0 0 0 1.2 0 0.05
23.984 1.18 0.25 2.98 3.25 3.5 -0.06 0 0 22 2 -2 0 0 0 28 3.12 -4.98 -55.54 1283 0.5 0 3.3 0.5 0.03 3.3 1.5 0.5 0.3 1.7 0.02 0 1.7 0.02 0 0 0 0 0 0 0 0 0 0 1.2 0 0.05
24.084 1.14 0.24 3.08 -2.12 -0.5 -3.12 0 0 23 2 -2 0 0 0 28 4.48 -6.29 -56.3 1283 0.5 0 3.3 0.5 0.03 3.3 1.5 0.5 0.3 1.7 0.02 0 1.7 0.02 0 0 0 0 0 0 0 0 0 0 1.2 0 0.05
24.184 1.13 0.23 3.2 -3 -1.5 -1.19 0 0 22 2 -2 0 0 0 28 -0.2 -4.12 -54.95 1284 0.5 0 3.3 0.5 0.03 3.3 1.5 0.5 0.3 1.7 0.02 0 1.7 0.02 0 0 0 0 0 0 0 0 0 0 1.2 0 0.05
24.284 1.14 0.26 3.27 -1.31 0 3.62 0 0 22 1 -2 0 0 0 29 -13.13 -12.86 -57.02 1296 0.5 0 3.3 0.5 0.03 3.3 1.5 0.5 0.3 1.7 0.02 0 1.7 0.02 0 0 0 0 0 0 0 0 0 0 1.2 0 0.05
24.384 1.13 0.25 3.37 2.5 -0.37 7.81 0 0 24 2 -2 0 0 0 29 -10.95 -8.33 -58.36 1297 0.5 0 3.3 0.5 0.03 3.3 1.5 0.5 0.3 1.7 0.02 0 1.7 0.02 0 0 0 0 0 0 0 0 0 0 1.2 0 0.05
24.484 1.1 0.21 3.48 -0.31 -4.06 6.12 0 0 23 2 -2 0 0 0 31 -5.51 -3.31 -56.59 1311 0.5 0 3.3 0.5 0.03 3.3 1.5 0.5 0.3 1.7 0.02 0 1.7 0.02 0 0 0 0 0 0 0 0 0 0 1.2 0 0.05
24.584 1.09 0.2 3.57 -6.25 -8.63 7.37 0 0 23 1 -2 0 0 0 31 4.55 3.05 -59.78 1311 0.5 0 3.3 0.5 0.03 3.3 1.5 0.5 0.3 1.7 0.02 0 1.7 0.02 0 0 0 0 0 0 0 0 0 0 1.2 0 0.05
24.685 1.1 0.2 3.64 0.75 3.69 -3 0 0 22 2 -3 0 0 0 32 9.3 -4.22 -57.8 1325 0.5 0 3.3 0.5 0.03 3.3 1.5 0.5 0.3 1.7 0.02 0 1.7 0.02 0 0 0 0 0 0 0 0 0 0 1.2 0 0.05
24.784 1.12 0.2 3.75 3.06 -0.75 6.31 0 0 22 1 -2 0 0 0 32 -0.99 -2.34 -57.28 1326 0.5 0 3.3 0.5 0.03 3.3 1.5 0.5 0.3 1.7 0.02 0 1.7 0.02 0 0 0 0 0 0 0 0 0 0 1.2 0 0.05
24.885 1.11 0.19 3.82 11.06 11.94 -5.69 0 0 22 2 -2 0 0 0 33 1.19 -10.35 -55.69 1337 0.5 0 3.3 0.5 0.03 3.3 1.5 0.5 0.3 1.7 0.02 0 1.7 0.02 0 0 0 0 0 0 0 0 0 0 1.2 0 0.05
24.985 1.12 0.15 3.87 -2.94 -4.31 -4.06 0 0 22 2 -2 0 0 0 33 -7.69 -4.31 -55.96 1338 0.5 0 3.3 0.5 0.03 3.3 1.5 0.5 0.3 1.7 0.02 0 1.7 0.02 0 0 0 0 0 0 0 0 0 0 1.2 0 0.05
25.085 1.14 0.14 3.97 -11.38 -8.25 8.38 0 0 23 1 -2 0 0 0 35 6.67 -2.97 -55.88 1351 0.5 0 3.3 0.5 0.03 3.3 1.5 0.5 0.3 1.7 0.02 0 1.7 0.02 0 0 0 0 0 0 0 0 0 0 1.2 0 0.05
25.185 1.04 0.04 3.92 -13.5 -11.5 2.62 0 0 24 1 -2 0 0 0 35 0.7 -1.14 -53.87 1352 0.5 0 3.3 0.5 0.03 3.3 1.5 0.5 0.3 1.7 0.02 0 1.7 0.02 0 0 0 0 0 0 0 0 0 0 1.2 0 0.05
25.285 0.99 -0.04 3.87 10.56 3.12 -9.81 0 0 23 2 -2 0 0 0 35 -9.7 -11.78 -52.18 1356 0.5 0 3.3 0.5 0.03 3.3 1.5 0.5 0.3 1.7 0.02 0 1.7 0.02 0 0 0 0 0 0 0 0 0 0 1.2 0 0.05
25.385 1.01 -0.02 3.82 10 4.94 -3.31 0 0 23 2 -2 0 0 0 35 8.55 -2.89 -58.87 1356 0.5 0 3.3 0.5 0.03 3.3 1.5 0.5 0.3 1.7 0.02 0 1.7 0.02 0 0 0 0 0 0 0 0 0 0 1.2 0 0.05
25.485 1.07 0.03 3.76 -8.44 -6.81 6.75 0 0 23 1 -2 0 0 0 36 -4.11 -2.51 -56.49 1365 0.5 0 3.3 0.5 0.03 3.3 1.5 0.5 0.3 1.7 0.02 0 1.7 0.02 0 0 0 0 0 0 0 0 0 0 1.2 0 0.05
25.585 1.24 0.21 3.7 3 1.37 -6.37 0 0 23 2 -2 0 0 0 37 -17.3 -12.92 -52.4 1370 0.5 0 3.3 0.5 0.03 3.3 1.5 0.5 0.3 1.7 0.02 0 1.7 0.02 0 0 0 0 0 0 0 0 0 0 1.2 0 0.05
25.685 1.44 0.33 3.49 -7.25 -1.81 0.69 0 0 23 1 -2 0 0 0 38 19.22 -1.84 -58 1381 0.5 0 3.3 0.5 0.03 3.3 1.5 0.5 0.3 1.7 0.02 0 1.7 0.02 0 0 0 0 0 0 0 0 0 0 1.2 0 0.05
25.785 0.88 -0.23 3.25 -11 -14.13 -5.5 0 0 22 1 -2 0 0 0 39 -5.75 -1.39 -47.46 1393 0.5 0 3.3 0.5 0.03 3.3 1.5 0.5 0.3 1.7 0.02 0 1.7 0.02 0 0 0 0 0 0 0 0 0 0 1.2 0 0.05
25.885 0.9 -0.13 2.75 -7.25 -1.44 4.31 0 0 21 1 -2 0 0 0 39 4.42 -1.9 -53.38 1392 0.5 0 3.3 0.5 0.03 3.3 1.5 0.5 0.3 1.7 0.02 0 1.7 0.02 0 0 0 0 0 0 0 0 0 0 1.2 0 0.05
25.985 0.79 -0.14 2.37 11.31 5.31 -11.63 0 0 22 1 -2 0 0 0 40 -13.78 -13.18 -49.82 1406 0.5 0 3.3 0.5 0.03 3.3 1.5 0.5 0.3 1.7 0.02 0 1.7 0.02 0 0 0 0 0 0 0 0 0 0 1.2 0 0.05
26.085 0.68 -0.14 1.96 -10.69 -7.44 -3.75 0 0 22 1 -2 0 0 0 40 -17.21 -11.53 -47.5 1404 0.5 0 3.3 0.5 0.03 3.3 1.5 0.5 0.3 1.7 0.02 0 1.7 0.02 0 0 0 0 0 0 0 0 0 0 1.2 0 0.05
26.185 0.78 -0.18 1.35 -16.44 -10.81 -1.56 0 0 23 1 -2 0 0 0 42 9.17 2.63 -46.49 1421 0.5 0 3.3 0.5 0.03 3.3 1.5 0.5 0.3 1.7 0.02 0 1.7 0.02 0 0 0 0 0 0 0 0 0 0 1.2 0 0.05
26.285 0.78 -0.15 0.44 -23.37 -9.69 -4.62 0 0 23 1 -2 0 0 0 43 22.74 3.31 -38.52 1437 0.5 0 3.3 0.5 0.03 3.3 1.5 0.5 0.3 1.7 0.02 0 1.7 0.02 0 0 0 0 0 0 0 0 0 0 1.2 0 0.05
26.385 0.59 -1.13 -0.66 -33.88 -38.25 -2.25 0 0 22 1 -2 0 0 0 45 49.87 35.13 -35.73 1458 0.5 0 3.3 0.5 0.03 3.3 1.5 0.5 0.3 1.7 0.02 0 1.7 0.02 0 0 0 0 0 0 0 0 0 0 1.2 0 0.05
26.485 1.47 -2.43 -1.97 -10.75 -20.31 -11 0 0 22 1 -2 0 0 0 45 -9.44 0.87 -36.86 1450 0.5 0 3.3 0.5 0.03 3.3 1.5 0.5 0.3 1.7 0.02 0 1.7 0.02 0 0 0 0 0 0 0 0 0 0 1.2 0 0.05
26.585 4.05 -1.66 -3.07 30.5 12.31 -12.63 0 0 21 1 -2 0 0 0 44 -1.52 -1.76 -40.13 1449 0.5 0 3.3 0.5 0.03 3.3 1.5 0.5 0.3 1.7 0.02 0 1.7 0.02 0 0 0 0 0 0 0 0 0 0 1.2 0 0.05
26.685 4.78 -0.46 -4.14 -29.69 12.63 -24 0 0 21 1 -2 0 0 0 45 23.97 -17.27 -25.22 1450 0.5 0 3.3 0.5 0.03 3.3 1.5 0.5 0.3 1.7 0.02 0 1.7 0.02 0 0 0 0 0 0 0 0 0 0 1.2 0 0.05
26.785 3.93 0.05 -5.55 30.81 37.06 -25.94 0 0 21 1 -2 0 0 0 45 -29.06 -26.88 -27.21 1450 0.5 0 3.3 0.5 0.03 3.3 1.5 0.5 0.3 1.7 0.02 0 1.7 0.02 0 0 0 0 0 0 0 0 0 0 1.2 0 0.05
26.885 4.17 0.59 -6.97 27.12 22.44 -23 0 0 24 1 -2 0 0 0 45 -26.02 -22.81 -25.28 1450 0.5 0 3.3 0.5 0.03 3.3 1.5 0.5 0.3 1.7 0.02 0 1.7 0.02 0 0 0 0 0 0 0 0 0 0 1.2 0 0.05
26.985 5.84 0.9 -8.69 54.13 25.62 -27.12 0 0 29 1 -1 0 0 0 41 -110.15 -40.76 -25.32 1419 0.5 0 3.3 0.5 0.03 3.3 1.5 0.5 0.3 1.7 0.02 0 1.7 0.02 0 0 0 0 0 0 0 0 0 0 1.2 0 0.05
27.085 5.59 -0.47 -10.45 -18.31 -28.19 -11.44 0 0 35 1 -1 0 0 0 41 61.26 35.63 -24.45 1419 0.5 0 3.3 0.5 0.03 3.3 1.5 0.5 0.3 1.7 0.02 0 1.7 0.02 0 0 0 0 0 0 0 0 0 0 1.2 0 0.05
27.185 3.93 -1.71 -12.51 7.06 6.31 -26 0 0 43 1 -2 0 0 0 41 -19.59 -26.87 -16.75 1417 0.5 0 3.3 0.5 0.03 3.3 1.5 0.5 0.3 1.7 0.02 0 1.7 0.02 0 0 0 0 0 0 0 0 0 0 1.2 0 0.05
27.285 4.24 -0.97 -14.47 -14.38 -1.37 -12.75 0 0 52 1 -1 0 0 0 41 14.25 -1.47 -14.01 1419 0.5 0 3.3 0.5 0.03 3.3 1.5 0.5 0.3 1.7 0.02 0 1.7 0.02 0 0 0 0 0 0 0 0 0 0 1.2 0 0.05
27.385 4.59 -0.37 -16.51 -8.13 -7.19 -14.13 0 0 60 1 -2 0 0 0 42 23.63 10.94 -16.4 1420 0.5 0 3.3 0.5 0.03 3.3 1.5 0.5 0.3 1.7 0.02 0 1.7 0.02 0 0 0 0 0 0 0 0 0 0 1.2 0 0.05
27.485 4.11 -0.62 -18.76 11.69 4.5 -26.62 0 0 67 1 -2 0 0 0 41 -30.66 -22.88 -10.07 1418 0.5 0 3.3 0.5 0.03 3.3 1.5 0.5 0.3 1.7 0.02 0 1.7 0.02 0 0 0 0 0 0 0 0 0 0 1.2 0 0.05
27.585 4.2 -1.45 -20.84 0.31 -3.81 -20.12 0 0 74 1 -2 0 0 0 40 4.15 -0.24 -13.05 1404 0.5 0 3.3 0.5 0.03 3.3 1.5 0.5 0.3 1.7 0.02 0 1.7 0.02 0 0 0 0 0 0 0 0 0 0 1.2 0 0.05
27.685 3.03 -1.64 -22.91 -10.13 5.62 -29.94 0 0 71 1 -1 0 0 0 40 0.81 -8.16 -9 1405 0.5 0 3.3 0.5 0.03 3.3 1.5 0.5 0.3 1.7 0.02 0 1.7 0.02 0 0 0 0 0 0 0 0 0 0 1.2 0 0.05
27.785 1.08 -1.13 -24.91 -2.56 11.69 -28.37 0 0 68 1 -1 0 0 0 40 7.8 -2.98 -12.76 1406 0.5 0 3.3 0.5 0.03 3.3 1.5 0.5 0.3 1.7 0.02 0 1.7 0.02 0 0 0 0 0 0 0 0 0 0 1.2 0 0.05
27.885 0.22 -0.89 -26.88 -10.31 -9.63 -9.81 0 0 64 1 -1 0 0 0 40 3.37 -3.09 -10.97 1407 0.5 0 3.3 0.5 0.03 3.3 1.5 0.5 0.3 1.7 0.02 0 1.7 0.02 0 0 0 0 0 0 0 0 0 0 1.2 0 0.05
27.985 1.21 -1.2 -28.75 3.56 -12.5 -10.38 0 0 60 1 -2 0 0 0 42 -5.27 -2.8 -12.35 1421 0.5 0 3.3 0.5 0.03 3.3 1.5 0.5 0.3 1.7 0.02 0 1.7 0.02 0 0 0 0 0 0 0 0 0 0 1.2 0 0.05
28.085 2.44 -1.66 -30.66 16.12 -9.19 -4 0 0 58 1 -1 0 0 0 41 8.19 11.27 -15.38 1419 0.5 0 3.3 0.5 0.03 3.3 1.5 0.5 0.3 1.7 0.02 0 1.7 0.02 0 0 0 0 0 0 0 0 0 0 1.2 0 0.05
28.185 2.24 -2.34 -32.42 8.56 -0.13 -17.62 0 0 54 1 -1 0 0 0 41 -11.29 -13.13 -2.88 1419 0.5 0 3.3 0.5 0.03 3.3 1.5 0.5 0.3 1.7 0.02 0 1.7 0.02 0 0 0 0 0 0 0 0 0 0 1.2 0 0.05
28.285 0.91 -2.25 -34.07 13.19 19.37 -15.81 0 0 54 1 -2 0 0 0 41 -22.89 -19.31 -12.12 1419 0.5 0 3.3 0.5 0.03 3.3 1.5 0.5 0.3 1.7 0.02 0 1.7 0.02 0 0 0 0 0 0 0 0 0 0 1.2 0 0.05
28.385 -0.51 -2.29 -35.74 -2.31 5.44 -26.5 0 0 54 1 -2 0 0 0 42 -7.39 -6.08 -8.26 1420 0.5 0 3.3 0.5 0.03 3.3 1.5 0.5 0.3 1.7 0.02 0 1.7 0.02 0 0 0 0 0 0 0 0 0 0 1.2 0 0.05
28.485 -0.62 -3.04 -37.17 -18.87 -15.38 -12.19 0 0 54 2 -2 0 0 0 42 17.89 12.77 -15.4 1420 0.5 0 3.3 0.5 0.03 3.3 1.5 0.5 0.3 1.7 0.02 0 1.7 0.02 0 0 0 0 0 0 0 0 0 0 1.2 0 0.05
28.585 0.08 -4.13 -38.66 24.37 -0.75 -24.81 0 0 55 1 -2 0 0 0 41 -40.64 -3.5 -13.2 1414 0.5 0 3.3 0.5 0.03 3.3 1.5 0.5 0.3 1.7 0.02 0 1.7 0.02 0 0 0 0 0 0 0 0 0 0 1.2 0 0.05
28.685 1.4 -3.96 -40.1 -0.62 -7.12 -7.5 0 0 56 1 -1 0 0 0 39 31.51 19.19 -17.16 1391 0.5 0 3.3 0.5 0.03 3.3 1.5 0.5 0.3 1.7 0.02 0 1.7 0.02 0 0 0 0 0 0 0 0 0 0 1.2 0 0.05
28.785 1.74 -2.96 -41.41 -15.13 -0.88 -0.56 0 0 57 1 -2 0 0 0 39 -1.91 -11.2 -11.56 1392 0.5 0 3.3 0.5 0.03 3.3 1.5 0.5 0.3 1.7 0.02 0 1.7 0.02 0 0 0 0 0 0 0 0 0 0 1.2 0 0.05
28.885 2 -1.86 -42.69 -11.38 1.19 -20.06 0 0 59 1 -2 0 0 0 39 0.86 -2.65 -8.05 1395 0.5 0 3.3 0.5 0.03 3.3 1.5 0.5 0.3 1.7 0.02 0 1.7 0.02 0 0 0 0 0 0 0 0 0 0 1.2 0 0.05
28.985 2.69 -1.85 -44.18 15.31 -2.37 -22.56 0 0 58 2 -2 0 0 0 40 -13.87 -8.64 -5.22 1407 0.5 0 3.3 0.5 0.03 3.3 1.5 0.5 0.3 1.7 0.02 0 1.7 0.02 0 0 0 0 0 0 0 0 0 0 1.2 0 0.05
29.085 3.46 -2.21 -45.85 17.87 2.56 -16.56 0 0 58 1 -2 0 0 0 40 -2.06 -0.04 -5.4 1405 0.5 0 3.3 0.5 0.03 3.3 1.5 0.5 0.3 1.7 0.02 0 1.7 0.02 0 0 0 0 0 0 0 0 0 0 1.2 0 0.05
29.185 3.14 -2.13 -47.31 -21.5 -4.75 -11.25 0 0 57 1 -2 0 0 0 40 11.3 -3.6 -6.94 1405 0.5 0 3.3 0.5 0.03 3.3 1.5 0.5 0.3 1.7 0.02 0 1.7 0.02 0 0 0 0 0 0 0 0 0 0 1.2 0 0.05
29.285 2.14 -1.98 -48.65 -11.44 -7.12 -4.94 0 0 57 2 -2 0 0 0 40 2.52 -5.3 -12.04 1405 0.5 0 3.3 0.5 0.03 3.3 1.5 0.5 0.3 1.7 0.02 0 1.7 0.02 0 0 0 0 0 0 0 0 0 0 1.2 0 0.05
29.385 2.37 -1.87 -50.03 17.69 3.87 -8.81 0 0 55 1 -2 0 0 0 40 -21.47 -14.35 -6.42 1405 0.5 0 3.3 0.5 0.03 3.3 1.5 0.5 0.3 1.7 0.02 0 1.7 0.02 0 0 0 0 0 0 0 0 0 0 1.2 0 0.05
29.485 3.96 -1.38 -51.35 26.37 15.38 -18 0 0 56 1 -2 0 0 0 40 -23.75 -13.42 -2.96 1405 0.5 0 3.3 0.5 0.03 3.3 1.5 0.5 0.3 1.7 0.02 0 1.7 0.02 0 0 0 0 0 0 0 0 0 0 1.2 0 0.05
29.585 5.1 -1.04 -52.62 -9.25 -12.19 -0.62 0 0 54 2 -2 0 0 0 40 20.69 8.54 -8.58 1404 0.5 0 3.3 0.5 0.03 3.3 1.5 0.5 0.3 1.7 0.02 0 1.7 0.02 0 0 0 0 0 0 0 0 0 0 1.2 0 0.05
29.685 3.77 -2.42 -53.65 -15.69 -22.25 -7.25 0 0 53 2 -2 0 0 0 40 -3.31 -3.03 -7.84 1405 0.5 0 3.3 0.5 0.03 3.3 1.5 0.5 0.3 1.7 0.02 0 1.7 0.02 0 0 0 0 0 0 0 0 0 0 1.2 0 0.05
29.785 1.37 -4.45 -54.61 -16.12 -8.88 -6.56 0 0 53 2 -2 0 0 0 40 10.87 2.97 -9.76 1405 0.5 0 3.3 0.5 0.03 3.3 1.5 0.5 0.3 1.7 0.02 0 1.7 0.02 0 0 0 0 0 0 0 0 0 0 1.2 0 0.05
29.885 -0.03 -5.41 -55.56 8.88 1.5 -12.44 0 0 54 2 -2 0 0 0 40 -9.81 -4.95 -8.07 1405 0.5 0 3.3 0.5 0.03 3.3 1.5 0.5 0.3 1.7 0.02 0 1.7 0.02 0 0 0 0 0 0 0 0 0 0 1.2 0 0.05
29.985 0.1 -5.42 -56.49 14.88 4.31 -7.25 0 0 54 2 -2 0 0 0 40 -0.59 -0.12 -10.4 1406 0.5 0 3.3 0.5 0.03 3.3 1.5 0.5 0.3 1.7 0.02 0 1.7 0.02 0 0 0 0 0 0 0 0 0 0 1.2 0 0.05
30.085 0.26 -5.88 -57.41 -14.25 -7.69 2.19 0 0 53 2 -2 0 0 0 40 5.99 4.61 -13.66 1405 0.5 0 3.3 0.5 0.03 3.3 1.5 0.5 0.3 1.7 0.02 0 1.7 0.02 0 0 0 0 0 0 0 0 0 0 1.2 0 0.05
30.185 -0.09 -6.31 -58.33 -14.06 -3.5 4.5 0 0 53 2 -2 0 0 0 40 7.75 -7.64 -7.07 1405 0.5 0 3.3 0.5 0.03 3.3 1.5 0.5 0.3 1.7 0.02 0 1.7 0.02 0 0 0 0 0 0 0 0 0 0 1.2 0 0.05
30.285 -0.05 -5.19 -59.29 9.06 11.94 -8.06 0 0 52 2 -2 0 0 0 40 -24.27 -16.32 -2.73 1405 0.5 0 3.3 0.5 0.03 3.3 1.5 0.5 0.3 1.7 0.02 0 1.7 0.02 0 0 0 0 0 0 0 0 0 0 1.2 0 0.05
30.385 0.64 -3.68 -60.25 10.31 15.88 -16.81 0 0 52 2 -2 0 0 0 40 -4.86 -8.74 -2.92 1405 0.5 0 3.3 0.5 0.03 3.3 1.5 0.5 0.3 1.7 0.02 0 1.7 0.02 0 0 0 0 0 0 0 0 0 0 1.2 0 0.05
30.485 1.76 -2.97 -61.13 26.5 9.19 -13.31 0 0 51 2 -2 0 0 0 40 -10.46 -11.1 -7.89 1405 0.5 0 3.3 0.5 0.03 3.3 1.5 0.5 0.3 1.7 0.02 0 1.7 0.02 0 0 0 0 0 0 0 0 0 0 1.2 0 0.05
30.585 1.99 -4.15 -61.91 -25.37 -15.06 -10.31 0 0 50 2 -2 0 0 0 40 1.8 8.23 -9.56 1405 0.5 0 3.3 0.5 0.03 3.3 1.5 0.5 0.3 1.7 0.02 0 1.7 0.02 0 0 0 0 0 0 0 0 0 0 1.2 0 0.05
30.685 1.47 -5.53 -62.67 -7.56 -5.37 -13.56 0 0 50 2 -2 0 0 0 40 -6.87 -1.9 -10.47 1406 0.5 0 3.3 0.5 0.03 3.3 1.5 0.5 0.3 1.7 0.02 0 1.7 0.02 0 0 0 0 0 0 0 0 0 0 1.2 0 0.05
30.785 1.75 -5.05 -63.49 14.38 16.69 -16.37 0 0 50 2 -1 0 0 0 40 -16.24 -14.4 -11.21 1405 0.5 0 3.3 0.5 0.03 3.3 1.5 0.5 0.3 1.7 0.02 0 1.7 0.02 0 0 0 0 0 0 0 0 0 0 1.2 0 0.05
30.885 2.43 -3.58 -64.26 4.75 10.81 -5.62 0 0 48 2 -1 0 0 0 40 3.12 8.31 -17.57 1405 0.5 0 3.3 0.5 0.03 3.3 1.5 0.5 0.3 1.7 0.02 0 1.7 0.02 0 0 0 0 0 0 0 0 0 0 1.2 0 0.05
30.985 1.83 -4.08 -64.97 -32.13 -23 -13.19 0 0 49 2 -1 0 0 0 40 12.97 14.72 -8.54 1405 0.5 0 3.3 0.5 0.03 3.3 1.5 0.5 0.3 1.7 0.02 0 1.7 0.02 0 0 0 0 0 0 0 0 0 0 1.2 0 0.05
31.085 0.64 -6.35 -65.87 -16.19 -26.75 -19.62 0 0 49 2 -1 0 0 0 40 8.27 15.42 -3.12 1406 0.5 0 3.3 0.5 0.03 3.3 1.5 0.5 0.3 1.7 0.02 0 1.7 0.02 0 0 0 0 0 0 0 0 0 0 1.2 0 0.05
31.185 0.93 -7.02 -66.8 8.88 12.13 -1.56 0 0 47 2 -1 0 0 0 40 -4.82 -6.22 -8.1 1404 0.5 0 3.3 0.5 0.03 3.3 1.5 0.5 0.3 1.7 0.02 0 1.7 0.02 0 0 0 0 0 0 0 0 0 0 1.2 0 0.05
31.285 2.55 -5.02 -67.52 4.19 28.44 -9.56 0 0 49 2 -1 0 0 0 40 -2.78 -10.41 -9.79 1406 0.5 0 3.3 0.5 0.03 3.3 1.5 0.5 0.3 1.7 0.02 0 1.7 0.02 0 0 0 0 0 0 0 0 0 0 1.2 0 0.05
31.385 4.3 -3.52 -68.08 12.56 8.75 -18.37 0 0 48 2 -2 0 0 0 40 -19.94 -4.03 -4.15 1405 0.5 0 3.3 0.5 0.03 3.3 1.5 0.5 0.3 1.7 0.02 0 1.7 0.02 0 0 0 0 0 0 0 0 0 0 1.2 0 0.05
31.485 5.01 -4.72 -68.96 18.87 -9.88 -13.06 0 0 48 2 -2 0 0 0 40 0.76 12.35 -5.31 1405 0.5 0 3.3 0.5 0.03 3.3 1.5 0.5 0.3 1.7 0.02 0 1.7 0.02 0 0 0 0 0 0 0 0 0 0 1.2 0 0.05
31.585 3.92 -6.94 -69.92 -26.87 -10.63 -8.38 0 0 49 2 -2 0 0 0 40 20.92 5.45 -5.81 1405 0.5 0 3.3 0.5 0.03 3.3 1.5 0.5 0.3 1.7 0.02 0 1.7 0.02 0 0 0 0 0 0 0 0 0 0 1.2 0 0.05
31.685 3.15 -7 -70.61 10.5 15.44 -11.75 0 0 49 2 -2 0 0 0 40 -15.07 -0.68 -12.36 1406 0.5 0 3.3 0.5 0.03 3.3 1.5 0.5 0.3 1.7 0.02 0 1.7 0.02 0 0 0 0 0 0 0 0 0 0 1.2 0 0.05
31.785 4.26 -5.7 -71.15 26 22.69 -17.94 0 0 49 2 -2 0 0 0 40 -11.11 -6.45 -4.55 1405 0.5 0 3.3 0.5 0.03 3.3 1.5 0.5 0.3 1.7 0.02 0 1.7 0.02 0 0 0 0 0 0 0 0 0 0 1.2 0 0.05
31.885 4.9 -5.04 -71.71 2 9.88 -17.5 0 0 47 2 -2 0 0 0 40 6.81 3.92 -3.05 1406 0.5 0 3.3 0.5 0.03 3.3 1.5 0.5 0.3 1.7 0.02 0 1.7 0.02 0 0 0 0 0 0 0 0 0 0 1.2 0 0.05
31.985 3.14 -6.12 -72.44 -34.38 -27.31 1.37 0 0 48 2 -2 0 0 0 40 10.62 9 -9 1406 0.5 0 3.3 0.5 0.03 3.3 1.5 0.5 0.3 1.7 0.02 0 1.7 0.02 0 0 0 0 0 0 0 0 0 0 1.2 0 0.05
32.085 1.54 -6.99 -73.14 -20.56 -11.63 2.44 0 0 49 2 -1 0 0 0 40 7.41 1.23 -10.63 1406 0.5 0 3.3 0.5 0.03 3.3 1.5 0.5 0.3 1.7 0.02 0 1.7 0.02 0 0 0 0 0 0 0 0 0 0 1.2 0 0.05
32.185 1.42 -6.49 -73.87 -1.12 8 7.94 0 0 47 2 -1 0 0 0 40 -4.43 -5.07 -5.09 1407 0.5 0 3.3 0.5 0.03 3.3 1.5 0.5 0.3 1.7 0.02 0 1.7 0.02 0 0 0 0 0 0 0 0 0 0 1.2 0 0.05
32.285 2.48 -5.65 -74.56 -0.37 3.94 -3.69 0 0 49 2 -1 0 0 0 40 -1.44 -1.85 -5.78 1406 0.5 0 3.3 0.5 0.03 3.3 1.5 0.5 0.3 1.7 0.02 0 1.7 0.02 0 0 0 0 0 0 0 0 0 0 1.2 0 0.05
32.385 3.02 -5.54 -75.2 23.31 7.75 -10.44 0 0 47 2 0 0 0 0 40 -17.15 -1.02 -5.73 1407 0.5 0 3.3 0.5 0.03 3.3 1.5 0.5 0.3 1.7 0.02 0 1.7 0.02 0 0 0 0 0 0 0 0 0 0 1.2 0 0.05
32.485 2.57 -5.61 -75.79 2.44 4.62 -6.19 0 0 48 2 0 0 0 0 40 12.05 11.76 -12.31 1406 0.5 0 3.3 0.5 0.03 3.3 1.5 0.5 0.3 1.7 0.02 0 1.7 0.02 0 0 0 0 0 0 0 0 0 0 1.2 0 0.05
32.585 1.68 -5.33 -76.3 -11.31 -2.06 -0.81 0 0 47 2 1 0 0 0 40 3.83 11.35 -12.97 1405 0.5 0 3.3 0.5 0.03 3.3 1.5 0.5 0.3 1.7 0.02 0 1.7 0.02 0 0 0 0 0 0 0 0 0 0 1.2 0 0.05
32.685 1.05 -3.98 -76.79 -8.44 18.19 -1.06 0 0 47 1 1 0 0 0 40 -3.56 -14.87 -9.58 1405 0.5 0 3.3 0.5 0.03 3.3 1.5 0.5 0.3 1.7 0.02 0 1.7 0.02 0 0 0 0 0 0 0 0 0 0 1.2 0 0.05
32.785 0.32 -1.1 -77.21 -15 23.31 3.06 0 0 46 2 1 0 0 0 40 7.33 -14.72 -9.74 1405 0.5 0 3.3 0.5 0.03 3.3 1.5 0.5 0.3 1.7 0.02 0 1.7 0.02 0 0 0 0 0 0 0 0 0 0 1.2 0 0.05
32.885 -0.08 0.09 -77.7 3.62 5.62 -12.31 0 0 45 2 1 0 0 0 40 -7.86 1.29 -7.24 1405 0.5 0 3.3 0.5 0.03 3.3 1.5 0.5 0.3 1.7 0.02 0 1.7 0.02 0 0 0 0 0 0 0 0 0 0 1.2 0 0.05
32.985 0.65 -1.45 -78.16 25.19 -19 2.87 0 0 45 2 1 0 0 0 40 -3.35 12.15 -9.83 1404 0.5 0 3.3 0.5 0.03 3.3 1.5 0.5 0.3 1.7 0.02 0 1.7 0.02 0 0 0 0 0 0 0 0 0 0 1.2 0 0.05
33.085 1.6 -3.44 -78.59 7.44 -15.13 4.56 0 0 46 2 1 0 0 0 40 -3.26 2.97 -11.09 1405 0.5 0 3.3 0.5 0.03 3.3 1.5 0.5 0.3 1.7 0.02 0 1.7 0.02 0 0 0 0 0 0 0 0 0 0 1.2 0 0.05
33.185 1.66 -2.72 -78.99 -12.94 29.31 -2.69 0 0 45 2 1 0 0 0 40 5.9 -14.86 -9.71 1405 0.5 0 3.3 0.5 0.03 3.3 1.5 0.5 0.3 1.7 0.02 0 1.7 0.02 0 0 0 0 0 0 0 0 0 0 1.2 0 0.05
33.285 0.54 0.19 -79.35 -20.94 29.87 -10.38 0 0 45 2 1 0 0 0 40 7.64 -12.4 -8.89 1405 0.5 0 3.3 0.5 0.03 3.3 1.5 0.5 0.3 1.7 0.02 0 1.7 0.02 0 0 0 0 0 0 0 0 0 0 1.2 0 0.05
33.385 -0.16 1.37 -79.75 9.44 3.62 -4.69 0 0 41 2 1 0 0 0 40 -13.24 -11.39 -6.19 1405 0.5 0 3.3 0.5 0.03 3.3 1.5 0.5 0.3 1.7 0.02 0 1.7 0.02 0 0 0 0 0 0 0 0 0 0 1.2 0 0.05
33.485 0.57 -0.63 -80.17 27.06 -19.69 -7.87 0 0 42 2 1 0 0 0 40 -3.85 11.74 -7.88 1406 0.5 0 3.3 0.5 0.03 3.3 1.5 0.5 0.3 1.7 0.02 0 1.7 0.02 0 0 0 0 0 0 0 0 0 0 1.2 0 0.05
33.585 0.92 -2.22 -80.55 0.44 7.06 -20.62 0 0 44 2 1 0 0 0 40 5.71 -7.79 -3.89 1406 0.5 0 3.3 0.5 0.03 3.3 1.5 0.5 0.3 1.7 0.02 0 1.7 0.02 0 0 0 0 0 0 0 0 0 0 1.2 0 0.05
33.685 0.54 -0.74 -80.78 -5.69 18.56 6.87 0 0 40 2 1 0 0 0 40 16.22 -9.71 -13.19 1405 0.5 0 3.3 0.5 0.03 3.3 1.5 0.5 0.3 1.7 0.02 0 1.7 0.02 0 0 0 0 0 0 0 0 0 0 1.2 0 0.05
33.785 0.58 1.31 -81.02 2.87 5.12 12.06 0 0 39 2 1 0 0 0 40 -9.54 -7.94 -11.16 1405 0.5 0 3.3 0.5 0.03 3.3 1.5 0.5 0.3 1.7 0.02 0 1.7 0.02 0 0 0 0 0 0 0 0 0 0 1.2 0 0.05
33.885 1.89 0.93 -81.11 -5.44 -10.63 2.44 0 0 40 2 1 0 0 0 40 -6.55 9.54 -14.68 1405 0.5 0 3.3 0.5 0.03 3.3 1.5 0.5 0.3 1.7 0.02 0 1.7 0.02 0 0 0 0 0 0 0 0 0 0 1.2 0 0.05
33.985 2.86 -0.79 -81.23 21.19 3.37 -4.75 0 0 38 2 2 0 0 0 40 -8.67 -4.54 -15.71 1406 0.5 0 3.3 0.5 0.03 3.3 1.5 0.5 0.3 1.7 0.02 0 1.7 0.02 0 0 0 0 0 0 0 0 0 0 1.2 0 0.05
34.085 2.6 -1.09 -81.42 -6.75 18.44 -8.69 0 0 39 1 1 0 0 0 40 5.26 -5.29 -10.51 1406 0.5 0 3.3 0.5 0.03 3.3 1.5 0.5 0.3 1.7 0.02 0 1.7 0.02 0 0 0 0 0 0 0 0 0 0 1.2 0 0.05
34.186 0.71 -0.68 -81.57 -37.25 5.87 -0.06 0 0 36 2 1 0 0 0 40 21.99 -0.67 -14.9 1406 0.5 0 3.3 0.5 0.03 3.3 1.5 0.5 0.3 1.7 0.02 0 1.7 0.02 0 0 0 0 0 0 0 0 0 0 1.2 0 0.05
34.285 -0.93 -0.99 -81.74 -1.25 -5.56 -7.12 0 0 36 2 1 0 0 0 40 2.83 5.78 -13.71 1406 0.5 0 3.3 0.5 0.03 3.3 1.5 0.5 0.3 1.7 0.02 0 1.7 0.02 0 0 0 0 0 0 0 0 0 0 1.2 0 0.05
34.385 -0.12 -1.33 -81.98 17.5 -5.75 -2.12 0 0 37 2 1 0 0 0 40 -9.89 -1.97 -13.55 1407 0.5 0 3.3 0.5 0.03 3.3 1.5 0.5 0.3 1.7 0.02 0 1.7 0.02 0 0 0 0 0 0 0 0 0 0 1.2 0 0.05
34.485 1.71 -1.27 -82.27 33.06 5.44 -12 0 0 35 2 1 0 0 0 40 -7.8 -4.23 -9.18 1407 0.5 0 3.3 0.5 0.03 3.3 1.5 0.5 0.3 1.7 0.02 0 1.7 0.02 0 0 0 0 0 0 0 0 0 0 1.2 0 0.05
34.586 2.63 -0.77 -82.44 -10.44 -6.94 7.19 0 0 34 2 1 0 0 0 42 3.27 -5.03 -14.89 1422 0.5 0 3.3 0.5 0.03 3.3 1.5 0.5 0.3 1.7 0.02 0 1.7 0.02 0 0 0 0 0 0 0 0 0 0 1.2 0 0.05
34.685 2.81 -0.46 -82.44 15.75 -0.69 -8.56 0 0 33 2 1 0 0 0 42 -8.83 -5.05 -14.65 1420 0.5 0 3.3 0.5 0.03 3.3 1.5 0.5 0.3 1.7 0.02 0 1.7 0.02 0 0 0 0 0 0 0 0 0 0 1.2 0 0.05
34.785 3.08 -0.8 -82.57 -13 -6.25 -0.31 0 0 32 2 1 0 0 0 42 5.81 -6.34 -16.17 1420 0.5 0 3.3 0.5 0.03 3.3 1.5 0.5 0.3 1.7 0.02 0 1.7 0.02 0 0 0 0 0 0 0 0 0 0 1.2 0 0.05
34.885 3.15 -0.8 -82.7 10.38 13.5 -9.56 0 0 33 2 1 0 0 0 42 2.23 10.7 -20.45 1420 0.5 0 3.3 0.5 0.03 3.3 1.5 0.5 0.3 1.7 0.02 0 1.7 0.02 0 0 0 0 0 0 0 0 0 0 1.2 0 0.05
34.985 3.3 -0.75 -82.78 16.56 3.75 -0.25 0 0 33 2 1 0 0 0 42 -39.99 -17.34 -12.7 1420 0.5 0 3.3 0.5 0.03 3.3 1.5 0.5 0.3 1.7 0.02 0 1.7 0.02 0 0 0 0 0 0 0 0 0 0 1.2 0 0.05
35.085 3.88 -0.85 -82.94 -3.06 -4.62 11.06 0 0 33 2 1 0 0 0 42 -5.32 -2.22 -18.5 1420 0.5 0 3.3 0.5 0.03 3.3 1.5 0.5 0.3 1.7 0.02 0 1.7 0.02 0 0 0 0 0 0 0 0 0 0 1.2 0 0.05
35.185 4.57 -0.23 -83.02 18.19 8.81 4.25 0 0 31 2 1 0 0 0 42 -40.2 -21.33 -14.44 1420 0.5 0 3.3 0.5 0.03 3.3 1.5 0.5 0.3 1.7 0.02 0 1.7 0.02 0 0 0 0 0 0 0 0 0 0 1.2 0 0.05
35.285 4.6 0.52 -83.22 -23.62 -10.31 15.75 0 0 30 2 1 0 0 0 41 16.34 3.89 -21.6 1419 0.5 0 3.3 0.5 0.03 3.3 1.5 0.5 0.3 1.7 0.02 0 1.7 0.02 0 0 0 0 0 0 0 0 0 0 1.2 0 0.05
35.386 3.05 0.46 -83.58 -23.94 -1.62 -5.94 0 0 33 2 1 0 0 0 41 44.72 9.66 -13.4 1419 0.5 0 3.3 0.5 0.03 3.3 1.5 0.5 0.3 1.7 0.02 0 1.7 0.02 0 0 0 0 0 0 0 0 0 0 1.2 0 0.05
35.485 2.16 -0.31 -83.89 13.81 -3.94 -11.38 0 0 34 2 2 0 0 0 41 -11.31 0.34 -10.02 1419 0.5 0 3.3 0.5 0.03 3.3 1.5 0.5 0.3 1.7 0.02 0 1.7 0.02 0 0 0 0 0 0 0 0 0 0 1.2 0 0.05
35.585 3.97 0.02 -84.13 22.87 9.56 -8.38 0 0 34 2 1 0 0 0 42 5.38 2.76 -16.33 1420 0.5 0 3.3 0.5 0.03 3.3 1.5 0.5 0.3 1.7 0.02 0 1.7 0.02 0 0 0 0 0 0 0 0 0 0 1.2 0 0.05
35.685 6.13 0.77 -84.25 1.87 -1.25 -3.44 0 0 35 1 1 0 0 0 42 -33.61 3.58 -15.58 1420 0.5 0 3.3 0.5 0.03 3.3 1.5 0.5 0.3 1.7 0.02 0 1.7 0.02 0 0 0 0 0 0 0 0 0 0 1.2 0 0.05
35.786 6.36 0.41 -84.31 -34.56 -36.38 10 0 0 36 2 1 0 0 0 42 41.02 38.54 -16.64 1420 0.5 0 3.3 0.5 0.03 3.3 1.5 0.5 0.3 1.7 0.02 0 1.7 0.02 0 0 0 0 0 0 0 0 0 0 1.2 0 0.05
35.885 3.68 -0.68 -84.62 -50 -1 -7.25 0 0 38 2 1 0 0 0 41 24.19 7 -14.01 1419 0.5 0 3.3 0.5 0.03 3.3 1.5 0.5 0.3 1.7 0.02 0 1.7 0.02 0 0 0 0 0 0 0 0 0 0 1.2 0 0.05
