time roll pitch yaw roll_d pitch_d yaw_d longitude latitude height roll_t pitch_t yaw_t longitude_t latitude_t height_t roll_signal pitch_signal yaw_signal throttle Kp_r_d Ki_r_d Kd_r_d Kp_p_d Ki_p_d Kd_p_d Kp_y_d Ki_y_d Kd_y_d Kp_r Ki_r Kd_r Kp_p Ki_p Kd_p Kp_y Ki_y Kd_y Kp_lon Ki_lon Kd_lon Kp_lat Ki_lat Kd_lat Kp_h Ki_h Kd_h
0 0 0 0 0 0 0 0 0 0 0 0 0 0 0 25 0 0 0 1250 0.5 0.1 0.3 0.5 0.1 0.3 1.5 0.5 0.3 1.7 0 0 1.7 0 0 0 0 0 0 0 0 0 0 0 1.5 0 0.11
0 0 0 0 0 0 0 0 0 0 0 0 0 0 0 25 0 0 0 1250 0.5 0.1 0.3 0.5 0.1 0.3 1.5 0.5 0.3 1.7 0 0 1.7 0 0 0 0 0 0 0 0 0 0 0 1.5 0 0.11
0 0 0 0 0 0 0 0 0 0 0 0 0 0 0 25 0 0 0 1250 0.5 0.1 0.3 0.5 0.1 0.3 1.5 0.5 0.3 1.7 0 0 1.7 0 0 0 0 0 0 0 0 0 0 0 1.5 0 0.11
0 0 0 0 0 0 0 0 0 0 0 0 0 0 0 25 0 0 0 1250 0.5 0.1 0.3 0.5 0.1 0.3 1.5 0.5 0.3 1.7 0 0 1.7 0 0 0 0 0 0 0 0 0 0 0 1.5 0 0.11
0 0 0 0 0 0 0 0 0 0 0 0 0 0 0 25 0 0 0 1250 0.5 0.1 0.3 0.5 0.1 0.3 1.5 0.5 0.3 1.7 0 0 1.7 0 0 0 0 0 0 0 0 0 0 0 1.5 0 0.11
0 0 0 0 0 0 0 0 0 0 0 0 0 0 0 25 0 0 0 1250 0.5 0.1 0.3 0.5 0.1 0.3 1.5 0.5 0.3 1.7 0 0 1.7 0 0 0 0 0 0 0 0 0 0 0 1.5 0 0.11
0 0 0 0 0 0 0 0 0 0 0 0 0 0 0 25 0 0 0 1250 0.5 0.1 0.3 0.5 0.1 0.3 1.5 0.5 0.3 1.7 0 0 1.7 0 0 0 0 0 0 0 0 0 0 0 1.5 0 0.11
0 0 0 0 0 0 0 0 0 0 0 0 0 0 0 25 0 0 0 1250 0.5 0.1 0.3 0.5 0.1 0.3 1.5 0.5 0.3 1.7 0 0 1.7 0 0 0 0 0 0 0 0 0 0 0 1.5 0 0.11
0 0 0 0 0 0 0 0 0 0 0 0 0 0 0 25 0 0 0 1250 0.5 0.1 0.3 0.5 0.1 0.3 1.5 0.5 0.3 1.7 0 0 1.7 0 0 0 0 0 0 0 0 0 0 0 1.5 0 0.11
0 0 0 0 0 0 0 0 0 0 0 0 0 0 0 25 0 0 0 1250 0.5 0.1 0.3 0.5 0.1 0.3 1.5 0.5 0.3 1.7 0 0 1.7 0 0 0 0 0 0 0 0 0 0 0 1.5 0 0.11
6.075 1.1 2.2 3.3 4.4 5.5 6.6 0 0 19 0 0 0 0 0 25 0 0 0 1250 0.5 0.1 0.3 0.5 0.1 0.3 1.5 0.5 0.3 1.7 0 0 1.7 0 0 0 0 0 0 0 0 0 0 0 1.5 0 0.11
6.194 1.33 0.73 -10.7 -2.75 -0.75 -0.13 0 0 20 2 0 0 0 0 22 2.78 -2.43 -7.89 1220 0.5 0.1 0.3 0.5 0.1 0.3 1.5 0.5 0.3 1.7 0 0 1.7 0 0 0 0 0 0 0 0 0 0 0 1.5 0 0.11
6.326 1.32 0.71 -10.89 1.06 0.69 1.81 0 0 19 2 0 0 0 0 22 -1.26 -0.69 -7.47 1221 0.5 0.1 0.3 0.5 0.1 0.3 1.5 0.5 0.3 1.7 0 0 1.7 0 0 0 0 0 0 0 0 0 0 0 1.5 0 0.11
6.426 1.3 0.73 -11.05 -1.37 1.19 0.19 0 0 19 2 0 0 0 0 22 3.71 -2.23 -7.94 1222 0.5 0.1 0.3 0.5 0.1 0.3 1.5 0.5 0.3 1.7 0 0 1.7 0 0 0 0 0 0 0 0 0 0 0 1.5 0 0.11
6.526 1.29 0.74 -11.15 -0.81 0.69 0.25 0 0 21 2 0 0 0 0 22 -0.14 -0.63 -8.19 1221 0.5 0.1 0.3 0.5 0.1 0.3 1.5 0.5 0.3 1.7 0 0 1.7 0 0 0 0 0 0 0 0 0 0 0 1.5 0 0.11
6.626 1.3 0.73 -11.24 -0.13 -0.06 -0.19 0 0 19 2 0 0 0 0 22 -0.19 -0.15 -8.48 1222 0.5 0.1 0.3 0.5 0.1 0.3 1.5 0.5 0.3 1.7 0 0 1.7 0 0 0 0 0 0 0 0 0 0 0 1.5 0 0.11
6.726 1.31 0.74 -11.44 1.37 0 0.37 0 0 18 1 0 0 0 0 22 -2.31 -0.67 -9.4 1223 0.5 0.1 0.3 0.5 0.1 0.3 1.5 0.5 0.3 1.7 0 0 1.7 0 0 0 0 0 0 0 0 0 0 0 1.5 0 0.11
6.826 1.31 0.75 -11.55 0 0 1.44 0 0 18 2 0 0 0 0 22 0.61 -0.61 -10.22 1221 0.5 0.1 0.3 0.5 0.1 0.3 1.5 0.5 0.3 1.7 0 0 1.7 0 0 0 0 0 0 0 0 0 0 0 1.5 0 0.11
6.926 1.3 0.74 -11.69 -0.31 0.31 1 0 0 18 2 1 0 0 0 22 1.32 -0.11 -10.85 1220 0.5 0.1 0.3 0.5 0.1 0.3 1.5 0.5 0.3 1.7 0 0 1.7 0 0 0 0 0 0 0 0 0 0 0 1.5 0 0.11
7.026 1.31 0.74 -11.79 0.13 0.88 -0.5 0 0 19 2 0 0 0 0 22 0.37 -1.66 -8.45 1221 0.5 0.1 0.3 0.5 0.1 0.3 1.5 0.5 0.3 1.7 0 0 1.7 0 0 0 0 0 0 0 0 0 0 0 1.5 0 0.11
7.126 1.3 0.75 -11.99 1.69 0.31 1.62 0 0 19 2 0 0 0 0 22 -0.84 -2.27 -11.49 1221 0.5 0.1 0.3 0.5 0.1 0.3 1.5 0.5 0.3 1.7 0 0 1.7 0 0 0 0 0 0 0 0 0 0 0 1.5 0 0.11
7.226 1.31 0.75 -12.05 0.31 0.75 1.25 0 0 19 2 0 0 0 0 22 0.27 -2 -10.62 1223 0.5 0.1 0.3 0.5 0.1 0.3 1.5 0.5 0.3 1.7 0 0 1.7 0 0 0 0 0 0 0 0 0 0 0 1.5 0 0.11
7.326 1.32 0.76 -12.21 -0.37 0.56 1.25 0 0 19 2 0 0 0 0 22 0.71 -1.67 -12.1 1221 0.5 0.1 0.3 0.5 0.1 0.3 1.5 0.5 0.3 1.7 0 0 1.7 0 0 0 0 0 0 0 0 0 0 0 1.5 0 0.11
7.426 1.32 0.76 -12.3 0 0.31 0.31 0 0 19 2 0 0 0 0 22 1.15 -1.01 -11.44 1223 0.5 0.1 0.3 0.5 0.1 0.3 1.5 0.5 0.3 1.7 0 0 1.7 0 0 0 0 0 0 0 0 0 0 0 1.5 0 0.11
7.526 1.32 0.76 -12.47 0.19 0.06 1.25 0 0 19 1 0 0 0 0 22 -6.58 -0.46 -12.93 1221 0.5 0.1 0.3 0.5 0.1 0.3 1.5 0.5 0.3 1.7 0 0 1.7 0 0 0 0 0 0 0 0 0 0 0 1.5 0 0.11
7.626 1.32 0.75 -12.55 -0.13 0.19 0.81 0 0 19 2 0 0 0 0 22 0.68 -0.83 -12.79 1222 0.5 0.1 0.3 0.5 0.1 0.3 1.5 0.5 0.3 1.7 0 0 1.7 0 0 0 0 0 0 0 0 0 0 0 1.5 0 0.11
7.726 1.32 0.75 -12.71 -0.06 0.31 1.12 0 0 19 2 0 0 0 0 22 0.58 -0.3 -13.22 1222 0.5 0.1 0.3 0.5 0.1 0.3 1.5 0.5 0.3 1.7 0 0 1.7 0 0 0 0 0 0 0 0 0 0 0 1.5 0 0.11
7.826 1.32 0.75 -12.78 0 0.31 0.94 0 0 19 1 0 0 0 0 22 -0.32 -1.17 -13.72 1220 0.5 0.1 0.3 0.5 0.1 0.3 1.5 0.5 0.3 1.7 0 0 1.7 0 0 0 0 0 0 0 0 0 0 0 1.5 0 0.11
7.926 1.32 0.75 -12.96 0 0.25 1.19 0 0 19 2 0 0 0 0 22 0.59 -1.02 -14.26 1220 0.5 0.1 0.3 0.5 0.1 0.3 1.5 0.5 0.3 1.7 0 0 1.7 0 0 0 0 0 0 0 0 0 0 0 1.5 0 0.11
8.026 1.32 0.76 -13.05 0.13 0.19 0.94 0 0 19 2 0 0 0 0 22 6.05 -0.89 -14.53 1220 0.5 0.1 0.3 0.5 0.1 0.3 1.5 0.5 0.3 1.7 0 0 1.7 0 0 0 0 0 0 0 0 0 0 0 1.5 0 0.11
8.126 1.32 0.75 -13.15 0 0.25 1.12 0 0 19 2 0 0 0 0 22 0.59 -0.92 -15.03 1222 0.5 0.1 0.3 0.5 0.1 0.3 1.5 0.5 0.3 1.7 0 0 1.7 0 0 0 0 0 0 0 0 0 0 0 1.5 0 0.11
8.226 1.32 0.75 -13.29 0 0.31 1 0 0 19 2 0 0 0 0 22 0.61 -1.02 -15.23 1221 0.5 0.1 0.3 0.5 0.1 0.3 1.5 0.5 0.3 1.7 0 0 1.7 0 0 0 0 0 0 0 0 0 0 0 1.5 0 0.11
8.326 1.33 0.75 -13.35 0 0.31 1.06 0 0 20 2 0 0 0 0 22 0.59 -0.95 -15.71 1221 0.5 0.1 0.3 0.5 0.1 0.3 1.5 0.5 0.3 1.7 0 0 1.7 0 0 0 0 0 0 0 0 0 0 0 1.5 0 0.11
8.426 1.33 0.75 -13.48 0 0.31 0.94 0 0 19 2 0 0 0 0 22 0.64 -1.1 -14.5 1221 0.5 0.1 0.3 0.5 0.1 0.3 1.5 0.5 0.3 1.7 0 0 1.7 0 0 0 0 0 0 0 0 0 0 0 1.5 0 0.11
8.526 1.33 0.75 -13.56 0 0.25 1 0 0 19 2 0 0 0 0 22 0.59 -6.55 -14.95 1223 0.5 0.1 0.3 0.5 0.1 0.3 1.5 0.5 0.3 1.7 0 0 1.7 0 0 0 0 0 0 0 0 0 0 0 1.5 0 0.11
8.626 1.33 0.75 -13.73 0.06 0.25 1 0 0 20 2 0 0 0 0 22 0.49 -1.03 -16.9 1220 0.5 0.1 0.3 0.5 0.1 0.3 1.5 0.5 0.3 1.7 0 0 1.7 0 0 0 0 0 0 0 0 0 0 0 1.5 0 0.11
8.726 1.33 0.75 -13.82 0 0.31 1.06 0 0 19 2 0 0 0 0 22 0.6 -0.99 -15.51 1222 0.5 0.1 0.3 0.5 0.1 0.3 1.5 0.5 0.3 1.7 0 0 1.7 0 0 0 0 0 0 0 0 0 0 0 1.5 0 0.11
8.826 1.33 0.76 -13.97 0 0.31 1 0 0 20 2 0 0 0 0 22 0.53 -1.13 -16.11 1221 0.5 0.1 0.3 0.5 0.1 0.3 1.5 0.5 0.3 1.7 0 0 1.7 0 0 0 0 0 0 0 0 0 0 0 1.5 0 0.11
8.926 1.33 0.76 -14.04 0 0.25 1.06 0 0 19 2 0 0 0 0 22 0.6 -1.07 -18.11 1220 0.5 0.1 0.3 0.5 0.1 0.3 1.5 0.5 0.3 1.7 0 0 1.7 0 0 0 0 0 0 0 0 0 0 0 1.5 0 0.11
9.026 1.34 0.76 -14.18 0 0.25 0.94 0 0 19 2 0 0 0 0 22 0.59 -1.08 -18.28 1220 0.5 0.1 0.3 0.5 0.1 0.3 1.5 0.5 0.3 1.7 0 0 1.7 0 0 0 0 0 0 0 0 0 0 0 1.5 0 0.11
9.126 1.34 0.76 -14.25 0.13 0.25 0.94 0 0 19 1 0 0 0 0 22 -0.54 -0.93 -18.7 1223 0.5 0.1 0.3 0.5 0.1 0.3 1.5 0.5 0.3 1.7 0 0 1.7 0 0 0 0 0 0 0 0 0 0 0 1.5 0 0.11
9.226 1.34 0.76 -14.41 0 0.13 0.94 0 0 20 1 0 0 0 0 22 0.59 -0.85 -19.38 1223 0.5 0.1 0.3 0.5 0.1 0.3 1.5 0.5 0.3 1.7 0 0 1.7 0 0 0 0 0 0 0 0 0 0 0 1.5 0 0.11
9.326 1.34 0.76 -14.47 0 0.19 1 0 0 19 2 0 0 0 0 22 0.52 -0.94 -19.45 1220 0.5 0.1 0.3 0.5 0.1 0.3 1.5 0.5 0.3 1.7 0 0 1.7 0 0 0 0 0 0 0 0 0 0 0 1.5 0 0.11
9.426 1.34 0.76 -14.59 0 0.31 1 0 0 20 2 0 0 0 0 22 0.6 -1.09 -18.31 1220 0.5 0.1 0.3 0.5 0.1 0.3 1.5 0.5 0.3 1.7 0 0 1.7 0 0 0 0 0 0 0 0 0 0 0 1.5 0 0.11
9.526 1.34 0.76 -14.63 0 0.19 1 0 0 19 2 0 0 0 0 22 0.59 -1.04 -18.78 1224 0.5 0.1 0.3 0.5 0.1 0.3 1.5 0.5 0.3 1.7 0 0 1.7 0 0 0 0 0 0 0 0 0 0 0 1.5 0 0.11
9.626 1.34 0.76 -14.72 0 0.19 1 0 0 22 2 0 0 0 0 21 0.59 -0.96 -19.03 1219 0.5 0.1 0.3 0.5 0.1 0.3 1.5 0.5 0.3 1.7 0 0 1.7 0 0 0 0 0 0 0 0 0 0 0 1.5 0 0.11
9.726 1.34 0.76 -14.88 0 0.25 0.94 0 0 19 2 0 0 0 0 22 0.59 -1.11 -19.32 1220 0.5 0.1 0.3 0.5 0.1 0.3 1.5 0.5 0.3 1.7 0 0 1.7 0 0 0 0 0 0 0 0 0 0 0 1.5 0 0.11
9.826 1.34 0.76 -14.94 -0.06 0.25 1 0 0 19 2 0 0 0 0 22 0.68 -1.05 -21.3 1223 0.5 0.1 0.3 0.5 0.1 0.3 1.5 0.5 0.3 1.7 0 0 1.7 0 0 0 0 0 0 0 0 0 0 0 1.5 0 0.11
9.926 1.34 0.76 -15.11 0 0.25 1.06 0 0 19 2 0 0 0 0 22 0.56 -1.06 -21.77 1221 0.5 0.1 0.3 0.5 0.1 0.3 1.5 0.5 0.3 1.7 0 0 1.7 0 0 0 0 0 0 0 0 0 0 0 1.5 0 0.11
10.026 1.34 0.76 -15.18 0 0.19 1.06 0 0 19 2 0 0 0 0 22 0.61 -1.05 -22.18 1221 0.5 0.1 0.3 0.5 0.1 0.3 1.5 0.5 0.3 1.7 0 0 1.7 0 0 0 0 0 0 0 0 0 0 0 1.5 0 0.11
10.126 1.34 0.76 -15.31 -0.13 0.19 0.94 0 0 19 2 0 0 0 0 22 0.77 -1 -22.48 1221 0.5 0.1 0.3 0.5 0.1 0.3 1.5 0.5 0.3 1.7 0 0 1.7 0 0 0 0 0 0 0 0 0 0 0 1.5 0 0.11
10.226 1.34 0.76 -15.37 0 0.19 1.06 0 0 18 2 0 0 0 0 22 0.48 -1.01 -22.95 1221 0.5 0.1 0.3 0.5 0.1 0.3 1.5 0.5 0.3 1.7 0 0 1.7 0 0 0 0 0 0 0 0 0 0 0 1.5 0 0.11
10.326 1.34 0.76 -15.53 0 0.19 1 0 0 18 2 0 0 0 0 22 0.61 -1.08 -23.26 1221 0.5 0.1 0.3 0.5 0.1 0.3 1.5 0.5 0.3 1.7 0 0 1.7 0 0 0 0 0 0 0 0 0 0 0 1.5 0 0.11
10.426 1.34 0.77 -15.6 -0.06 0.31 1 0 0 20 2 0 0 0 0 22 0.61 -1.35 -22.18 1221 0.5 0.1 0.3 0.5 0.1 0.3 1.5 0.5 0.3 1.7 0 0 1.7 0 0 0 0 0 0 0 0 0 0 0 1.5 0 0.11
10.526 1.35 0.76 -15.72 0 0.19 1 0 0 18 2 0 0 0 0 22 0.65 -1.09 -22.49 1221 0.5 0.1 0.3 0.5 0.1 0.3 1.5 0.5 0.3 1.7 0 0 1.7 0 0 0 0 0 0 0 0 0 0 0 1.5 0 0.11
10.626 1.35 0.76 -15.75 -0.06 0.19 0.94 0 0 19 2 0 0 0 0 22 0.69 -1.06 -24.35 1222 0.5 0.1 0.3 0.5 0.1 0.3 1.5 0.5 0.3 1.7 0 0 1.7 0 0 0 0 0 0 0 0 0 0 0 1.5 0 0.11
10.726 1.35 0.76 -15.93 0 0.19 1.06 0 0 19 2 0 0 0 0 22 0.59 -1.16 -23.25 1221 0.5 0.1 0.3 0.5 0.1 0.3 1.5 0.5 0.3 1.7 0 0 1.7 0 0 0 0 0 0 0 0 0 0 0 1.5 0 0.11
10.826 1.35 0.76 -16.03 -0.06 0.13 0.94 0 0 19 2 0 0 0 0 22 0.67 -0.99 -25.08 1221 0.5 0.1 0.3 0.5 0.1 0.3 1.5 0.5 0.3 1.7 0 0 1.7 0 0 0 0 0 0 0 0 0 0 0 1.5 0 0.11
10.926 1.35 0.76 -16.16 0 0.19 1 0 0 20 2 0 0 0 0 22 0.59 -1.1 -25.47 1222 0.5 0.1 0.3 0.5 0.1 0.3 1.5 0.5 0.3 1.7 0 0 1.7 0 0 0 0 0 0 0 0 0 0 0 1.5 0 0.11
11.026 1.34 0.76 -16.23 0 0.31 0.94 0 0 19 1 0 0 0 0 22 -0.21 -1.23 -25.86 1221 0.5 0.1 0.3 0.5 0.1 0.3 1.5 0.5 0.3 1.7 0 0 1.7 0 0 0 0 0 0 0 0 0 0 0 1.5 0 0.11
11.126 1.35 0.75 -16.38 0 0.19 1 0 0 19 2 0 0 0 0 22 0.53 -1.13 -24.44 1221 0.5 0.1 0.3 0.5 0.1 0.3 1.5 0.5 0.3 1.7 0 0 1.7 0 0 0 0 0 0 0 0 0 0 0 1.5 0 0.11
11.226 1.35 0.75 -16.46 -0.06 0.25 1 0 0 19 2 0 0 0 0 22 0.69 -1.17 -26.6 1221 0.5 0.1 0.3 0.5 0.1 0.3 1.5 0.5 0.3 1.7 0 0 1.7 0 0 0 0 0 0 0 0 0 0 0 1.5 0 0.11
11.326 1.35 0.76 -16.53 0 0.19 0.94 0 0 19 2 0 0 0 0 22 0.53 -1.09 -26.96 1221 0.5 0.1 0.3 0.5 0.1 0.3 1.5 0.5 0.3 1.7 0 0 1.7 0 0 0 0 0 0 0 0 0 0 0 1.5 0 0.11
11.426 1.35 0.76 -16.71 -0.06 0.25 1 0 0 19 2 0 0 0 0 21 0.7 -1.19 -27.39 1219 0.5 0.1 0.3 0.5 0.1 0.3 1.5 0.5 0.3 1.7 0 0 1.7 0 0 0 0 0 0 0 0 0 0 0 1.5 0 0.11
11.527 1.34 0.76 -16.8 0 0.19 0.94 0 0 19 2 0 0 0 0 22 0.54 -1.12 -26.28 1220 0.5 0.1 0.3 0.5 0.1 0.3 1.5 0.5 0.3 1.7 0 0 1.7 0 0 0 0 0 0 0 0 0 0 0 1.5 0 0.11
11.627 1.34 0.76 -16.94 -0.06 0.25 1 0 0 19 2 0 0 0 0 22 0.7 -1.22 -28.17 1220 0.5 0.1 0.3 0.5 0.1 0.3 1.5 0.5 0.3 1.7 0 0 1.7 0 0 0 0 0 0 0 0 0 0 0 1.5 0 0.11
11.727 1.34 0.76 -17.01 0 0.13 0.94 0 0 19 2 1 0 0 0 22 0.61 -0.2 -28.41 1220 0.5 0.1 0.3 0.5 0.1 0.3 1.5 0.5 0.3 1.7 0 0 1.7 0 0 0 0 0 0 0 0 0 0 0 1.5 0 0.11
11.826 1.34 0.76 -17.13 -0.13 0.25 1 0 0 19 2 0 0 0 0 22 0.8 -1.23 -28.81 1222 0.5 0.1 0.3 0.5 0.1 0.3 1.5 0.5 0.3 1.7 0 0 1.7 0 0 0 0 0 0 0 0 0 0 0 1.5 0 0.11
11.927 1.34 0.76 -17.18 0 0.19 1 0 0 19 2 0 0 0 0 22 0.61 -1.22 -29.22 1220 0.5 0.1 0.3 0.5 0.1 0.3 1.5 0.5 0.3 1.7 0 0 1.7 0 0 0 0 0 0 0 0 0 0 0 1.5 0 0.11
12.027 1.34 0.76 -17.35 0 0.19 1.06 0 0 19 2 0 0 0 0 22 0.61 -1.25 -29.59 1222 0.5 0.1 0.3 0.5 0.1 0.3 1.5 0.5 0.3 1.7 0 0 1.7 0 0 0 0 0 0 0 0 0 0 0 1.5 0 0.11
12.127 1.34 0.76 -17.4 0 0.19 1 0 0 19 2 0 0 0 0 22 0.55 -1.23 -28.22 1221 0.5 0.1 0.3 0.5 0.1 0.3 1.5 0.5 0.3 1.7 0 0 1.7 0 0 0 0 0 0 0 0 0 0 0 1.5 0 0.11
12.226 1.34 0.76 -17.55 0 0.25 1.06 0 0 20 2 0 0 0 0 22 0.64 -1.25 -30.31 1222 0.5 0.1 0.3 0.5 0.1 0.3 1.5 0.5 0.3 1.7 0 0 1.7 0 0 0 0 0 0 0 0 0 0 0 1.5 0 0.11
12.327 1.34 0.76 -17.61 0 0.25 1 0 0 19 2 0 0 0 0 22 0.55 -1.27 -29.15 1223 0.5 0.1 0.3 0.5 0.1 0.3 1.5 0.5 0.3 1.7 0 0 1.7 0 0 0 0 0 0 0 0 0 0 0 1.5 0 0.11
12.426 1.34 0.76 -17.74 0 0.25 1 0 0 20 2 0 0 0 0 22 0.62 -1.29 -29.58 1222 0.5 0.1 0.3 0.5 0.1 0.3 1.5 0.5 0.3 1.7 0 0 1.7 0 0 0 0 0 0 0 0 0 0 0 1.5 0 0.11
12.527 1.34 0.77 -17.81 0 0.25 1 0 0 19 2 0 0 0 0 22 0.62 -1.29 -29.91 1221 0.5 0.1 0.3 0.5 0.1 0.3 1.5 0.5 0.3 1.7 0 0 1.7 0 0 0 0 0 0 0 0 0 0 0 1.5 0 0.11
12.627 1.34 0.77 -17.96 0 0.13 1 0 0 19 2 0 0 0 0 22 0.62 -1.2 -31.77 1220 0.5 0.1 0.3 0.5 0.1 0.3 1.5 0.5 0.3 1.7 0 0 1.7 0 0 0 0 0 0 0 0 0 0 0 1.5 0 0.11
12.727 1.34 0.77 -18.02 -0.06 0.19 1.06 0 0 19 2 0 0 0 0 22 0.64 -1.23 -30.68 1221 0.5 0.1 0.3 0.5 0.1 0.3 1.5 0.5 0.3 1.7 0 0 1.7 0 0 0 0 0 0 0 0 0 0 0 1.5 0 0.11
12.827 1.34 0.76 -18.05 0 0.19 1 0 0 19 2 0 0 0 0 22 0.64 -1.23 -30.68 1221 0.5 0 3.3 0.5 0.03 3.3 1.5 0.5 0.3 1.7 0 0 1.7 0 0 0 0 0 0 0 0 0 0 0 1.5 0 0.11
12.927 1.34 0.77 -18.2 -0.06 0.25 0.94 0 0 19 2 0 0 0 0 22 0.63 -1.34 -32.88 1220 0.5 0 3.3 0.5 0.03 3.3 1.5 0.5 0.3 1.7 0 0 1.7 0 0 0 0 0 0 0 0 0 0 0 1.5 0 0.11
13.027 1.34 0.76 -18.24 0 0.19 1 0 0 19 2 0 0 0 0 22 0.67 -1.2 -33.24 1222 0.5 0 3.3 0.5 0.03 3.3 1.5 0.5 0.3 1.7 0 0 1.7 0 0 0 0 0 0 0 0 0 0 0 1.5 0 0.11
13.127 1.34 0.76 -18.34 0 0.25 1 0 0 19 2 0 0 0 0 22 0.51 -1.41 -33.63 1221 0.5 0 3.3 0.5 0.03 3.3 1.5 0.5 0.3 1.7 0 0 1.7 0 0 0 0 0 0 0 0 0 0 0 1.5 0 0.11
13.227 1.34 0.76 -18.41 0 0.25 1.06 0 0 19 1 0 0 0 0 22 -5.82 -1.36 -34.08 1223 0.5 0 3.3 0.5 0.03 3.3 1.5 0.5 0.3 1.7 0 0 1.7 0 0 0 0 0 0 0 0 0 0 0 1.5 0 0.11
13.327 1.34 0.76 -18.52 0 0.25 1 0 0 19 2 0 0 0 0 22 0.64 -1.39 -34.37 1221 0.5 0 3.3 0.5 0.03 3.3 1.5 0.5 0.3 1.7 0 0 1.7 0 0 0 0 0 0 0 0 0 0 0 1.5 0 0.11
13.427 1.34 0.76 -18.56 0 0.19 0.94 0 0 19 2 1 0 0 0 21 0.57 5.12 -34.64 1219 0.5 0 3.3 0.5 0.03 3.3 1.5 0.5 0.3 1.7 0 0 1.7 0 0 0 0 0 0 0 0 0 0 0 1.5 0 0.11
13.527 1.34 0.76 -18.67 0 0.25 1.06 0 0 19 2 0 0 0 0 22 0.64 -1.45 -35.13 1222 0.5 0 3.3 0.5 0.03 3.3 1.5 0.5 0.3 1.7 0 0 1.7 0 0 0 0 0 0 0 0 0 0 0 1.5 0 0.11
13.627 1.34 0.76 -18.7 -0.06 0.25 1 0 0 19 2 0 0 0 0 22 0.72 -1.37 -35.45 1221 0.5 0 3.3 0.5 0.03 3.3 1.5 0.5 0.3 1.7 0 0 1.7 0 0 0 0 0 0 0 0 0 0 0 1.5 0 0.11
13.727 1.34 0.76 -18.8 0 0.25 0.88 0 0 19 2 0 0 0 0 22 0.58 -1.47 -35.66 1220 0.5 0 3.3 0.5 0.03 3.3 1.5 0.5 0.3 1.7 0 0 1.7 0 0 0 0 0 0 0 0 0 0 0 1.5 0 0.11
13.827 1.34 0.76 -18.83 0 0.19 0.94 0 0 19 2 0 0 0 0 22 0.7 -1.39 -36.23 1221 0.5 0 3.3 0.5 0.03 3.3 1.5 0.5 0.3 1.7 0 0 1.7 0 0 0 0 0 0 0 0 0 0 0 1.5 0 0.11
13.927 1.34 0.76 -18.97 -0.06 0.31 0.94 0 0 19 2 0 0 0 0 22 0.74 -1.5 -36.58 1222 0.5 0 3.3 0.5 0.03 3.3 1.5 0.5 0.3 1.7 0 0 1.7 0 0 0 0 0 0 0 0 0 0 0 1.5 0 0.11
14.027 1.34 0.76 -19.04 0 0.25 1 0 0 19 2 0 0 0 0 22 0.64 -1.41 -37.05 1222 0.5 0 3.3 0.5 0.03 3.3 1.5 0.5 0.3 1.7 0 0 1.7 0 0 0 0 0 0 0 0 0 0 0 1.5 0 0.11
14.127 1.34 0.77 -19.18 0 0.31 0.88 0 0 19 2 0 0 0 0 22 0.64 -1.55 -37.28 1222 0.5 0 3.3 0.5 0.03 3.3 1.5 0.5 0.3 1.7 0 0 1.7 0 0 0 0 0 0 0 0 0 0 0 1.5 0 0.11
14.227 1.34 0.77 -19.25 0 0.25 1.06 0 0 19 2 0 0 0 0 22 0.64 -1.52 -37.87 1221 0.5 0 3.3 0.5 0.03 3.3 1.5 0.5 0.3 1.7 0 0 1.7 0 0 0 0 0 0 0 0 0 0 0 1.5 0 0.11
14.328 1.34 0.77 -19.28 0 0.19 1.06 0 0 19 2 0 0 0 0 22 0.65 -1.37 -36.75 1220 0.5 0 3.3 0.5 0.03 3.3 1.5 0.5 0.3 1.7 0 0 1.7 0 0 0 0 0 0 0 0 0 0 0 1.5 0 0.11
14.428 1.34 0.77 -19.38 0 0.25 1 0 0 19 2 0 0 0 0 22 0.67 -1.46 -37.01 1221 0.5 0 3.3 0.5 0.03 3.3 1.5 0.5 0.3 1.7 0 0 1.7 0 0 0 0 0 0 0 0 0 0 0 1.5 0 0.11
14.528 1.34 0.77 -19.43 -0.06 0.19 1.06 0 0 19 2 0 0 0 0 22 0.73 -1.48 -38.97 1220 0.5 0 3.3 0.5 0.03 3.3 1.5 0.5 0.3 1.7 0 0 1.7 0 0 0 0 0 0 0 0 0 0 0 1.5 0 0.11
14.628 1.34 0.77 -19.58 0 0.19 1.06 0 0 19 2 0 0 0 0 22 0.71 -1.41 -39.3 1221 0.5 0 3.3 0.5 0.03 3.3 1.5 0.5 0.3 1.7 0 0 1.7 0 0 0 0 0 0 0 0 0 0 0 1.5 0 0.11
14.728 1.34 0.77 -19.62 0 0.25 1 0 0 19 2 0 0 0 0 21 0.65 -1.5 -39.64 1219 0.5 0 3.3 0.5 0.03 3.3 1.5 0.5 0.3 1.7 0 0 1.7 0 0 0 0 0 0 0 0 0 0 0 1.5 0 0.11
14.728 1.34 0.77 -19.62 0 0.25 1 0 0 19 2 0 0 0 0 21 0.65 -1.5 -39.64 1219 0.5 0 3.3 0.5 0.03 3.3 1.5 0.5 0.3 1.7 0 0 1.7 0 0 0 0 0 0 0 0 0 0 0 1.5 0 0.11
14.828 1.34 0.77 -19.74 0 0.25 1 0 0 19 2 0 0 0 0 22 0.64 -1.5 -39.64 1221 0.5 0 3.3 0.5 0.03 3.3 1.5 0.5 0.3 1.7 0 0 1.7 0 0 0 0 0 0 0 0 0 0 0 1.5 0 0.11
15.028 1.34 0.77 -19.9 0 0.19 1 0 0 19 2 0 0 0 0 22 0.57 -1.45 -40.83 1221 0.5 0 3.3 0.5 0.03 3.3 1.5 0.5 0.3 1.7 0 0 1.7 0 0 0 0 0 0 0 0 0 0 0 1.5 0 0.11
15.128 1.34 0.76 -19.96 0 0.19 0.94 0 0 19 2 0 0 0 0 22 0.57 -1.45 -41.16 1221 0.5 0 3.3 0.5 0.03 3.3 1.5 0.5 0.3 1.7 0 0 1.7 0 0 0 0 0 0 0 0 0 0 0 1.5 0 0.11
15.228 1.34 0.76 -20.12 0 0.19 1 0 0 19 2 0 0 0 0 22 0.66 -1.45 -41.58 1221 0.5 0 3.3 0.5 0.03 3.3 1.5 0.5 0.3 1.7 0 0 1.7 0 0 0 0 0 0 0 0 0 0 0 1.5 0 0.11
15.328 1.34 0.76 -20.15 0 0.13 0.94 0 0 19 2 0 0 0 0 22 0.65 -1.45 -41.91 1221 0.5 0 3.3 0.5 0.03 3.3 1.5 0.5 0.3 1.7 0 0 1.7 0 0 0 0 0 0 0 0 0 0 0 1.5 0 0.11
15.428 1.34 0.77 -20.25 0 0.25 1 0 0 20 2 0 0 0 0 22 0.52 -1.64 -42.26 1221 0.5 0 3.3 0.5 0.03 3.3 1.5 0.5 0.3 1.7 0 0 1.7 0 0 0 0 0 0 0 0 0 0 0 1.5 0 0.11
15.528 1.35 0.77 -20.31 0 0.25 0.94 0 0 19 2 0 0 0 0 22 0.64 -1.58 -42.69 1221 0.5 0 3.3 0.5 0.03 3.3 1.5 0.5 0.3 1.7 0 0 1.7 0 0 0 0 0 0 0 0 0 0 0 1.5 0 0.11
15.628 1.35 0.77 -20.42 0 0.25 0.94 0 0 20 2 0 0 0 0 22 0.67 -1.68 -43.04 1221 0.5 0 3.3 0.5 0.03 3.3 1.5 0.5 0.3 1.7 0 0 1.7 0 0 0 0 0 0 0 0 0 0 0 1.5 0 0.11
15.728 1.35 0.76 -20.47 0 0.31 1.06 0 0 20 2 0 0 0 0 22 0.64 -1.7 -43.43 1221 0.5 0 3.3 0.5 0.03 3.3 1.5 0.5 0.3 1.7 0 0 1.7 0 0 0 0 0 0 0 0 0 0 0 1.5 0 0.11
15.828 1.35 0.76 -20.49 -0.06 0.25 0.94 0 0 19 2 0 0 0 0 22 0.74 -1.53 -43.72 1222 0.5 0 3.3 0.5 0.03 3.3 1.5 0.5 0.3 1.7 0 0 1.7 0 0 0 0 0 0 0 0 0 0 0 1.5 0 0.11
15.928 1.35 0.76 -20.58 -0.06 0.25 1 0 0 19 2 0 0 0 0 22 0.72 -1.58 -42.65 1220 0.5 0 3.3 0.5 0.03 3.3 1.5 0.5 0.3 1.7 0 0 1.7 0 0 0 0 0 0 0 0 0 0 0 1.5 0 0.11
16.028 1.35 0.76 -20.59 -0.06 0.19 1.06 0 0 19 2 0 0 0 0 22 0.73 -1.54 -44.6 1221 0.5 0 3.3 0.5 0.03 3.3 1.5 0.5 0.3 1.7 0 0 1.7 0 0 0 0 0 0 0 0 0 0 0 1.5 0 0.11
16.128 1.35 0.76 -20.68 0 0.25 0.94 0 0 19 2 0 0 0 0 22 0.58 -1.75 -44.91 1221 0.5 0 3.3 0.5 0.03 3.3 1.5 0.5 0.3 1.7 0 0 1.7 0 0 0 0 0 0 0 0 0 0 0 1.5 0 0.11
16.228 1.35 0.76 -20.69 0 0.19 1 0 0 19 2 0 0 0 0 22 0.6 -1.68 -45.29 1221 0.5 0 3.3 0.5 0.03 3.3 1.5 0.5 0.3 1.7 0 0 1.7 0 0 0 0 0 0 0 0 0 0 0 1.5 0 0.11
16.328 1.35 0.76 -20.75 -0.06 0.31 1 0 0 19 2 0 0 0 0 22 0.66 -1.78 -45.6 1222 0.5 0 3.3 0.5 0.03 3.3 1.5 0.5 0.3 1.7 0 0 1.7 0 0 0 0 0 0 0 0 0 0 0 1.5 0 0.11
16.428 1.35 0.76 -20.78 -0.06 0.25 1 0 0 18 2 0 0 0 0 22 0.69 -1.67 -46.1 1220 0.5 0 3.3 0.5 0.03 3.3 1.5 0.5 0.3 1.7 0 0 1.7 0 0 0 0 0 0 0 0 0 0 0 1.5 0 0.11
16.528 1.35 0.76 -20.92 0 0.25 1 0 0 19 2 0 0 0 0 22 0.65 -1.73 -46.5 1221 0.5 0 3.3 0.5 0.03 3.3 1.5 0.5 0.3 1.7 0 0 1.7 0 0 0 0 0 0 0 0 0 0 0 1.5 0 0.11
16.628 1.35 0.76 -20.99 -0.13 0.25 0.94 0 0 19 2 0 0 0 0 22 0.75 -1.67 -47.09 1221 0.5 0 3.3 0.5 0.03 3.3 1.5 0.5 0.3 1.7 0 0 1.7 0 0 0 0 0 0 0 0 0 0 0 1.5 0 0.11
16.728 1.34 0.76 -21.08 -0.06 0.25 1.06 0 0 19 2 0 0 0 0 22 0.74 -1.66 -47.24 1222 0.5 0 3.3 0.5 0.03 3.3 1.5 0.5 0.3 1.7 0 0 1.7 0 0 0 0 0 0 0 0 0 0 0 1.5 0 0.11
16.828 1.34 0.76 -21.12 -0.06 0.25 1.06 0 0 19 2 0 0 0 0 22 0.74 -1.67 -47.57 1223 0.5 0 3.3 0.5 0.03 3.3 1.5 0.5 0.3 1.7 0 0 1.7 0 0 0 0 0 0 0 0 0 0 0 1.5 0 0.11
16.928 1.34 0.76 -21.21 0 0.25 1.06 0 0 19 2 0 0 0 0 22 6.27 -1.77 -47.98 1221 0.5 0 3.3 0.5 0.03 3.3 1.5 0.5 0.3 1.7 0 0 1.7 0 0 0 0 0 0 0 0 0 0 0 1.5 0 0.11
17.028 1.34 0.76 -21.25 0 0.31 0.94 0 0 19 2 0 0 0 0 22 0.68 -1.73 -48.4 1221 0.5 0 3.3 0.5 0.03 3.3 1.5 0.5 0.3 1.7 0.02 0 1.7 0.02 0 0 0 0 0 0 0 0 0 0 1.5 0 0.11
17.128 1.35 0.76 -21.34 0 0.25 1 0 0 19 2 0 0 0 0 22 6.26 -1.79 -48.77 1220 0.5 0 3.3 0.5 0.03 3.3 1.5 0.5 0.3 1.7 0.02 0 1.7 0.02 0 0 0 0 0 0 0 0 0 0 1.5 0 0.11
17.228 1.35 0.77 -21.37 0 0.19 0.94 0 0 20 2 0 0 0 0 22 0.6 -1.67 -49.15 1222 0.5 0 3.3 0.5 0.03 3.3 1.5 0.5 0.3 1.7 0.02 0 1.7 0.02 0 0 0 0 0 0 0 0 0 0 1.5 0 0.11
17.328 1.35 0.76 -21.4 -0.06 0.25 0.94 0 0 19 2 0 0 0 0 22 0.73 -1.8 -49.45 1221 0.5 0 3.3 0.5 0.03 3.3 1.5 0.5 0.3 1.7 0.02 0 1.7 0.02 0 0 0 0 0 0 0 0 0 0 1.5 0 0.11
17.428 1.34 0.77 -21.47 -0.13 0.31 1 0 0 19 2 0 0 0 0 22 0.84 -1.84 -49.93 1222 0.5 0 3.3 0.5 0.03 3.3 1.5 0.5 0.3 1.7 0.02 0 1.7 0.02 0 0 0 0 0 0 0 0 0 0 1.5 0 0.11
17.528 1.35 0.77 -21.47 0 0.31 1.06 0 0 19 2 0 0 0 0 22 0.66 -1.91 -50.41 1221 0.5 0 3.3 0.5 0.03 3.3 1.5 0.5 0.3 1.7 0.02 0 1.7 0.02 0 0 0 0 0 0 0 0 0 0 1.5 0 0.11
17.628 1.35 0.77 -21.54 0 0.25 0.94 0 0 19 2 0 0 0 0 22 0.6 -1.77 -50.63 1223 0.5 0 3.3 0.5 0.03 3.3 1.5 0.5 0.3 1.7 0.02 0 1.7 0.02 0 0 0 0 0 0 0 0 0 0 1.5 0 0.11
17.728 1.34 0.77 -21.58 0 0.19 1 0 0 19 2 0 0 0 0 22 0.67 -1.83 -51.05 1221 0.5 0 3.3 0.5 0.03 3.3 1.5 0.5 0.3 1.7 0.02 0 1.7 0.02 0 0 0 0 0 0 0 0 0 0 1.5 0 0.11
17.828 1.35 0.77 -21.71 -0.06 0.19 1 0 0 19 1 0 0 0 0 22 0.67 -1.73 -49.63 1221 0.5 0 3.3 0.5 0.03 3.3 1.5 0.5 0.3 1.7 0.02 0 1.7 0.02 0 0 0 0 0 0 0 0 0 0 1.5 0 0.11
17.928 1.35 0.76 -21.74 0.06 0.25 0.94 0 0 19 2 0 0 0 0 22 0.57 -1.79 -51.78 1223 0.5 0 3.3 0.5 0.03 3.3 1.5 0.5 0.3 1.7 0.02 0 1.7 0.02 0 0 0 0 0 0 0 0 0 0 1.5 0 0.11
18.028 1.35 0.76 -21.84 0 0.25 1.06 0 0 20 2 0 0 0 0 22 0.66 -1.8 -52.21 1221 0.5 0 3.3 0.5 0.03 3.3 1.5 0.5 0.3 1.7 0.02 0 1.7 0.02 0 0 0 0 0 0 0 0 0 0 1.5 0 0.11
18.128 1.35 0.76 -21.85 0 0.13 1.06 0 0 19 2 0 0 0 0 22 0.67 -1.59 -52.67 1222 0.5 0 3.3 0.5 0.03 3.3 1.5 0.5 0.3 1.7 0.02 0 1.7 0.02 0 0 0 0 0 0 0 0 0 0 1.5 0 0.11
18.228 1.35 0.76 -21.94 -0.06 0.19 1.06 0 0 18 2 0 0 0 0 22 0.62 -1.67 -53.04 1221 0.5 0 3.3 0.5 0.03 3.3 1.5 0.5 0.3 1.7 0.02 0 1.7 0.02 0 0 0 0 0 0 0 0 0 0 1.5 0 0.11
18.328 1.35 0.76 -21.96 0 0.25 1 0 0 19 2 0 0 0 0 22 0.66 -1.85 -53.36 1221 0.5 0 3.3 0.5 0.03 3.3 1.5 0.5 0.3 1.7 0.02 0 1.7 0.02 0 0 0 0 0 0 0 0 0 0 1.5 0 0.11
18.428 1.35 0.76 -22.05 -0.06 0.25 0.94 0 0 19 2 0 0 0 0 22 0.74 -1.92 -53.68 1220 0.5 0 3.3 0.5 0.03 3.3 1.5 0.5 0.3 1.7 0.02 0 1.7 0.02 0 0 0 0 0 0 0 0 0 0 1.5 0 0.11
18.528 1.35 0.77 -22.07 0 0.25 1 0 0 19 2 0 0 0 0 22 0.61 -1.88 -54.16 1220 0.5 0 3.3 0.5 0.03 3.3 1.5 0.5 0.3 1.7 0.02 0 1.7 0.02 0 0 0 0 0 0 0 0 0 0 1.5 0 0.11
18.628 1.35 0.76 -22.21 0 0.25 1 0 0 20 1 0 0 0 0 22 -5.78 -1.85 -54.46 1222 0.5 0 3.3 0.5 0.03 3.3 1.5 0.5 0.3 1.7 0.02 0 1.7 0.02 0 0 0 0 0 0 0 0 0 0 1.5 0 0.11
18.728 1.35 0.76 -22.24 0 0.31 1 0 0 19 2 0 0 0 0 22 0.68 -1.96 -54.82 1220 0.5 0 3.3 0.5 0.03 3.3 1.5 0.5 0.3 1.7 0.02 0 1.7 0.02 0 0 0 0 0 0 0 0 0 0 1.5 0 0.11
18.828 1.35 0.77 -22.26 0 0.31 1 0 0 20 2 0 0 0 0 22 -0.17 -1.98 -55.47 1224 0.5 0 3.3 0.5 0.03 3.3 1.5 0.5 0.3 1.7 0.02 0 1.7 0.02 0 0 0 0 0 0 0 0 0 0 1.5 0 0.11
18.928 1.35 0.77 -22.35 0 0.19 0.94 0 0 19 2 0 0 0 0 22 0.67 -1.83 -55.52 1221 0.5 0 3.3 0.5 0.03 3.3 1.5 0.5 0.3 1.7 0.02 0 1.7 0.02 0 0 0 0 0 0 0 0 0 0 1.5 0 0.11
19.028 1.35 0.77 -22.36 0 0.19 1.06 0 0 19 2 0 0 0 0 22 0.67 -1.81 -56 1221 0.5 0 3.3 0.5 0.03 3.3 1.5 0.5 0.3 1.7 0.02 0 1.7 0.02 0 0 0 0 0 0 0 0 0 0 1.5 0 0.11
19.128 1.35 0.77 -22.42 0 0.25 0.94 0 0 19 2 0 0 0 0 22 0.61 -1.94 -56.32 1221 0.5 0 3.3 0.5 0.03 3.3 1.5 0.5 0.3 1.7 0.02 0 1.7 0.02 0 0 0 0 0 0 0 0 0 0 1.5 0 0.11
19.228 1.35 0.78 -22.46 0 0.19 1 0 0 19 2 0 0 0 0 22 0.67 -1.84 -56.78 1220 0.5 0 3.3 0.5 0.03 3.3 1.5 0.5 0.3 1.7 0.02 0 1.7 0.02 0 0 0 0 0 0 0 0 0 0 1.5 0 0.11
19.328 1.35 0.78 -22.55 -0.06 0.37 0.94 0 0 19 2 0 0 0 0 22 0.71 -2.11 -57.05 1221 0.5 0 3.3 0.5 0.03 3.3 1.5 0.5 0.3 1.7 0.02 0 1.7 0.02 0 0 0 0 0 0 0 0 0 0 1.5 0 0.11
19.428 1.35 0.78 -22.55 0 0.19 0.94 0 0 19 2 0 0 0 0 22 0.68 -1.94 -57.36 1221 0.5 0 3.3 0.5 0.03 3.3 1.5 0.5 0.3 1.7 0.02 0 1.7 0.02 0 0 0 0 0 0 0 0 0 0 1.5 0 0.11
19.528 1.35 0.78 -22.63 -0.06 0.31 1 0 0 19 2 0 0 0 0 22 0.77 -2.12 -55.76 1223 0.5 0 3.3 0.5 0.03 3.3 1.5 0.5 0.3 1.7 0.02 0 1.7 0.02 0 0 0 0 0 0 0 0 0 0 1.5 0 0.11
19.628 1.35 0.78 -22.66 0 0.25 1 0 0 19 2 0 0 0 0 22 0.56 -1.97 -57.54 1220 0.5 0 3.3 0.5 0.03 3.3 1.5 0.5 0.3 1.7 0.02 0 1.7 0.02 0 0 0 0 0 0 0 0 0 0 1.5 0 0.11
19.728 1.35 0.78 -22.74 0 0.25 0.94 0 0 19 2 0 0 0 0 22 0.65 -1.99 -57.37 1222 0.5 0 3.3 0.5 0.03 3.3 1.5 0.5 0.3 1.7 0.02 0 1.7 0.02 0 0 0 0 0 0 0 0 0 0 1.5 0 0.11
19.828 1.35 0.78 -22.73 0 0.31 1 0 0 19 2 0 0 0 0 22 0.68 -2 -57.5 1221 0.5 0 3.3 0.5 0.03 3.3 1.5 0.5 0.3 1.7 0.02 0 1.7 0.02 0 0 0 0 0 0 0 0 0 0 1.5 0 0.11
19.928 1.35 0.78 -22.83 -0.06 0.25 1 0 0 19 2 0 0 0 0 22 0.76 -1.99 -55.99 1222 0.5 0 3.3 0.5 0.03 3.3 1.5 0.5 0.3 1.7 0.02 0 1.7 0.02 0 0 0 0 0 0 0 0 0 0 1.5 0 0.11
20.028 1.35 0.78 -22.85 -0.06 0.25 1 0 0 19 1 0 0 0 0 22 -0.08 -2.01 -57.53 1221 0.5 0 3.3 0.5 0.03 3.3 1.5 0.5 0.3 1.7 0.02 0 1.7 0.02 0 0 0 0 0 0 0 0 0 0 1.5 0 0.11
20.128 1.35 0.78 -22.93 -0.06 0.31 1 0 0 18 2 0 0 0 0 21 0.76 -2.11 -56 1219 0.5 0 3.3 0.5 0.03 3.3 1.5 0.5 0.3 1.7 0.02 0 1.7 0.02 0 0 0 0 0 0 0 0 0 0 1.5 0 0.11
20.228 1.35 0.78 -22.93 0 0.25 1 0 0 19 2 0 0 0 0 22 0.69 -2.04 -57.47 1220 0.5 0 3.3 0.5 0.03 3.3 1.5 0.5 0.3 1.7 0.02 0 1.7 0.02 0 0 0 0 0 0 0 0 0 0 1.5 0 0.11
20.328 1.35 0.78 -22.96 0 0.25 1 0 0 19 2 0 0 0 0 22 0.68 -1.99 -55.7 1221 0.5 0 3.3 0.5 0.03 3.3 1.5 0.5 0.3 1.7 0.02 0 1.7 0.02 0 0 0 0 0 0 0 0 0 0 1.5 0 0.11
20.428 1.35 0.77 -23.05 0 0.31 1 0 0 20 2 0 0 0 0 22 0.69 -2.14 -57.56 1221 0.5 0 3.3 0.5 0.03 3.3 1.5 0.5 0.3 1.7 0.02 0 1.7 0.02 0 0 0 0 0 0 0 0 0 0 1.5 0 0.11
20.528 1.35 0.78 -23.08 -0.06 0.31 1 0 0 19 2 0 0 0 0 22 0.76 -2.22 -57.43 1220 0.5 0 3.3 0.5 0.03 3.3 1.5 0.5 0.3 1.7 0.02 0 1.7 0.02 0 0 0 0 0 0 0 0 0 0 1.5 0 0.11
20.628 1.35 0.78 -23.15 0 0.19 0.94 0 0 16 2 0 0 0 0 22 0.56 -1.99 -57.52 1222 0.5 0 3.3 0.5 0.03 3.3 1.5 0.5 0.3 1.7 0.02 0 1.7 0.02 0 0 0 0 0 0 0 0 0 0 1.5 0 0.11
20.728 1.35 0.78 -23.17 -0.13 0.25 0.94 0 0 19 2 0 0 0 0 22 0.86 -2.02 -57.46 1221 0.5 0 3.3 0.5 0.03 3.3 1.5 0.5 0.3 1.7 0.02 0 1.7 0.02 0 0 0 0 0 0 0 0 0 0 1.5 0 0.11
20.828 1.35 0.78 -23.21 0 0.19 1 0 0 19 2 0 0 0 0 22 0.7 -1.94 -57.53 1220 0.5 0 3.3 0.5 0.03 3.3 1.5 0.5 0.3 1.7 0.02 0 1.7 0.02 0 0 0 0 0 0 0 0 0 0 1.5 0 0.11
20.928 1.35 0.78 -23.21 0 0.25 1 0 0 19 2 0 0 0 0 22 0.68 -2.12 -57.47 1220 0.5 0 3.3 0.5 0.03 3.3 1.5 0.5 0.3 1.7 0.02 0 1.7 0.02 0 0 0 0 0 0 0 0 0 0 1.5 0 0.11
21.028 1.35 0.78 -23.25 0 0.25 0.94 0 0 19 2 0 0 0 0 22 0.7 -2.14 -57.46 1220 0.5 0 3.3 0.5 0.03 3.3 1.5 0.5 0.3 1.7 0.02 0 1.7 0.02 0 0 0 0 0 0 0 0 0 0 1.5 0 0.11
21.128 1.35 0.78 -23.25 -0.06 0.19 1 0 0 20 2 0 0 0 0 22 0.77 -2.05 -56 1220 0.5 0 3.3 0.5 0.03 3.3 1.5 0.5 0.3 1.7 0.02 0 1.7 0.02 0 0 0 0 0 0 0 0 0 0 1.5 0 0.11
21.228 1.35 0.78 -23.29 0 0.25 0.94 0 0 19 2 0 0 0 0 22 0.59 -2.15 -57.7 1221 0.5 0 3.3 0.5 0.03 3.3 1.5 0.5 0.3 1.7 0.02 0 1.7 0.02 0 0 0 0 0 0 0 0 0 0 1.5 0 0.11
21.328 1.35 0.78 -23.29 0 0.19 0.94 0 0 20 2 0 0 0 0 22 0.69 -2.04 -57.47 1222 0.5 0 3.3 0.5 0.03 3.3 1.5 0.5 0.3 1.7 0.02 0 1.7 0.02 0 0 0 0 0 0 0 0 0 0 1.5 0 0.11
21.429 1.35 0.78 -23.36 -0.06 0.25 0.94 0 0 19 2 0 0 0 0 22 0.78 -2.16 -55.93 1221 0.5 0 3.3 0.5 0.03 3.3 1.5 0.5 0.3 1.7 0.02 0 1.7 0.02 0 0 0 0 0 0 0 0 0 0 1.5 0 0.11
21.529 1.35 0.78 -23.37 -0.06 0.25 1 0 0 20 2 0 0 0 0 22 0.71 -2.23 -57.5 1222 0.5 0 3.3 0.5 0.03 3.3 1.5 0.5 0.3 1.7 0.02 0 1.7 0.02 0 0 0 0 0 0 0 0 0 0 1.5 0 0.11
21.629 1.35 0.78 -23.43 0 0.31 1.06 0 0 19 2 0 0 0 0 22 0.7 -2.26 -57.54 1223 0.5 0 3.3 0.5 0.03 3.3 1.5 0.5 0.3 1.7 0.02 0 1.7 0.02 0 0 0 0 0 0 0 0 0 0 1 0 0.05
21.729 1.36 0.78 -23.44 0 0.25 1 0 0 19 2 0 0 0 0 22 0.62 -2.2 -57.53 1220 0.5 0 3.3 0.5 0.03 3.3 1.5 0.5 0.3 1.7 0.02 0 1.7 0.02 0 0 0 0 0 0 0 0 0 0 1 0 0.05
21.829 1.36 0.78 -23.51 0 0.25 1.06 0 0 19 2 0 0 0 0 22 0.71 -2.21 -57.57 1222 0.5 0 3.3 0.5 0.03 3.3 1.5 0.5 0.3 1.7 0.02 0 1.7 0.02 0 0 0 0 0 0 0 0 0 0 1 0 0.05
21.929 1.36 0.78 -23.51 0 0.19 1.06 0 0 19 2 0 0 0 0 22 0.69 -2.15 -56.04 1221 0.5 0 3.3 0.5 0.03 3.3 1.5 0.5 0.3 1.7 0.02 0 1.7 0.02 0 0 0 0 0 0 0 0 0 0 1 0 0.05
22.029 1.36 0.78 -23.52 0 0.25 1 0 0 19 2 0 0 0 0 22 0.62 -2.15 -57.5 1221 0.5 0 3.3 0.5 0.03 3.3 1.5 0.5 0.3 1.7 0.02 0 1.7 0.02 0 0 0 0 0 0 0 0 0 0 1 0 0.05
22.129 1.36 0.78 -23.57 0 0.31 1 0 0 19 2 0 0 0 0 22 0.71 -2.24 -57.43 1222 0.5 0 3.3 0.5 0.03 3.3 1.5 0.5 0.3 1.7 0.02 0 1.7 0.02 0 0 0 0 0 0 0 0 0 0 1 0 0.05
22.229 1.36 0.78 -23.53 -0.13 0.31 1 0 0 19 2 0 0 0 0 22 0.87 -2.32 -57.43 1220 0.5 0 3.3 0.5 0.03 3.3 1.5 0.5 0.3 1.7 0.02 0 1.7 0.02 0 0 0 0 0 0 0 0 0 0 1 0 0.05
22.329 1.36 0.78 -23.55 -0.06 0.25 0.94 0 0 20 2 0 0 0 0 22 0.77 -2.2 -57.46 1221 0.5 0 3.3 0.5 0.03 3.3 1.5 0.5 0.3 1.7 0.02 0 1.7 0.02 0 0 0 0 0 0 0 0 0 0 1 0 0.05
22.429 1.36 0.78 -23.59 0 0.25 1 0 0 18 2 0 0 0 0 22 0.69 -2.26 -57.56 1222 0.5 0 3.3 0.5 0.03 3.3 1.5 0.5 0.3 1.7 0.02 0 1.7 0.02 0 0 0 0 0 0 0 0 0 0 1 0 0.05
22.529 1.36 0.78 -23.65 -0.06 0.25 1 0 0 19 2 0 0 0 0 22 0.77 -2.2 -55.94 1221 0.5 0 3.3 0.5 0.03 3.3 1.5 0.5 0.3 1.7 0.02 0 1.7 0.02 0 0 0 0 0 0 0 0 0 0 1 0 0.05
22.629 1.36 0.78 -23.65 -0.06 0.25 1 0 0 19 2 0 0 0 0 22 0.65 -2.19 -55.96 1222 0.5 0 3.3 0.5 0.03 3.3 1.5 0.5 0.3 1.7 0.02 0 1.7 0.02 0 0 0 0 0 0 0 0 0 0 1 0 0.05
22.729 1.36 0.78 -23.75 -0.06 0.19 1.06 0 0 19 2 0 0 0 0 22 0.8 -2.13 -57.57 1222 0.5 0 3.3 0.5 0.03 3.3 1.5 0.5 0.3 1.7 0.02 0 1.7 0.02 0 0 0 0 0 0 0 0 0 0 1 0 0.05
22.829 1.36 0.78 -23.77 0 0.37 0.94 0 0 19 2 0 0 0 0 21 0.64 -2.54 -57.47 1219 0.5 0 3.3 0.5 0.03 3.3 1.5 0.5 0.3 1.7 0.02 0 1.7 0.02 0 0 0 0 0 0 0 0 0 0 1 0 0.05
22.929 1.36 0.78 -23.84 0 0.19 1 0 0 19 2 0 0 0 0 22 0.65 -2.22 -57.53 1221 0.5 0 3.3 0.5 0.03 3.3 1.5 0.5 0.3 1.7 0.02 0 1.7 0.02 0 0 0 0 0 0 0 0 0 0 1 0 0.05
23.029 1.35 0.79 -23.87 -0.06 0.25 0.94 0 0 17 2 0 0 0 0 22 0.79 -2.26 -57.47 1221 0.5 0 3.3 0.5 0.03 3.3 1.5 0.5 0.3 1.7 0.02 0 1.7 0.02 0 0 0 0 0 0 0 0 0 0 1 0 0.05
23.129 1.35 0.79 -23.95 0 0.19 1 0 0 19 2 0 0 0 0 22 0.71 -2.34 -57.51 1221 0.5 0 3.3 0.5 0.03 3.3 1.5 0.5 0.3 1.7 0.02 0 1.7 0.02 0 0 0 0 0 0 0 0 0 0 1 0 0.05
23.229 1.35 0.79 -23.96 0 0.37 1 0 0 19 2 0 0 0 0 22 0.65 -2.45 -57.5 1221 0.5 0 3.3 0.5 0.03 3.3 1.5 0.5 0.3 1.7 0.02 0 1.7 0.02 0 0 0 0 0 0 0 0 0 0 1 0 0.05
23.329 1.35 0.79 -24.04 0 0.31 1 0 0 19 2 0 0 0 0 22 0.72 -2.43 -57.47 1222 0.5 0 3.3 0.5 0.03 3.3 1.5 0.5 0.3 1.7 0.02 0 1.7 0.02 0 0 0 0 0 0 0 0 0 0 1 0 0.05
23.429 1.35 0.79 -24.04 0 0.31 1 0 0 19 2 0 0 0 0 22 0.63 -2.45 -57.47 1221 0.5 0 3.3 0.5 0.03 3.3 1.5 0.5 0.3 1.7 0.02 0 1.7 0.02 0 0 0 0 0 0 0 0 0 0 1 0 0.05
23.529 1.35 0.79 -24.03 -0.06 0.19 1.06 0 0 19 2 0 0 0 0 22 0.79 -2.3 -57.57 1222 0.5 0 3.3 0.5 0.03 3.3 1.5 0.5 0.3 1.7 0.02 0 1.7 0.02 0 0 0 0 0 0 0 0 0 0 1 0 0.05
23.652 1.35 0.79 -24.08 0 0.25 1.06 0 0 19 2 0 0 0 0 22 0.73 -2.4 -57.6 1220 0.5 0 3.3 0.5 0.03 3.3 1.5 0.5 0.3 1.7 0.02 0 1.7 0.02 0 0 0 0 0 0 0 0 0 0 1 0 0.05
23.729 1.35 0.79 -24.1 0.06 0.31 1.06 0 0 20 2 0 0 0 0 22 0.64 -2.47 -57.54 1221 0.5 0 3.3 0.5 0.03 3.3 1.5 0.5 0.3 1.7 0.02 0 1.7 0.02 0 0 0 0 0 0 0 0 0 0 1 0 0.05
23.829 1.35 0.79 -24.18 0 0.25 1.06 0 0 20 2 0 0 0 0 22 0.66 -2.43 -57.56 1220 0.5 0 3.3 0.5 0.03 3.3 1.5 0.5 0.3 1.7 0.02 0 1.7 0.02 0 0 0 0 0 0 0 0 0 0 1 0 0.05
23.929 1.35 0.79 -24.19 -0.06 0.19 1.06 0 0 19 2 0 0 0 0 22 0.81 -2.35 -57.54 1221 0.5 0 3.3 0.5 0.03 3.3 1.5 0.5 0.3 1.7 0.02 0 1.7 0.02 0 0 0 0 0 0 0 0 0 0 1 0 0.05
24.03 1.35 0.79 -24.22 0 0.25 0.94 0 0 19 2 0 0 0 0 22 0.72 -2.44 -57.44 1221 0.5 0 3.3 0.5 0.03 3.3 1.5 0.5 0.3 1.7 0.02 0 1.7 0.02 0 0 0 0 0 0 0 0 0 0 1 0 0.05
24.13 1.35 0.8 -24.25 -0.06 0.25 1.06 0 0 19 2 0 0 0 0 22 0.74 -2.48 -57.6 1222 0.5 0 3.3 0.5 0.03 3.3 1.5 0.5 0.3 1.7 0.02 0 1.7 0.02 0 0 0 0 0 0 0 0 0 0 1 0 0.05
24.23 1.35 0.8 -24.35 0 0.25 1 0 0 19 2 0 0 0 0 22 0.74 -2.47 -57.45 1221 0.5 0 3.3 0.5 0.03 3.3 1.5 0.5 0.3 1.7 0.02 0 1.7 0.02 0 0 0 0 0 0 0 0 0 0 1 0 0.05
24.33 1.35 0.8 -24.39 0 0.25 1 0 0 19 2 0 0 0 0 22 0.67 -2.42 -56.06 1220 0.5 0 3.3 0.5 0.03 3.3 1.5 0.5 0.3 1.7 0.02 0 1.7 0.02 0 0 0 0 0 0 0 0 0 0 1 0 0.05
24.43 1.35 0.8 -24.46 0 0.25 1 0 0 19 1 0 0 0 0 22 -0.26 -2.56 -57.47 1220 0.5 0 3.3 0.5 0.03 3.3 1.5 0.5 0.3 1.7 0.02 0 1.7 0.02 0 0 0 0 0 0 0 0 0 0 1 0 0.05
24.529 1.35 0.8 -24.46 -0.06 0.19 1 0 0 19 2 0 0 0 0 22 0.74 -2.35 -57.51 1221 0.5 0 3.3 0.5 0.03 3.3 1.5 0.5 0.3 1.7 0.02 0 1.7 0.02 0 0 0 0 0 0 0 0 0 0 1 0 0.05
24.63 1.35 0.8 -24.52 0 0.25 1 0 0 19 2 0 0 0 0 22 0.69 -2.51 -57.47 1221 0.5 0 3.3 0.5 0.03 3.3 1.5 0.5 0.3 1.7 0.02 0 1.7 0.02 0 0 0 0 0 0 0 0 0 0 1 0 0.05
24.73 1.35 0.8 -24.52 -0.06 0.19 1.06 0 0 19 2 0 0 0 0 22 0.81 -2.51 -57.51 1222 0.5 0 3.3 0.5 0.03 3.3 1.5 0.5 0.3 1.7 0.02 0 1.7 0.02 0 0 0 0 0 0 0 0 0 0 1 0 0.05
24.83 1.35 0.8 -24.59 0 0.25 1 0 0 19 2 0 0 0 0 22 0.72 -2.54 -57.44 1222 0.5 0 3.3 0.5 0.03 3.3 1.5 0.5 0.3 1.7 0.02 0 1.7 0.02 0 0 0 0 0 0 0 0 0 0 1 0 0.05
24.93 1.35 0.8 -24.59 0 0.25 1 0 0 19 2 0 0 0 0 22 0.67 -2.47 -57.54 1221 0.5 0 3.3 0.5 0.03 3.3 1.5 0.5 0.3 1.7 0.02 0 1.7 0.02 0 0 0 0 0 0 0 0 0 0 1 0 0.05
25.029 1.35 0.8 -24.6 -0.06 0.31 1 0 0 19 2 0 0 0 0 22 0.74 -2.62 -55.94 1222 0.5 0 3.3 0.5 0.03 3.3 1.5 0.5 0.3 1.7 0.02 0 1.7 0.02 0 0 0 0 0 0 0 0 0 0 1 0 0.05
25.13 1.36 0.8 -24.63 0 0.19 0.94 0 0 19 2 1 0 0 0 21 0.73 -1.69 -57.46 1218 0.5 0 3.3 0.5 0.03 3.3 1.5 0.5 0.3 1.7 0.02 0 1.7 0.02 0 0 0 0 0 0 0 0 0 0 1 0 0.05
25.23 1.36 0.8 -24.62 0 0.25 0.94 0 0 19 2 0 0 0 0 22 0.72 -2.57 -57.49 1222 0.5 0 3.3 0.5 0.03 3.3 1.5 0.5 0.3 1.7 0.02 0 1.7 0.02 0 0 0 0 0 0 0 0 0 0 1 0 0.05
25.33 1.36 0.8 -24.72 -0.06 0.31 1 0 0 19 2 0 0 0 0 22 0.82 -2.73 -57.49 1220 0.5 0 3.3 0.5 0.03 3.3 1.5 0.5 0.3 1.7 0.02 0 1.7 0.02 0 0 0 0 0 0 0 0 0 0 1 0 0.05
25.43 1.36 0.8 -24.76 0 0.25 1.06 0 0 19 2 0 0 0 0 22 0.65 -2.59 -57.81 1222 0.5 0 3.3 0.5 0.03 3.3 1.5 0.5 0.3 1.7 0.02 0 1.7 0.02 0 0 0 0 0 0 0 0 0 0 1 0 0.05
25.529 1.36 0.8 -24.81 0 0.19 1 0 0 21 2 0 0 0 0 22 0.68 -2.5 -55.94 1221 0.5 0 3.3 0.5 0.03 3.3 1.5 0.5 0.3 1.7 0.02 0 1.7 0.02 0 0 0 0 0 0 0 0 0 0 1 0 0.05
25.63 1.36 0.8 -24.82 0 0.25 1 0 0 19 2 0 0 0 0 22 0.66 -2.63 -57.45 1223 0.5 0 3.3 0.5 0.03 3.3 1.5 0.5 0.3 1.7 0.02 0 1.7 0.02 0 0 0 0 0 0 0 0 0 0 1 0 0.05
25.73 1.36 0.8 -24.85 0 0.31 0.94 0 0 19 2 0 0 0 0 22 0.72 -2.62 -56 1222 0.5 0 3.3 0.5 0.03 3.3 1.5 0.5 0.3 1.7 0.02 0 1.7 0.02 0 0 0 0 0 0 0 0 0 0 1 0 0.05
25.83 1.36 0.8 -24.85 0 0.25 0.88 0 0 19 2 0 0 0 0 22 0.74 -2.7 -57.43 1221 0.5 0 3.3 0.5 0.03 3.3 1.5 0.5 0.3 1.7 0.02 0 1.7 0.02 0 0 0 0 0 0 0 0 0 0 1 0 0.05
25.93 1.36 0.8 -24.91 0 0.25 1 0 0 19 2 0 0 0 0 22 0.74 -2.65 -57.56 1221 0.5 0 3.3 0.5 0.03 3.3 1.5 0.5 0.3 1.7 0.02 0 1.7 0.02 0 0 0 0 0 0 0 0 0 0 1 0 0.05
26.03 1.36 0.8 -24.89 0 0.25 1 0 0 19 2 0 0 0 0 22 0.66 -2.65 -56 1220 0.5 0 3.3 0.5 0.03 3.3 1.5 0.5 0.3 1.7 0.02 0 1.7 0.02 0 0 0 0 0 0 0 0 0 0 1 0 0.05
26.13 1.36 0.8 -24.95 -0.06 0.25 0.94 0 0 19 2 0 0 0 0 22 0.82 -2.67 -57.44 1220 0.5 0 3.3 0.5 0.03 3.3 1.5 0.5 0.3 1.7 0.02 0 1.7 0.02 0 0 0 0 0 0 0 0 0 0 1 0 0.05
26.23 1.35 0.8 -24.95 -0.06 0.25 1 0 0 19 2 0 0 0 0 22 0.84 -2.73 -57.47 1220 0.5 0 3.3 0.5 0.03 3.3 1.5 0.5 0.3 1.7 0.02 0 1.7 0.02 0 0 0 0 0 0 0 0 0 0 1 0 0.05
26.33 1.35 0.8 -25.03 -0.06 0.25 1.06 0 0 19 2 0 0 0 0 22 0.83 -2.7 -56.07 1221 0.5 0 3.3 0.5 0.03 3.3 1.5 0.5 0.3 1.7 0.02 0 1.7 0.02 0 0 0 0 0 0 0 0 0 0 1 0 0.05
26.43 1.35 0.8 -25.03 0 0.25 1 0 0 19 2 0 0 0 0 22 0.67 -2.76 -57.5 1222 0.5 0 3.3 0.5 0.03 3.3 1.5 0.5 0.3 1.7 0.02 0 1.7 0.02 0 0 0 0 0 0 0 0 0 0 1 0 0.05
26.53 1.35 0.8 -25.05 0 0.31 1 0 0 19 2 0 0 0 0 22 0.76 -2.79 -57.46 1220 0.5 0 3.3 0.5 0.03 3.3 1.5 0.5 0.3 1.7 0.02 0 1.7 0.02 0 0 0 0 0 0 0 0 0 0 0.98 0 0.05
26.63 1.36 0.8 -25.06 0 0.19 1.06 0 0 19 2 0 0 0 0 22 0.67 -2.57 -57.6 1220 0.5 0 3.3 0.5 0.03 3.3 1.5 0.5 0.3 1.7 0.02 0 1.7 0.02 0 0 0 0 0 0 0 0 0 0 0.97 0 0.05
26.73 1.36 0.8 -25.07 0 0.19 1 0 0 20 2 0 0 0 0 21 0.68 -2.58 -57.5 1219 0.5 0 3.3 0.5 0.03 3.3 1.5 0.5 0.3 1.7 0.02 0 1.7 0.02 0 0 0 0 0 0 0 0 0 0 0.94 0 0.05
26.83 1.36 0.8 -25.08 0.06 0.31 1 0 0 20 1 0 0 0 0 22 -0.2 -2.88 -56.06 1222 0.5 0 3.3 0.5 0.03 3.3 1.5 0.5 0.3 1.7 0.02 0 1.7 0.02 0 0 0 0 0 0 0 0 0 0 0.94 0 0.05
26.93 1.36 0.8 -25.06 0 0.25 0.94 0 0 19 1 0 0 0 0 22 0.74 -2.69 -55.66 1223 0.5 0 3.3 0.5 0.03 3.3 1.5 0.5 0.3 1.7 0.02 0 1.7 0.02 0 0 0 0 0 0 0 0 0 0 0.94 0 0.05
27.03 1.36 0.8 -25.08 0 0.25 1 0 0 19 2 0 0 0 0 22 0.74 -2.78 -57.47 1220 0.5 0 3.3 0.5 0.03 3.3 1.5 0.5 0.3 1.7 0.02 0 1.7 0.02 0 0 0 0 0 0 0 0 0 0 0.93 0 0.05
27.13 1.36 0.8 -25.06 -0.06 0.25 1 0 0 19 2 0 0 0 0 21 0.83 -2.78 -57.51 1219 0.5 0 3.3 0.5 0.03 3.3 1.5 0.5 0.3 1.7 0.02 0 1.7 0.02 0 0 0 0 0 0 0 0 0 0 0.93 0 0.05
27.23 1.36 0.8 -25.13 -0.06 0.25 0.94 0 0 19 2 0 0 0 0 22 0.84 -2.83 -57.46 1220 0.5 0 3.3 0.5 0.03 3.3 1.5 0.5 0.3 1.7 0.02 0 1.7 0.02 0 0 0 0 0 0 0 0 0 0 0.93 0 0.05
27.33 1.36 0.8 -25.15 -0.06 0.31 0.94 0 0 19 1 0 0 0 0 22 -0.1 -2.8 -57.43 1221 0.5 0 3.3 0.5 0.03 3.3 1.5 0.5 0.3 1.7 0.02 0 1.7 0.02 0 0 0 0 0 0 0 0 0 0 0.93 0 0.05
27.43 1.36 0.8 -25.18 -0.06 0.19 1 0 0 19 2 0 0 0 0 22 0.82 -2.67 -56 1221 0.5 0 3.3 0.5 0.03 3.3 1.5 0.5 0.3 1.7 0.02 0 1.7 0.02 0 0 0 0 0 0 0 0 0 0 0.93 0 0.05
27.53 1.37 0.8 -25.18 -0.06 0.25 1 0 0 19 2 0 0 0 0 22 0.81 -2.8 -57.47 1222 0.5 0 3.3 0.5 0.03 3.3 1.5 0.5 0.3 1.7 0.02 0 1.7 0.02 0 0 0 0 0 0 0 0 0 0 0.92 0 0.05
27.63 1.36 0.8 -25.22 0 0.25 1.12 0 0 19 2 0 0 0 0 22 0.75 -2.83 -57.58 1222 0.5 0 3.3 0.5 0.03 3.3 1.5 0.5 0.3 1.7 0.02 0 1.7 0.02 0 0 0 0 0 0 0 0 0 0 0.9 0 0.05
27.73 1.36 0.8 -25.24 0 0.19 0.94 0 0 19 2 0 0 0 0 22 0.74 -2.84 -55.9 1221 0.5 0 3.3 0.5 0.03 3.3 1.5 0.5 0.3 1.7 0.02 0 1.7 0.02 0 0 0 0 0 0 0 0 0 0 0.88 0 0.05
27.83 1.36 0.8 -25.26 0 0.19 0.94 0 0 19 2 1 0 0 0 22 0.68 -1.93 -57.4 1220 0.5 0 3.3 0.5 0.03 3.3 1.5 0.5 0.3 1.7 0.02 0 1.7 0.02 0 0 0 0 0 0 0 0 0 0 0.86 0 0.05
27.93 1.36 0.8 -25.24 -0.06 0.19 1 0 0 19 2 0 0 0 0 22 0.75 -2.78 -56.04 1222 0.5 0 3.3 0.5 0.03 3.3 1.5 0.5 0.3 1.7 0.02 0 1.7 0.02 0 0 0 0 0 0 0 0 0 0 0.86 0 0.05
28.03 1.36 0.8 -25.31 0 0.19 1.06 0 0 19 2 0 0 0 0 22 0.68 -2.79 -57.53 1222 0.5 0 3.3 0.5 0.03 3.3 1.5 0.5 0.3 1.7 0.02 0 1.7 0.02 0 0 0 0 0 0 0 0 0 0 0.86 0 0.05
28.13 1.36 0.8 -25.3 0 0.25 1.06 0 0 19 2 0 0 0 0 22 0.76 -2.89 -57.51 1222 0.5 0 3.3 0.5 0.03 3.3 1.5 0.5 0.3 1.7 0.02 0 1.7 0.02 0 0 0 0 0 0 0 0 0 0 0.85 0 0.05
28.23 1.36 0.8 -25.28 -0.06 0.25 1.06 0 0 19 2 0 0 0 0 21 0.78 -2.89 -57.44 1219 0.5 0 3.3 0.5 0.03 3.3 1.5 0.5 0.3 1.7 0.02 0 1.7 0.02 0 0 0 0 0 0 0 0 0 0 0.85 0 0.05
28.33 1.36 0.8 -25.31 0 0.31 1 0 0 19 2 0 0 0 0 21 0.76 -3.05 -57.53 1218 0.5 0 3.3 0.5 0.03 3.3 1.5 0.5 0.3 1.7 0.02 0 1.7 0.02 0 0 0 0 0 0 0 0 0 0 0.85 0 0.05
28.43 1.36 0.8 -25.31 0 0.31 0.88 0 0 19 1 0 0 0 0 22 -5.77 -3 -57.42 1221 0.5 0 3.3 0.5 0.03 3.3 1.5 0.5 0.3 1.7 0.02 0 1.7 0.02 0 0 0 0 0 0 0 0 0 0 0.85 0 0.05
28.53 1.36 0.8 -25.38 -0.06 0.19 1.06 0 0 19 2 0 0 0 0 22 0.83 -2.82 -57.61 1221 0.5 0 3.3 0.5 0.03 3.3 1.5 0.5 0.3 1.7 0.02 0 1.7 0.02 0 0 0 0 0 0 0 0 0 0 0.85 0 0.05
28.63 1.36 0.8 -25.37 0 0.25 0.94 0 0 19 2 0 0 0 0 22 0.7 -2.93 -55.68 1221 0.5 0 3.3 0.5 0.03 3.3 1.5 0.5 0.3 1.7 0.02 0 1.7 0.02 0 0 0 0 0 0 0 0 0 0 0.84 0 0.05
28.73 1.36 0.8 -25.37 0 0.25 1.06 0 0 19 1 0 0 0 0 22 -0.08 -2.88 -57.54 1222 0.5 0 3.3 0.5 0.03 3.3 1.5 0.5 0.3 1.7 0.02 0 1.7 0.02 0 0 0 0 0 0 0 0 0 0 0.83 0 0.05
28.83 1.36 0.8 -25.37 0 0.25 0.94 0 0 19 2 0 0 0 0 22 0.7 -2.95 -57.44 1220 0.5 0 3.3 0.5 0.03 3.3 1.5 0.5 0.3 1.7 0.02 0 1.7 0.02 0 0 0 0 0 0 0 0 0 0 0.81 0 0.05
28.93 1.36 0.8 -25.43 0 0.31 1.06 0 0 19 2 0 0 0 0 22 0.68 -3.05 -57.52 1220 0.5 0 3.3 0.5 0.03 3.3 1.5 0.5 0.3 1.7 0.02 0 1.7 0.02 0 0 0 0 0 0 0 0 0 0 0.79 0 0.05
29.03 1.36 0.79 -25.41 -0.06 0.25 1 0 0 19 1 0 0 0 0 22 -0.02 -2.99 -56.01 1222 0.5 0 3.3 0.5 0.03 3.3 1.5 0.5 0.3 1.7 0.02 0 1.7 0.02 0 0 0 0 0 0 0 0 0 0 0.78 0 0.05
29.13 1.35 0.79 -25.43 0 0.25 0.94 0 0 19 2 0 0 0 0 22 0.77 -2.93 -57.43 1222 0.5 0 3.3 0.5 0.03 3.3 1.5 0.5 0.3 1.7 0.02 0 1.7 0.02 0 0 0 0 0 0 0 0 0 0 0.76 0 0.05
29.23 1.35 0.79 -25.42 0 0.25 1.06 0 0 19 1 0 0 0 0 22 -0.13 -2.99 -57.46 1223 0.5 0 3.3 0.5 0.03 3.3 1.5 0.5 0.3 1.7 0.02 0 1.7 0.02 0 0 0 0 0 0 0 0 0 0 0.75 0 0.05
29.33 1.35 0.79 -25.44 -0.06 0.25 0.94 0 0 19 2 0 0 0 0 22 0.84 -2.93 -57.53 1221 0.5 0 3.3 0.5 0.03 3.3 1.5 0.5 0.3 1.7 0.02 0 1.7 0.02 0 0 0 0 0 0 0 0 0 0 0.73 0 0.05
29.43 1.35 0.79 -25.43 0 0.31 0.94 0 0 19 2 0 0 0 0 22 0.78 -3.09 -57.5 1223 0.5 0 3.3 0.5 0.03 3.3 1.5 0.5 0.3 1.7 0.02 0 1.7 0.02 0 0 0 0 0 0 0 0 0 0 0.71 0 0.05
29.53 1.35 0.8 -25.5 0 0.31 0.94 0 0 19 2 0 0 0 0 22 0.78 -3.05 -57.46 1220 0.5 0 3.3 0.5 0.03 3.3 1.5 0.5 0.3 1.7 0.02 0 1.7 0.02 0 0 0 0 0 0 0 0 0 0 0.7 0 0.05
29.63 1.35 0.8 -25.5 -0.06 0.25 1 0 0 19 2 0 0 0 0 21 0.79 -3.11 -55.71 1218 0.5 0 3.3 0.5 0.03 3.3 1.5 0.5 0.3 1.7 0.02 0 1.7 0.02 0 0 0 0 0 0 0 0 0 0 0.68 0 0.05
29.73 1.35 0.8 -25.46 0 0.25 1 0 0 19 2 0 0 0 0 22 0.78 -3.08 -55.96 1221 0.5 0 3.3 0.5 0.03 3.3 1.5 0.5 0.3 1.7 0.02 0 1.7 0.02 0 0 0 0 0 0 0 0 0 0 0.67 0 0.05
29.83 1.35 0.8 -25.48 -0.06 0.31 1.06 0 0 19 2 0 0 0 0 22 0.79 -3.23 -57.54 1221 0.5 0 3.3 0.5 0.03 3.3 1.5 0.5 0.3 1.7 0.02 0 1.7 0.02 0 0 0 0 0 0 0 0 0 0 0.65 0 0.05
29.93 1.35 0.8 -25.47 0 0.25 1 0 0 19 2 0 0 0 0 22 0.79 -3.09 -55.97 1222 0.5 0 3.3 0.5 0.03 3.3 1.5 0.5 0.3 1.7 0.02 0 1.7 0.02 0 0 0 0 0 0 0 0 0 0 0.65 0 0.05
30.03 1.35 0.8 -25.49 -0.06 0.25 1 0 0 20 2 0 0 0 0 22 0.79 -3.15 -57.5 1221 0.5 0 3.3 0.5 0.03 3.3 1.5 0.5 0.3 1.7 0.02 0 1.7 0.02 0 0 0 0 0 0 0 0 0 0 0.65 0 0.05
30.13 1.35 0.8 -25.48 -0.06 0.25 1.06 0 0 19 2 0 0 0 0 22 0.86 -2.98 -57.51 1221 0.5 0 3.3 0.5 0.03 3.3 1.5 0.5 0.3 1.7 0.02 0 1.7 0.02 0 0 0 0 0 0 0 0 0 0 0.64 0 0.05
30.23 1.36 0.8 -25.5 0 0.31 0.94 0 0 19 2 0 0 0 0 22 0.63 -3.21 -57.44 1221 0.5 0 3.3 0.5 0.03 3.3 1.5 0.5 0.3 1.7 0.02 0 1.7 0.02 0 0 0 0 0 0 0 0 0 0 0.64 0 0.05
30.33 1.36 0.8 -25.48 -0.06 0.31 1 0 0 19 2 0 0 0 0 22 0.81 -3.28 -57.5 1222 0.5 0 3.3 0.5 0.03 3.3 1.5 0.5 0.3 1.7 0.02 0 1.7 0.02 0 0 0 0 0 0 0 0 0 0 0.63 0 0.05
30.43 1.36 0.79 -25.46 0 0.25 1.12 0 0 19 2 0 0 0 0 22 0.64 -3.11 -57.61 1220 0.5 0 3.3 0.5 0.03 3.3 1.5 0.5 0.3 1.7 0.02 0 1.7 0.02 0 0 0 0 0 0 0 0 0 0 0.63 0 0.05
30.53 1.36 0.79 -25.44 0 0.25 1 0 0 19 2 0 0 0 0 22 0.72 -3.15 -55.97 1221 0.5 0 3.3 0.5 0.03 3.3 1.5 0.5 0.3 1.7 0.02 0 1.7 0.02 0 0 0 0 0 0 0 0 0 0 0.62 0 0.05
30.63 1.36 0.79 -25.48 0 0.31 1 0 0 19 2 0 0 0 0 22 0.78 -3.22 -56.03 1222 0.5 0 3.3 0.5 0.03 3.3 1.5 0.5 0.3 1.7 0.02 0 1.7 0.02 0 0 0 0 0 0 0 0 0 0 0.62 0 0.05
30.73 1.35 0.8 -25.44 -0.13 0.31 1 0 0 18 2 0 0 0 0 22 0.95 -3.19 -57.58 1223 0.5 0 3.3 0.5 0.03 3.3 1.5 0.5 0.3 1.7 0.02 0 1.7 0.02 0 0 0 0 0 0 0 0 0 0 0.61 0 0.05
30.83 1.35 0.8 -25.41 -0.13 0.25 0.94 0 0 19 2 0 0 0 0 22 0.81 -3.12 -55.69 1221 0.5 0 3.3 0.5 0.03 3.3 1.5 0.5 0.3 1.7 0.02 0 1.7 0.02 0 0 0 0 0 0 0 0 0 0 0.61 0 0.05
30.93 1.35 0.79 -25.37 0 0.25 0.94 0 0 19 2 0 0 0 0 22 0.72 -3.13 -55.9 1222 0.5 0 3.3 0.5 0.03 3.3 1.5 0.5 0.3 1.7 0.02 0 1.7 0.02 0 0 0 0 0 0 0 0 0 0 0.61 0 0.05
31.03 1.35 0.79 -25.4 -0.06 0.25 1.06 0 0 19 2 0 0 0 0 22 0.86 -3.2 -57.47 1221 0.5 0 3.3 0.5 0.03 3.3 1.5 0.5 0.3 1.7 0.02 0 1.7 0.02 0 0 0 0 0 0 0 0 0 0 0.61 0 0.05
31.13 1.35 0.79 -25.39 -0.06 0.19 0.94 0 0 19 2 0 0 0 0 22 0.79 -3.13 -57.46 1222 0.5 0 3.3 0.5 0.03 3.3 1.5 0.5 0.3 1.7 0.02 0 1.7 0.02 0 0 0 0 0 0 0 0 0 0 0.6 0 0.05
31.23 1.35 0.79 -25.36 0 0.25 1.12 0 0 18 2 0 0 0 0 22 0.8 -3.36 -57.61 1221 0.5 0 3.3 0.5 0.03 3.3 1.5 0.5 0.3 1.7 0.02 0 1.7 0.02 0 0 0 0 0 0 0 0 0 0 0.6 0 0.05
31.33 1.36 0.79 -25.36 -0.06 0.25 1 0 0 20 2 0 0 0 0 22 0.86 -3.23 -55.71 1220 0.5 0 3.3 0.5 0.03 3.3 1.5 0.5 0.3 1.7 0.02 0 1.7 0.02 0 0 0 0 0 0 0 0 0 0 0.6 0 0.05
31.43 1.36 0.79 -25.36 0 0.31 1 0 0 19 2 0 0 0 0 22 0.74 -3.32 -57.44 1220 0.5 0 3.3 0.5 0.03 3.3 1.5 0.5 0.3 1.7 0.02 0 1.7 0.02 0 0 0 0 0 0 0 0 0 0 0.6 0 0.05
31.53 1.35 0.79 -25.4 -0.06 0.19 1 0 0 18 2 0 0 0 0 22 0.81 -3.18 -57.43 1221 0.5 0 3.3 0.5 0.03 3.3 1.5 0.5 0.3 1.7 0.02 0 1.7 0.02 0 0 0 0 0 0 0 0 0 0 0.6 0 0.05
31.63 1.35 0.79 -25.4 0 0.19 1.06 0 0 19 2 0 0 0 0 22 0.72 -3.11 -55.77 1220 0.5 0 3.3 0.5 0.03 3.3 1.5 0.5 0.3 1.7 0.02 0 1.7 0.02 0 0 0 0 0 0 0 0 0 0 0.6 0 0.05
31.73 1.35 0.79 -25.48 -0.06 0.25 1.06 0 0 19 1 0 0 0 0 22 0.02 -3.22 -57.52 1223 0.5 0 3.3 0.5 0.03 3.3 1.5 0.5 0.3 1.7 0.02 0 1.7 0.02 0 0 0 0 0 0 0 0 0 0 0.6 0 0.05
31.83 1.35 0.78 -25.48 0 0.25 1 0 0 20 2 0 0 0 0 22 0.74 -3.27 -55.67 1223 0.5 0 3.3 0.5 0.03 3.3 1.5 0.5 0.3 1.7 0.02 0 1.7 0.02 0 0 0 0 0 0 0 0 0 0 0.6 0 0.05
31.93 1.35 0.79 -25.53 0 0.31 0.94 0 0 19 2 0 0 0 0 22 0.81 -3.39 -57.43 1220 0.5 0 3.3 0.5 0.03 3.3 1.5 0.5 0.3 1.7 0.02 0 1.7 0.02 0 0 0 0 0 0 0 0 0 0 0.6 0 0.05
32.03 1.35 0.79 -25.55 -0.06 0.25 1 0 0 19 2 0 0 0 0 22 0.74 -3.3 -57.51 1221 0.5 0 3.3 0.5 0.03 3.3 1.5 0.5 0.3 1.7 0.02 0 1.7 0.02 0 0 0 0 0 0 0 0 0 0 0.6 0 0.05
32.13 1.35 0.79 -25.61 0 0.25 1 0 0 18 2 0 0 0 0 21 0.65 -3.34 -57.5 1219 0.5 0 3.3 0.5 0.03 3.3 1.5 0.5 0.3 1.7 0.02 0 1.7 0.02 0 0 0 0 0 0 0 0 0 0 0.6 0 0.05
32.23 1.35 0.79 -25.59 0 0.25 1 0 0 19 1 0 0 0 0 22 -0.1 -3.27 -55.97 1221 0.5 0 3.3 0.5 0.03 3.3 1.5 0.5 0.3 1.7 0.02 0 1.7 0.02 0 0 0 0 0 0 0 0 0 0 0.6 0 0.05
32.33 1.35 0.78 -25.62 0 0.31 1 0 0 18 2 0 0 0 0 22 0.8 -3.49 -57.51 1221 0.5 0 3.3 0.5 0.03 3.3 1.5 0.5 0.3 1.7 0.02 0 1.7 0.02 0 0 0 0 0 0 0 0 0 0 0.6 0 0.05
32.43 1.35 0.78 -25.6 0 0.19 1 0 0 18 2 0 0 0 0 22 0.73 -3.27 -56 1220 0.5 0 3.3 0.5 0.03 3.3 1.5 0.5 0.3 1.7 0.02 0 1.7 0.02 0 0 0 0 0 0 0 0 0 0 0.6 0 0.05
32.53 1.35 0.78 -25.63 0 0.25 0.94 0 0 19 2 0 0 0 0 22 0.73 -3.36 -57.47 1222 0.5 0 3.3 0.5 0.03 3.3 1.5 0.5 0.3 1.7 0.02 0 1.7 0.02 0 0 0 0 0 0 0 0 0 0 0.6 0 0.05
32.63 1.35 0.78 -25.62 -0.06 0.25 0.94 0 0 19 2 0 0 0 0 22 0.77 -3.37 -55.99 1220 0.5 0 3.3 0.5 0.03 3.3 1.5 0.5 0.3 1.7 0.02 0 1.7 0.02 0 0 0 0 0 0 0 0 0 0 0.6 0 0.05
32.73 1.35 0.78 -25.6 0 0.25 1.06 0 0 18 2 0 0 0 0 22 0.74 -3.52 -57.54 1222 0.5 0 3.3 0.5 0.03 3.3 1.5 0.5 0.3 1.7 0.02 0 1.7 0.02 0 0 0 0 0 0 0 0 0 0 0.6 0 0.05
32.83 1.35 0.78 -25.61 0 0.31 1 0 0 19 2 0 0 0 0 22 0.73 -3.47 -57.56 1221 0.5 0 3.3 0.5 0.03 3.3 1.5 0.5 0.3 1.7 0.02 0 1.7 0.02 0 0 0 0 0 0 0 0 0 0 0.6 0 0.05
32.93 1.36 0.78 -25.6 -0.06 0.31 1 0 0 19 2 0 0 0 0 22 0.88 -3.49 -57.5 1222 0.5 0 3.3 0.5 0.03 3.3 1.5 0.5 0.3 1.7 0.02 0 1.7 0.02 0 0 0 0 0 0 0 0 0 0 0.6 0 0.05
33.03 1.35 0.78 -25.59 -0.13 0.31 1.06 0 0 19 2 0 0 0 0 22 0.83 -3.43 -57.57 1221 0.5 0 3.3 0.5 0.03 3.3 1.5 0.5 0.3 1.7 0.02 0 1.7 0.02 0 0 0 0 0 0 0 0 0 0 0.6 0 0.05
33.13 1.35 0.78 -25.58 -0.06 0.19 1 0 0 18 2 0 0 0 0 22 0.76 -3.26 -57.5 1220 0.5 0 3.3 0.5 0.03 3.3 1.5 0.5 0.3 1.7 0.02 0 1.7 0.02 0 0 0 0 0 0 0 0 0 0 0.6 0 0.05
33.23 1.35 0.78 -25.58 -0.06 0.25 1 0 0 19 2 1 0 0 0 21 0.9 -2.52 -57.56 1219 0.5 0 3.3 0.5 0.03 3.3 1.5 0.5 0.3 1.7 0.02 0 1.7 0.02 0 0 0 0 0 0 0 0 0 0 0.6 0 0.05
33.33 1.35 0.79 -25.57 0 0.19 1 0 0 19 2 0 0 0 0 22 0.73 -3.32 -57.74 1222 0.5 0 3.3 0.5 0.03 3.3 1.5 0.5 0.3 1.7 0.02 0 1.7 0.02 0 0 0 0 0 0 0 0 0 0 0.6 0 0.05
33.43 1.35 0.79 -25.59 -0.13 0.25 1.06 0 0 19 2 0 0 0 0 22 0.83 -3.47 -57.57 1220 0.5 0 3.3 0.5 0.03 3.3 1.5 0.5 0.3 1.7 0.02 0 1.7 0.02 0 0 0 0 0 0 0 0 0 0 0.6 0.12 0.05
33.53 1.35 0.79 -25.59 0 0.25 0.94 0 0 19 2 0 0 0 0 22 0.69 -3.47 -55.6 1223 0.5 0 3.3 0.5 0.03 3.3 1.5 0.5 0.3 1.7 0.02 0 1.7 0.02 0 0 0 0 0 0 0 0 0 0 0.6 0 0.05
33.63 1.35 0.79 -25.66 -0.13 0.25 0.94 0 0 19 2 0 0 0 0 22 0.97 -3.44 -57.46 1222 0.5 0 3.3 0.5 0.03 3.3 1.5 0.5 0.3 1.7 0.02 0 1.7 0.02 0 0 0 0 0 0 0 0 0 0 0.6 0 0.05
33.73 1.35 0.79 -25.66 -0.06 0.25 1.06 0 0 19 2 0 0 0 0 22 0.88 -3.46 -57.48 1222 0.5 0 3.3 0.5 0.03 3.3 1.5 0.5 0.3 1.7 0.02 0 1.7 0.02 0 0 0 0 0 0 0 0 0 0 0.6 0 0.05
33.83 1.36 0.79 -25.69 -0.06 0.31 1 0 0 19 2 0 0 0 0 22 0.88 -3.58 -57.51 1221 0.5 0 3.3 0.5 0.03 3.3 1.5 0.5 0.3 1.7 0.02 0 1.7 0.02 0 0 0 0 0 0 0 0 0 0 0.6 0 0.05
33.93 1.36 0.79 -25.67 -0.06 0.25 1 0 0 19 2 0 0 0 0 21 0.88 -3.48 -56.04 1219 0.5 0 3.3 0.5 0.03 3.3 1.5 0.5 0.3 1.7 0.02 0 1.7 0.02 0 0 0 0 0 0 0 0 0 0 0.6 0 0.05
34.03 1.36 0.79 -25.72 0 0.25 0.94 0 0 19 2 0 0 0 0 22 0.81 -3.62 -57.79 1222 0.5 0 3.3 0.5 0.03 3.3 1.5 0.5 0.3 1.7 0.02 0 1.7 0.02 0 0 0 0 0 0 0 0 0 0 0.6 0 0.05
34.13 1.36 0.79 -25.71 -0.13 0.25 1 0 0 19 2 0 0 0 0 22 0.98 -3.54 -56.01 1223 0.5 0 3.3 0.5 0.03 3.3 1.5 0.5 0.3 1.7 0.02 0 1.7 0.02 0 0 0 0 0 0 0 0 0 0 0.6 0 0.05
34.23 1.36 0.79 -25.71 -0.06 0.25 1 0 0 19 2 0 0 0 0 22 0.89 -3.56 -57.54 1220 0.5 0 3.3 0.5 0.03 3.3 1.5 0.5 0.3 1.7 0.02 0 1.7 0.02 0 0 0 0 0 0 0 0 0 0 0.6 0 0.05
34.33 1.36 0.79 -25.71 -0.06 0.25 0.94 0 0 19 2 0 0 0 0 22 0.89 -3.56 -55.93 1221 0.5 0 3.3 0.5 0.03 3.3 1.5 0.5 0.3 1.7 0.02 0 1.7 0.02 0 0 0 0 0 0 0 0 0 0 0.6 0 0.05
34.43 1.36 0.8 -25.7 0 0.25 1 0 0 19 2 0 0 0 0 22 0.81 -3.62 -57.51 1223 0.5 0 3.3 0.5 0.03 3.3 1.5 0.5 0.3 1.7 0.02 0 1.7 0.02 0 0 0 0 0 0 0 0 0 0 0.6 0 0.05
34.53 1.36 0.8 -25.74 0 0.19 1 0 0 19 2 0 0 0 0 22 0.8 -3.53 -57.54 1220 0.5 0 3.3 0.5 0.03 3.3 1.5 0.5 0.3 1.7 0.02 0 1.7 0.02 0 0 0 0 0 0 0 0 0 0 0.6 0 0.05
34.63 1.36 0.8 -25.74 0 0.31 1 0 0 19 2 0 0 0 0 22 0.81 -3.71 -55.97 1223 0.5 0 3.3 0.5 0.03 3.3 1.5 0.5 0.3 1.7 0.02 0 1.7 0.02 0 0 0 0 0 0 0 0 0 0 0.6 0 0.05
34.73 1.36 0.8 -25.74 0 0.25 1 0 0 19 2 1 0 0 0 22 0.73 -2.71 -57.53 1220 0.5 0 3.3 0.5 0.03 3.3 1.5 0.5 0.3 1.7 0.02 0 1.7 0.02 0 0 0 0 0 0 0 0 0 0 0.6 0 0.05
34.831 1.37 0.79 -25.72 0 0.19 1 0 0 19 2 0 0 0 0 22 0.74 -3.54 -57.43 1221 0.5 0 3.3 0.5 0.03 3.3 1.5 0.5 0.3 1.7 0.02 0 1.7 0.02 0 0 0 0 0 0 0 0 0 0 0.6 0 0.05
34.93 1.37 0.79 -25.75 0 0.25 0.94 0 0 19 2 0 0 0 0 22 0.8 -3.57 -57.41 1220 0.5 0 3.3 0.5 0.03 3.3 1.5 0.5 0.3 1.7 0.02 0 1.7 0.02 0 0 0 0 0 0 0 0 0 0 0.6 1.51 0.05
35.03 1.36 0.79 -25.73 0 0.31 1 0 0 19 2 0 0 0 0 22 0.75 -3.73 -57.84 1221 0.5 0 3.3 0.5 0.03 3.3 1.5 0.5 0.3 1.7 0.02 0 1.7 0.02 0 0 0 0 0 0 0 0 0 0 0.6 1.51 0.05
35.131 1.36 0.79 -25.73 -0.06 0.31 1.06 0 0 19 2 0 0 0 0 22 0.9 -3.69 -57.54 1221 0.5 0 3.3 0.5 0.03 3.3 1.5 0.5 0.3 1.7 0.02 0 1.7 0.02 0 0 0 0 0 0 0 0 0 0 0.6 1.51 0.05
35.23 1.37 0.79 -25.7 0 0.31 1 0 0 19 2 0 0 0 0 22 0.68 -3.77 -57.5 1220 0.5 0 3.3 0.5 0.03 3.3 1.5 0.5 0.3 1.7 0.02 0 1.7 0.02 0 0 0 0 0 0 0 0 0 0 0.6 1.51 0.05
35.33 1.37 0.79 -25.71 0 0.19 0.94 0 0 19 2 0 0 0 0 22 0.74 -3.61 -57.44 1221 0.5 0 3.3 0.5 0.03 3.3 1.5 0.5 0.3 1.7 0.02 0 1.7 0.02 0 0 0 0 0 0 0 0 0 0 0.6 1.51 0.05
35.43 1.36 0.79 -25.67 0 0.19 1.06 0 0 19 1 0 0 0 0 22 -0.09 -3.67 -57.54 1224 0.5 0 3.3 0.5 0.03 3.3 1.5 0.5 0.3 1.7 0.02 0 1.7 0.02 0 0 0 0 0 0 0 0 0 0 0.6 1.51 0.05
35.53 1.36 0.79 -25.7 -0.06 0.19 1 0 0 19 2 0 0 0 0 22 0.83 -3.65 -57.56 1222 0.5 0 3.3 0.5 0.03 3.3 1.5 0.5 0.3 1.7 0.02 0 1.7 0.02 0 0 0 0 0 0 0 0 0 0 0.6 1.51 0.05
35.63 1.36 0.78 -25.71 0 0.25 1 0 0 19 2 0 0 0 0 22 0.82 -3.65 -57.49 1221 0.5 0 3.3 0.5 0.03 3.3 1.5 0.5 0.3 1.7 0.02 0 1.7 0.02 0 0 0 0 0 0 0 0 0 0 0.6 1.51 0.05
35.73 1.36 0.79 -25.69 0 0.25 0.88 0 0 19 2 0 0 0 0 22 0.69 -3.75 -57.46 1221 0.5 0 3.3 0.5 0.03 3.3 1.5 0.5 0.3 1.7 0.02 0 1.7 0.02 0 0 0 0 0 0 0 0 0 0 0.6 1.51 0.05
35.835 1.36 0.79 -25.73 0 0.19 1 0 0 19 2 0 0 0 0 22 0.82 -3.6 -57.46 1221 0.5 0 3.3 0.5 0.03 3.3 1.5 0.5 0.3 1.7 0.02 0 1.7 0.02 0 0 0 0 0 0 0 0 0 0 0.6 1.51 0.05
35.93 1.36 0.79 -25.72 -0.06 0.31 1 0 0 19 2 0 0 0 0 22 0.91 -3.85 -57.47 1222 0.5 0 3.3 0.5 0.03 3.3 1.5 0.5 0.3 1.7 0.02 0 1.7 0.02 0 0 0 0 0 0 0 0 0 0 0.6 1.51 0.05
36.03 1.36 0.79 -25.72 -0.06 0.31 1 0 0 19 2 0 0 0 0 21 0.9 -3.94 -57.46 1219 0.5 0 3.3 0.5 0.03 3.3 1.5 0.5 0.3 1.7 0.02 0 1.7 0.02 0 0 0 0 0 0 0 0 0 0 0.6 1.51 0.05
36.131 1.37 0.79 -25.7 -0.06 0.25 1 0 0 19 2 1 0 0 0 21 0.91 -2.87 -57.49 1219 0.5 0 3.3 0.5 0.03 3.3 1.5 0.5 0.3 1.7 0.02 0 1.7 0.02 0 0 0 0 0 0 0 0 0 0 0.6 1.51 0.05
36.231 1.37 0.79 -25.67 0 0.25 1 0 0 19 2 0 0 0 0 22 0.82 -3.73 -57.77 1222 0.5 0 3.3 0.5 0.03 3.3 1.5 0.5 0.3 1.7 0.02 0 1.7 0.02 0 0 0 0 0 0 0 0 0 0 0.6 1.51 0.05
36.331 1.36 0.79 -25.69 0 0.25 1 0 0 19 2 0 0 0 0 22 0.82 -3.87 -57.49 1221 0.5 0 3.3 0.5 0.03 3.3 1.5 0.5 0.3 1.7 0.02 0 1.7 0.02 0 0 0 0 0 0 0 0 0 0 0.6 1.51 0.05
36.43 1.36 0.79 -25.71 -0.06 0.25 1 0 0 20 2 0 0 0 0 22 0.91 -3.83 -57.47 1220 0.5 0 3.3 0.5 0.03 3.3 1.5 0.5 0.3 1.7 0.02 0 1.7 0.02 0 0 0 0 0 0 0 0 0 0 0.6 1.51 0.05
36.53 1.36 0.79 -25.66 0 0.31 1 0 0 19 2 0 0 0 0 22 0.69 -3.91 -57.53 1221 0.5 0 3.3 0.5 0.03 3.3 1.5 0.5 0.3 1.7 0.02 0 1.7 0.02 0 0 0 0 0 0 0 0 0 0 0.6 1.51 0.05
36.63 1.36 0.8 -25.66 0 0.25 1.06 0 0 19 2 0 0 0 0 22 0.85 -3.88 -57.47 1221 0.5 0 3.3 0.5 0.03 3.3 1.5 0.5 0.3 1.7 0.02 0 1.7 0.02 0 0 0 0 0 0 0 0 0 0 0.6 1.51 0.05
36.73 1.36 0.8 -25.63 -0.06 0.25 0.94 0 0 20 2 0 0 0 0 22 0.91 -3.8 -57.43 1221 0.5 0 3.3 0.5 0.03 3.3 1.5 0.5 0.3 1.7 0.02 0 1.7 0.02 0 0 0 0 0 0 0 0 0 0 0.6 1.51 0.05
36.831 1.36 0.8 -25.67 0 0.31 1 0 0 19 2 0 0 0 0 22 0.77 -3.96 -57.44 1221 0.5 0 3.3 0.5 0.03 3.3 1.5 0.5 0.3 1.7 0.02 0 1.7 0.02 0 0 0 0 0 0 0 0 0 0 0.6 1.51 0.05
36.931 1.36 0.8 -25.67 0 0.31 0.94 0 0 20 2 0 0 0 0 22 0.82 -3.97 -57.41 1221 0.5 0 3.3 0.5 0.03 3.3 1.5 0.5 0.3 1.7 0.02 0 1.7 0.02 0 0 0 0 0 0 0 0 0 0 0.6 1.51 0.05
37.031 1.36 0.8 -25.67 -0.06 0.31 0.94 0 0 19 2 0 0 0 0 22 0.93 -4 -57.47 1221 0.5 0 3.3 0.5 0.03 3.3 1.5 0.5 0.3 1.7 0.02 0 1.7 0.02 0 0 0 0 0 0 0 0 0 0 0.6 1.51 0.05
37.131 1.36 0.8 -25.62 -0.06 0.25 1 0 0 19 2 0 0 0 0 22 0.85 -3.84 -57.49 1221 0.5 0 3.3 0.5 0.03 3.3 1.5 0.5 0.3 1.7 0.02 0 1.7 0.02 0 0 0 0 0 0 0 0 0 0 0.6 1.51 0.05
37.231 1.36 0.8 -25.58 -0.06 0.25 1 0 0 20 2 0 0 0 0 22 0.93 -3.92 -57.46 1221 0.5 0 3.3 0.5 0.03 3.3 1.5 0.5 0.3 1.7 0.02 0 1.7 0.02 0 0 0 0 0 0 0 0 0 0 0.6 1.51 0.05
37.33 1.36 0.8 -25.62 0 0.25 1 0 0 19 2 0 0 0 0 22 0.84 -3.93 -57.53 1221 0.5 0 3.3 0.5 0.03 3.3 1.5 0.5 0.3 1.7 0.02 0 1.7 0.02 0 0 0 0 0 0 0 0 0 0 0.6 1.51 0.05
37.43 1.36 0.8 -25.59 0 0.25 1.06 0 0 19 2 0 0 0 0 22 0.69 -3.95 -57.57 1220 0.5 0 3.3 0.5 0.03 3.3 1.5 0.5 0.3 1.7 0.02 0 1.7 0.02 0 0 0 0 0 0 0 0 0 0 0.6 1.51 0.05
37.53 1.36 0.8 -25.58 -0.06 0.31 1 0 0 19 2 0 0 0 0 22 0.85 -3.99 -57.56 1222 0.5 0 3.3 0.5 0.03 3.3 1.5 0.5 0.3 1.7 0.02 0 1.7 0.02 0 0 0 0 0 0 0 0 0 0 0.6 1.51 0.05
37.63 1.36 0.8 -25.57 0 0.25 1 0 0 19 2 0 0 0 0 22 0.86 -4.05 -57.59 1221 0.5 0 3.3 0.5 0.03 3.3 1.5 0.5 0.3 1.7 0.02 0 1.7 0.02 0 0 0 0 0 0 0 0 0 0 0.6 1.51 0.05
37.731 1.36 0.79 -25.55 0 0.25 1.06 0 0 19 2 0 0 0 0 22 0.83 -3.93 -57.47 1222 0.5 0 3.3 0.5 0.03 3.3 1.5 0.5 0.3 1.7 0.02 0 1.7 0.02 0 0 0 0 0 0 0 0 0 0 0.6 1.51 0.05
37.831 1.36 0.79 -25.55 0 0.25 1 0 0 19 2 0 0 0 0 22 0.83 -4.01 -57.45 1222 0.5 0 3.3 0.5 0.03 3.3 1.5 0.5 0.3 1.7 0.02 0 1.7 0.02 0 0 0 0 0 0 0 0 0 0 0.6 1.51 0.05
37.931 1.36 0.79 -25.62 -0.06 0.25 1.06 0 0 19 2 0 0 0 0 22 0.94 -3.93 -57.54 1221 0.5 0 3.3 0.5 0.03 3.3 1.5 0.5 0.3 1.7 0.02 0 1.7 0.02 0 0 0 0 0 0 0 0 0 0 0.6 1.51 0.05
38.031 1.36 0.79 -25.62 0 0.31 1 0 0 19 2 0 0 0 0 22 0.78 -4.11 -57.5 1221 0.5 0 3.3 0.5 0.03 3.3 1.5 0.5 0.3 1.7 0.02 0 1.7 0.02 0 0 0 0 0 0 0 0 0 0 0.6 1.51 0.05
38.131 1.36 0.79 -25.65 0 0.19 0.94 0 0 19 2 0 0 0 0 22 0.85 -4.01 -57.46 1221 0.5 0 3.3 0.5 0.03 3.3 1.5 0.5 0.3 1.7 0.02 0 1.7 0.02 0 0 0 0 0 0 0 0 0 0 0.6 1.51 0.05
38.231 1.36 0.79 -25.63 0 0.25 0.94 0 0 20 2 0 0 0 0 22 0.77 -4.05 -57.76 1222 0.5 0 3.3 0.5 0.03 3.3 1.5 0.5 0.3 1.7 0.02 0 1.7 0.02 0 0 0 0 0 0 0 0 0 0 0.6 1.51 0.05
38.331 1.36 0.79 -25.67 -0.06 0.31 1 0 0 19 2 0 0 0 0 22 0.93 -4.14 -57.44 1222 0.5 0 3.3 0.5 0.03 3.3 1.5 0.5 0.3 1.7 0.02 0 1.7 0.02 0 0 0 0 0 0 0 0 0 0 0.6 1.51 0.05
38.431 1.36 0.8 -25.7 -0.13 0.19 1 0 0 19 2 0 0 0 0 22 0.93 -4.02 -57.5 1222 0.5 0 3.3 0.5 0.03 3.3 1.5 0.5 0.3 1.7 0.02 0 1.7 0.02 0 0 0 0 0 0 0 0 0 0 0.6 1.51 0.05
38.531 1.36 0.8 -25.75 0 0.25 1 0 0 20 2 0 0 0 0 22 0.86 -4.12 -57.57 1221 0.5 0 3.3 0.5 0.03 3.3 1.5 0.5 0.3 1.7 0.02 0 1.7 0.02 0 0 0 0 0 0 0 0 0 0 0.6 1.51 0.05
38.631 1.36 0.8 -25.73 0 0.25 1.06 0 0 19 2 0 0 0 0 22 0.85 -4.04 -57.54 1221 0.5 0 3.3 0.5 0.03 3.3 1.5 0.5 0.3 1.7 0.02 0 1.7 0.02 0 0 0 0 0 0 0 0 0 0 0.6 1.51 0.05
38.731 1.36 0.8 -25.71 -0.06 0.25 1.06 0 0 19 2 0 0 0 0 22 0.81 -4.13 -57.5 1222 0.5 0 3.3 0.5 0.03 3.3 1.5 0.5 0.3 1.7 0.02 0 1.7 0.02 0 0 0 0 0 0 0 0 0 0 0.6 1.51 0.05
38.831 1.36 0.8 -25.73 0 0.25 1 0 0 19 2 0 0 0 0 22 0.8 -4.15 -57.5 1221 0.5 0 3.3 0.5 0.03 3.3 1.5 0.5 0.3 1.7 0.02 0 1.7 0.02 0 0 0 0 0 0 0 0 0 0 0.6 1.51 0.06
38.931 1.36 0.8 -25.71 -0.06 0.25 0.94 0 0 20 2 0 0 0 0 22 0.93 -4.08 -57.49 1221 0.5 0 3.3 0.5 0.03 3.3 1.5 0.5 0.3 1.7 0.02 0 1.7 0.02 0 0 0 0 0 0 0 0 0 0 0.6 1.51 0.08
39.031 1.36 0.8 -25.73 0 0.31 1 0 0 19 2 0 0 0 0 22 0.79 -4.24 -57.44 1221 0.5 0 3.3 0.5 0.03 3.3 1.5 0.5 0.3 1.7 0.02 0 1.7 0.02 0 0 0 0 0 0 0 0 0 0 0.6 1.51 0.09
39.131 1.36 0.8 -25.75 0 0.37 0.88 0 0 19 2 0 0 0 0 22 0.79 -4.32 -57.46 1222 0.5 0 3.3 0.5 0.03 3.3 1.5 0.5 0.3 1.7 0.02 0 1.7 0.02 0 0 0 0 0 0 0 0 0 0 0.6 1.51 0.11
39.231 1.36 0.8 -25.81 -0.06 0.25 1.06 0 0 19 2 0 0 0 0 22 0.95 -4.17 -57.51 1221 0.5 0 3.3 0.5 0.03 3.3 1.5 0.5 0.3 1.7 0.02 0 1.7 0.02 0 0 0 0 0 0 0 0 0 0 0.6 1.51 0.13
39.331 1.36 0.8 -25.8 0 0.31 1 0 0 19 2 0 0 0 0 22 0.86 -4.29 -55.97 1222 0.5 0 3.3 0.5 0.03 3.3 1.5 0.5 0.3 1.7 0.02 0 1.7 0.02 0 0 0 0 0 0 0 0 0 0 0.6 1.51 0.14
39.431 1.36 0.81 -25.77 0 0.31 0.94 0 0 19 2 0 0 0 0 22 0.86 -4.3 -57.53 1221 0.5 0 3.3 0.5 0.03 3.3 1.5 0.5 0.3 1.7 0.02 0 1.7 0.02 0 0 0 0 0 0 0 0 0 0 0.6 1.51 0.16
39.531 1.37 0.8 -25.75 0 0.19 1.06 0 0 19 2 0 0 0 0 22 0.77 -4.07 -57.47 1220 0.5 0 3.3 0.5 0.03 3.3 1.5 0.5 0.3 1.7 0.02 0 1.7 0.02 0 0 0 0 0 0 0 0 0 0 0.6 1.51 0.17
39.631 1.37 0.8 -25.78 -0.06 0.25 1 0 0 19 2 0 0 0 0 22 0.93 -4.22 -57.53 1221 0.5 0 3.3 0.5 0.03 3.3 1.5 0.5 0.3 1.7 0.02 0 1.7 0.02 0 0 0 0 0 0 0 0 0 0 0.6 1.51 0.19
39.731 1.37 0.8 -25.78 -0.06 0.25 1.12 0 0 19 2 0 0 0 0 22 0.77 -4.22 -57.55 1223 0.5 0 3.3 0.5 0.03 3.3 1.5 0.5 0.3 1.7 0.02 0 1.7 0.02 0 0 0 0 0 0 0 0 0 0 0.6 1.51 0.21
39.831 1.38 0.8 -25.82 -0.06 0.25 1.06 0 0 20 2 0 0 0 0 22 0.94 -4.28 -57.51 1220 0.5 0 3.3 0.5 0.03 3.3 1.5 0.5 0.3 1.7 0.02 0 1.7 0.02 0 0 0 0 0 0 0 0 0 0 0.6 1.51 0.22
39.931 1.38 0.8 -25.81 -0.06 0.25 1 0 0 19 2 0 0 0 0 22 0.92 -4.2 -57.47 1222 0.5 0 3.3 0.5 0.03 3.3 1.5 0.5 0.3 1.7 0.02 0 1.7 0.02 0 0 0 0 0 0 0 0 0 0 0.6 1.51 0.24
40.031 1.38 0.8 -25.83 0 0.31 1 0 0 19 2 0 0 0 0 22 0.84 -4.22 -57.54 1222 0.5 0 3.3 0.5 0.03 3.3 1.5 0.5 0.3 1.7 0.02 0 1.7 0.02 0 0 0 0 0 0 0 0 0 0 0.6 1.51 0.25
40.131 1.38 0.8 -25.81 0 0.25 1 0 0 19 2 0 0 0 0 22 0.79 -4.21 -57.53 1221 0.5 0 3.3 0.5 0.03 3.3 1.5 0.5 0.3 1.7 0.02 0 1.7 0.02 0 0 0 0 0 0 0 0 0 0 0.6 1.51 0.27
40.231 1.38 0.8 -25.85 0 0.31 1 0 0 19 2 0 0 0 0 22 0.84 -4.23 -57.44 1222 0.5 0 3.3 0.5 0.03 3.3 1.5 0.5 0.3 1.7 0.02 0 1.7 0.02 0 0 0 0 0 0 0 0 0 0 0.6 1.51 0.29
40.331 1.38 0.8 -25.84 0 0.25 1 0 0 16 2 0 0 0 0 22 0.85 -4.23 -57.57 1222 0.5 0 3.3 0.5 0.03 3.3 1.5 0.5 0.3 1.7 0.02 0 1.7 0.02 0 0 0 0 0 0 0 0 0 0 0.6 1.51 0.3
40.431 1.38 0.8 -25.84 -0.06 0.25 1 0 0 19 2 0 0 0 0 22 0.85 -4.17 -57.5 1223 0.5 0 3.3 0.5 0.03 3.3 1.5 0.5 0.3 1.7 0.02 0 1.7 0.02 0 0 0 0 0 0 0 0 0 0 0.6 1.51 0.32
40.531 1.38 0.8 -25.88 0 0.31 1 0 0 19 2 0 0 0 0 22 0.86 -4.22 -57.51 1223 0.5 0 3.3 0.5 0.03 3.3 1.5 0.5 0.3 1.7 0.02 0 1.7 0.02 0 0 0 0 0 0 0 0 0 0 0.6 1.51 0.34
40.631 1.38 0.8 -25.86 -0.06 0.25 1.06 0 0 19 2 0 0 0 0 22 0.93 -4.23 -57.59 1222 0.5 0 3.3 0.5 0.03 3.3 1.5 0.5 0.3 1.7 0.02 0 1.7 0.02 0 0 0 0 0 0 0 0 0 0 0.6 1.51 0.35
40.731 1.37 0.8 -25.89 0 0.19 1 0 0 19 2 0 0 0 0 22 0.79 -4.21 -57.52 1221 0.5 0 3.3 0.5 0.03 3.3 1.5 0.5 0.3 1.7 0.02 0 1.7 0.02 0 0 0 0 0 0 0 0 0 0 0.6 1.51 0.37
40.831 1.37 0.79 -25.85 -0.13 0.25 1 0 0 19 2 0 0 0 0 22 0.95 -4.24 -57.51 1221 0.5 0 3.3 0.5 0.03 3.3 1.5 0.5 0.3 1.7 0.02 0 1.7 0.02 0 0 0 0 0 0 0 0 0 0 0.6 1.51 0.38
40.931 1.37 0.79 -25.88 -0.06 0.19 1 0 0 19 2 0 0 0 0 22 0.88 -4.09 -57.44 1221 0.5 0 3.3 0.5 0.03 3.3 1.5 0.5 0.3 1.7 0.02 0 1.7 0.02 0 0 0 0 0 0 0 0 0 0 0.6 1.51 0.4
41.031 1.37 0.79 -25.85 0 0.31 1 0 0 19 2 0 0 0 0 22 0.8 -4.38 -57.49 1221 0.5 0 3.3 0.5 0.03 3.3 1.5 0.5 0.3 1.7 0.02 0 1.7 0.02 0 0 0 0 0 0 0 0 0 0 0.6 1.51 0.42
41.131 1.37 0.79 -25.82 -0.06 0.19 0.94 0 0 19 2 0 0 0 0 22 0.8 -4.07 -57.43 1222 0.5 0 3.3 0.5 0.03 3.3 1.5 0.5 0.3 1.7 0.02 0 1.7 0.02 0 0 0 0 0 0 0 0 0 0 0.6 1.51 0.43
41.231 1.37 0.79 -25.83 0 0.25 1.06 0 0 19 2 0 0 0 0 22 0.79 -4.23 -57.62 1222 0.5 0 3.3 0.5 0.03 3.3 1.5 0.5 0.3 1.7 0.02 0 1.7 0.02 0 0 0 0 0 0 0 0 0 0 0.6 1.51 0.43
41.331 1.37 0.79 -25.88 0 0.37 1 0 0 20 2 0 0 0 0 22 0.87 -4.31 -57.5 1224 0.5 0 3.3 0.5 0.03 3.3 1.5 0.5 0.3 1.7 0.02 0 1.7 0.02 0 0 0 0 0 0 0 0 0 0 0.6 1.51 0.43
41.431 1.38 0.8 -25.85 -0.06 0.25 1.06 0 0 19 2 0 0 0 0 22 0.86 -4.23 -57.54 1223 0.5 0 3.3 0.5 0.03 3.3 1.5 0.5 0.3 1.7 0.02 0 1.7 0.02 0 0 0 0 0 0 0 0 0 0 0.6 1.51 0.43
41.531 1.37 0.79 -25.85 -0.06 0.25 1.06 0 0 19 2 0 0 0 0 22 0.81 -4.21 -57.54 1222 0.5 0 3.3 0.5 0.03 3.3 1.5 0.5 0.3 1.7 0.02 0 1.7 0.02 0 0 0 0 0 0 0 0 0 0 0.6 1.51 0.43
41.631 1.37 0.79 -25.83 -0.06 0.19 1.06 0 0 18 2 0 0 0 0 22 0.89 -4.27 -57.58 1221 0.5 0 3.3 0.5 0.03 3.3 1.5 0.5 0.3 1.7 0.02 0 1.7 0.02 0 0 0 0 0 0 0 0 0 0 0.6 1.51 0.43
41.731 1.37 0.79 -25.85 -0.06 0.31 0.94 0 0 19 2 0 0 0 0 22 0.95 -4.23 -57.37 1221 0.5 0 3.3 0.5 0.03 3.3 1.5 0.5 0.3 1.7 0.02 0 1.7 0.02 0 0 0 0 0 0 0 0 0 0 0.6 1.51 0.43
41.831 1.38 0.79 -25.81 0 0.25 1 0 0 19 1 0 0 0 0 22 0.02 -4.21 -57.51 1223 0.5 0 3.3 0.5 0.03 3.3 1.5 0.5 0.3 1.7 0.02 0 1.7 0.02 0 0 0 0 0 0 0 0 0 0 0.6 1.51 0.43
41.931 1.38 0.79 -25.81 -0.13 0.31 1.06 0 0 19 2 0 0 0 0 22 0.97 -4.24 -57.6 1221 0.5 0 3.3 0.5 0.03 3.3 1.5 0.5 0.3 1.7 0.02 0 1.7 0.02 0 0 0 0 0 0 0 0 0 0 0.6 1.51 0.43
