time roll pitch yaw roll_d pitch_d yaw_d longitude latitude height roll_t pitch_t yaw_t longitude_t latitude_t height_t roll_signal pitch_signal yaw_signal throttle Kp_r_d Ki_r_d Kd_r_d Kp_p_d Ki_p_d Kd_p_d Kp_y_d Ki_y_d Kd_y_d Kp_r Ki_r Kd_r Kp_p Ki_p Kd_p Kp_y Ki_y Kd_y Kp_lon Ki_lon Kd_lon Kp_lat Ki_lat Kd_lat Kp_h Ki_h Kd_h
0 0 0 0 0 0 0 0 0 0 0 0 0 0 0 25 0 0 0 1250 0.5 0.1 0.3 0.5 0.1 0.3 1.5 0.5 0.3 1.7 0 0 1.7 0 0 0 0 0 0 0 0 0 0 0 1.5 0 0.11
0 0 0 0 0 0 0 0 0 0 0 0 0 0 0 25 0 0 0 1250 0.5 0.1 0.3 0.5 0.1 0.3 1.5 0.5 0.3 1.7 0 0 1.7 0 0 0 0 0 0 0 0 0 0 0 1.5 0 0.11
0 0 0 0 0 0 0 0 0 0 0 0 0 0 0 25 0 0 0 1250 0.5 0.1 0.3 0.5 0.1 0.3 1.5 0.5 0.3 1.7 0 0 1.7 0 0 0 0 0 0 0 0 0 0 0 1.5 0 0.11
0 0 0 0 0 0 0 0 0 0 0 0 0 0 0 25 0 0 0 1250 0.5 0.1 0.3 0.5 0.1 0.3 1.5 0.5 0.3 1.7 0 0 1.7 0 0 0 0 0 0 0 0 0 0 0 1.5 0 0.11
0 0 0 0 0 0 0 0 0 0 0 0 0 0 0 25 0 0 0 1250 0.5 0.1 0.3 0.5 0.1 0.3 1.5 0.5 0.3 1.7 0 0 1.7 0 0 0 0 0 0 0 0 0 0 0 1.5 0 0.11
0 0 0 0 0 0 0 0 0 0 0 0 0 0 0 25 0 0 0 1250 0.5 0.1 0.3 0.5 0.1 0.3 1.5 0.5 0.3 1.7 0 0 1.7 0 0 0 0 0 0 0 0 0 0 0 1.5 0 0.11
0 0 0 0 0 0 0 0 0 0 0 0 0 0 0 25 0 0 0 1250 0.5 0.1 0.3 0.5 0.1 0.3 1.5 0.5 0.3 1.7 0 0 1.7 0 0 0 0 0 0 0 0 0 0 0 1.5 0 0.11
0 0 0 0 0 0 0 0 0 0 0 0 0 0 0 25 0 0 0 1250 0.5 0.1 0.3 0.5 0.1 0.3 1.5 0.5 0.3 1.7 0 0 1.7 0 0 0 0 0 0 0 0 0 0 0 1.5 0 0.11
0 0 0 0 0 0 0 0 0 0 0 0 0 0 0 25 0 0 0 1250 0.5 0.1 0.3 0.5 0.1 0.3 1.5 0.5 0.3 1.7 0 0 1.7 0 0 0 0 0 0 0 0 0 0 0 1.5 0 0.11
0 0 0 0 0 0 0 0 0 0 0 0 0 0 0 25 0 0 0 1250 0.5 0.1 0.3 0.5 0.1 0.3 1.5 0.5 0.3 1.7 0 0 1.7 0 0 0 0 0 0 0 0 0 0 0 1.5 0 0.11
0 0 0 0 0 0 0 0 0 0 0 0 0 0 0 25 0 0 0 1250 0.5 0.1 0.3 0.5 0.1 0.3 1.5 0.5 0.3 1.7 0 0 1.7 0 0 0 0 0 0 0 0 0 0 0 1.5 0 0.11
0 0 0 0 0 0 0 0 0 0 0 0 0 0 0 25 0 0 0 1250 0.5 0.1 0.3 0.5 0.1 0.3 1.5 0.5 0.3 1.7 0 0 1.7 0 0 0 0 0 0 0 0 0 0 0 1.5 0 0.11
0 0 0 0 0 0 0 0 0 0 0 0 0 0 0 25 0 0 0 1250 0.5 0.1 0.3 0.5 0.1 0.3 1.5 0.5 0.3 1.7 0 0 1.7 0 0 0 0 0 0 0 0 0 0 0 1.5 0 0.11
0 0 0 0 0 0 0 0 0 0 0 0 0 0 0 25 0 0 0 1250 0.5 0.1 0.3 0.5 0.1 0.3 1.5 0.5 0.3 1.7 0 0 1.7 0 0 0 0 0 0 0 0 0 0 0 1.5 0 0.11
0 0 0 0 0 0 0 0 0 0 0 0 0 0 0 25 0 0 0 1250 0.5 0.1 0.3 0.5 0.1 0.3 1.5 0.5 0.3 1.7 0 0 1.7 0 0 0 0 0 0 0 0 0 0 0 1.5 0 0.11
0 0 0 0 0 0 0 0 0 0 0 0 0 0 0 25 0 0 0 1250 0.5 0.1 0.3 0.5 0.1 0.3 1.5 0.5 0.3 1.7 0 0 1.7 0 0 0 0 0 0 0 0 0 0 0 1.5 0 0.11
0 0 0 0 0 0 0 0 0 0 0 0 0 0 0 25 0 0 0 1250 0.5 0.1 0.3 0.5 0.1 0.3 1.5 0.5 0.3 1.7 0 0 1.7 0 0 0 0 0 0 0 0 0 0 0 1.5 0 0.11
0 0 0 0 0 0 0 0 0 0 0 0 0 0 0 25 0 0 0 1250 0.5 0.1 0.3 0.5 0.1 0.3 1.5 0.5 0.3 1.7 0 0 1.7 0 0 0 0 0 0 0 0 0 0 0 1.5 0 0.11
0 0 0 0 0 0 0 0 0 0 0 0 0 0 0 25 0 0 0 1250 0.5 0.1 0.3 0.5 0.1 0.3 1.5 0.5 0.3 1.7 0 0 1.7 0 0 0 0 0 0 0 0 0 0 0 1.5 0 0.11
0 0 0 0 0 0 0 0 0 0 0 0 0 0 0 25 0 0 0 1250 0.5 0.1 0.3 0.5 0.1 0.3 1.5 0.5 0.3 1.7 0 0 1.7 0 0 0 0 0 0 0 0 0 0 0 1.5 0 0.11
0 0 0 0 0 0 0 0 0 0 0 0 0 0 0 25 0 0 0 1250 0.5 0.1 0.3 0.5 0.1 0.3 1.5 0.5 0.3 1.7 0 0 1.7 0 0 0 0 0 0 0 0 0 0 0 1.5 0 0.11
0 0 0 0 0 0 0 0 0 0 0 0 0 0 0 25 0 0 0 1250 0.5 0.1 0.3 0.5 0.1 0.3 1.5 0.5 0.3 1.7 0 0 1.7 0 0 0 0 0 0 0 0 0 0 0 1.5 0 0.11
0 0 0 0 0 0 0 0 0 0 0 0 0 0 0 25 0 0 0 1250 0.5 0.1 0.3 0.5 0.1 0.3 1.5 0.5 0.3 1.7 0 0 1.7 0 0 0 0 0 0 0 0 0 0 0 1.5 0 0.11
0 0 0 0 0 0 0 0 0 0 0 0 0 0 0 25 0 0 0 1250 0.5 0.1 0.3 0.5 0.1 0.3 1.5 0.5 0.3 1.7 0 0 1.7 0 0 0 0 0 0 0 0 0 0 0 1.5 0 0.11
0 0 0 0 0 0 0 0 0 0 0 0 0 0 0 25 0 0 0 1250 0.5 0.1 0.3 0.5 0.1 0.3 1.5 0.5 0.3 1.7 0 0 1.7 0 0 0 0 0 0 0 0 0 0 0 1.5 0 0.11
0 0 0 0 0 0 0 0 0 0 0 0 0 0 0 25 0 0 0 1250 0.5 0.1 0.3 0.5 0.1 0.3 1.5 0.5 0.3 1.7 0 0 1.7 0 0 0 0 0 0 0 0 0 0 0 1.5 0 0.11
0 0 0 0 0 0 0 0 0 0 0 0 0 0 0 25 0 0 0 1250 0.5 0.1 0.3 0.5 0.1 0.3 1.5 0.5 0.3 1.7 0 0 1.7 0 0 0 0 0 0 0 0 0 0 0 1.5 0 0.11
0 0 0 0 0 0 0 0 0 0 0 0 0 0 0 25 0 0 0 1250 0.5 0.1 0.3 0.5 0.1 0.3 1.5 0.5 0.3 1.7 0 0 1.7 0 0 0 0 0 0 0 0 0 0 0 1.5 0 0.11
0 0 0 0 0 0 0 0 0 0 0 0 0 0 0 25 0 0 0 1250 0.5 0.1 0.3 0.5 0.1 0.3 1.5 0.5 0.3 1.7 0 0 1.7 0 0 0 0 0 0 0 0 0 0 0 1.5 0 0.11
0 0 0 0 0 0 0 0 0 0 0 0 0 0 0 25 0 0 0 1250 0.5 0.1 0.3 0.5 0.1 0.3 1.5 0.5 0.3 1.7 0 0 1.7 0 0 0 0 0 0 0 0 0 0 0 1.5 0 0.11
0 0 0 0 0 0 0 0 0 0 0 0 0 0 0 25 0 0 0 1250 0.5 0.1 0.3 0.5 0.1 0.3 1.5 0.5 0.3 1.7 0 0 1.7 0 0 0 0 0 0 0 0 0 0 0 1.5 0 0.11
0 0 0 0 0 0 0 0 0 0 0 0 0 0 0 25 0 0 0 1250 0.5 0.1 0.3 0.5 0.1 0.3 1.5 0.5 0.3 1.7 0 0 1.7 0 0 0 0 0 0 0 0 0 0 0 1.5 0 0.11
0 0 0 0 0 0 0 0 0 0 0 0 0 0 0 25 0 0 0 1250 0.5 0.1 0.3 0.5 0.1 0.3 1.5 0.5 0.3 1.7 0 0 1.7 0 0 0 0 0 0 0 0 0 0 0 1.5 0 0.11
0 0 0 0 0 0 0 0 0 0 0 0 0 0 0 25 0 0 0 1250 0.5 0.1 0.3 0.5 0.1 0.3 1.5 0.5 0.3 1.7 0 0 1.7 0 0 0 0 0 0 0 0 0 0 0 1.5 0 0.11
0 0 0 0 0 0 0 0 0 0 0 0 0 0 0 25 0 0 0 1250 0.5 0.1 0.3 0.5 0.1 0.3 1.5 0.5 0.3 1.7 0 0 1.7 0 0 0 0 0 0 0 0 0 0 0 1.5 0 0.11
0 0 0 0 0 0 0 0 0 0 0 0 0 0 0 25 0 0 0 1250 0.5 0.1 0.3 0.5 0.1 0.3 1.5 0.5 0.3 1.7 0 0 1.7 0 0 0 0 0 0 0 0 0 0 0 1.5 0 0.11
0 0 0 0 0 0 0 0 0 0 0 0 0 0 0 25 0 0 0 1250 0.5 0.1 0.3 0.5 0.1 0.3 1.5 0.5 0.3 1.7 0 0 1.7 0 0 0 0 0 0 0 0 0 0 0 1.5 0 0.11
0 0 0 0 0 0 0 0 0 0 0 0 0 0 0 25 0 0 0 1250 0.5 0.1 0.3 0.5 0.1 0.3 1.5 0.5 0.3 1.7 0 0 1.7 0 0 0 0 0 0 0 0 0 0 0 1.5 0 0.11
0 0 0 0 0 0 0 0 0 0 0 0 0 0 0 25 0 0 0 1250 0.5 0.1 0.3 0.5 0.1 0.3 1.5 0.5 0.3 1.7 0 0 1.7 0 0 0 0 0 0 0 0 0 0 0 1.5 0 0.11
0 0 0 0 0 0 0 0 0 0 0 0 0 0 0 25 0 0 0 1250 0.5 0.1 0.3 0.5 0.1 0.3 1.5 0.5 0.3 1.7 0 0 1.7 0 0 0 0 0 0 0 0 0 0 0 1.5 0 0.11
0 0 0 0 0 0 0 0 0 0 0 0 0 0 0 25 0 0 0 1250 0.5 0.1 0.3 0.5 0.1 0.3 1.5 0.5 0.3 1.7 0 0 1.7 0 0 0 0 0 0 0 0 0 0 0 1.5 0 0.11
0 0 0 0 0 0 0 0 0 0 0 0 0 0 0 25 0 0 0 1250 0.5 0.1 0.3 0.5 0.1 0.3 1.5 0.5 0.3 1.7 0 0 1.7 0 0 0 0 0 0 0 0 0 0 0 1.5 0 0.11
0 0 0 0 0 0 0 0 0 0 0 0 0 0 0 25 0 0 0 1250 0.5 0.1 0.3 0.5 0.1 0.3 1.5 0.5 0.3 1.7 0 0 1.7 0 0 0 0 0 0 0 0 0 0 0 1.5 0 0.11
0 0 0 0 0 0 0 0 0 0 0 0 0 0 0 25 0 0 0 1250 0.5 0.1 0.3 0.5 0.1 0.3 1.5 0.5 0.3 1.7 0 0 1.7 0 0 0 0 0 0 0 0 0 0 0 1.5 0 0.11
0 0 0 0 0 0 0 0 0 0 0 0 0 0 0 25 0 0 0 1250 0.5 0.1 0.3 0.5 0.1 0.3 1.5 0.5 0.3 1.7 0 0 1.7 0 0 0 0 0 0 0 0 0 0 0 1.5 0 0.11
0 0 0 0 0 0 0 0 0 0 0 0 0 0 0 25 0 0 0 1250 0.5 0.1 0.3 0.5 0.1 0.3 1.5 0.5 0.3 1.7 0 0 1.7 0 0 0 0 0 0 0 0 0 0 0 1.5 0 0.11
0 0 0 0 0 0 0 0 0 0 0 0 0 0 0 25 0 0 0 1250 0.5 0.1 0.3 0.5 0.1 0.3 1.5 0.5 0.3 1.7 0 0 1.7 0 0 0 0 0 0 0 0 0 0 0 1.5 0 0.11
0 0 0 0 0 0 0 0 0 0 0 0 0 0 0 25 0 0 0 1250 0.5 0.1 0.3 0.5 0.1 0.3 1.5 0.5 0.3 1.7 0 0 1.7 0 0 0 0 0 0 0 0 0 0 0 1.5 0 0.11
0 0 0 0 0 0 0 0 0 0 0 0 0 0 0 25 0 0 0 1250 0.5 0.1 0.3 0.5 0.1 0.3 1.5 0.5 0.3 1.7 0 0 1.7 0 0 0 0 0 0 0 0 0 0 0 1.5 0 0.11
0 0 0 0 0 0 0 0 0 0 0 0 0 0 0 25 0 0 0 1250 0.5 0.1 0.3 0.5 0.1 0.3 1.5 0.5 0.3 1.7 0 0 1.7 0 0 0 0 0 0 0 0 0 0 0 1.5 0 0.11
0 0 0 0 0 0 0 0 0 0 0 0 0 0 0 25 0 0 0 1250 0.5 0.1 0.3 0.5 0.1 0.3 1.5 0.5 0.3 1.7 0 0 1.7 0 0 0 0 0 0 0 0 0 0 0 1.5 0 0.11
0 0 0 0 0 0 0 0 0 0 0 0 0 0 0 25 0 0 0 1250 0.5 0.1 0.3 0.5 0.1 0.3 1.5 0.5 0.3 1.7 0 0 1.7 0 0 0 0 0 0 0 0 0 0 0 1.5 0 0.11
0 0 0 0 0 0 0 0 0 0 0 0 0 0 0 25 0 0 0 1250 0.5 0.1 0.3 0.5 0.1 0.3 1.5 0.5 0.3 1.7 0 0 1.7 0 0 0 0 0 0 0 0 0 0 0 1.5 0 0.11
0 0 0 0 0 0 0 0 0 0 0 0 0 0 0 25 0 0 0 1250 0.5 0.1 0.3 0.5 0.1 0.3 1.5 0.5 0.3 1.7 0 0 1.7 0 0 0 0 0 0 0 0 0 0 0 1.5 0 0.11
0 0 0 0 0 0 0 0 0 0 0 0 0 0 0 25 0 0 0 1250 0.5 0.1 0.3 0.5 0.1 0.3 1.5 0.5 0.3 1.7 0 0 1.7 0 0 0 0 0 0 0 0 0 0 0 1.5 0 0.11
0 0 0 0 0 0 0 0 0 0 0 0 0 0 0 25 0 0 0 1250 0.5 0.1 0.3 0.5 0.1 0.3 1.5 0.5 0.3 1.7 0 0 1.7 0 0 0 0 0 0 0 0 0 0 0 1.5 0 0.11
0 0 0 0 0 0 0 0 0 0 0 0 0 0 0 25 0 0 0 1250 0.5 0.1 0.3 0.5 0.1 0.3 1.5 0.5 0.3 1.7 0 0 1.7 0 0 0 0 0 0 0 0 0 0 0 1.5 0 0.11
0 0 0 0 0 0 0 0 0 0 0 0 0 0 0 25 0 0 0 1250 0.5 0.1 0.3 0.5 0.1 0.3 1.5 0.5 0.3 1.7 0 0 1.7 0 0 0 0 0 0 0 0 0 0 0 1.5 0 0.11
0 0 0 0 0 0 0 0 0 0 0 0 0 0 0 25 0 0 0 1250 0.5 0.1 0.3 0.5 0.1 0.3 1.5 0.5 0.3 1.7 0 0 1.7 0 0 0 0 0 0 0 0 0 0 0 1.5 0 0.11
0 0 0 0 0 0 0 0 0 0 0 0 0 0 0 25 0 0 0 1250 0.5 0.1 0.3 0.5 0.1 0.3 1.5 0.5 0.3 1.7 0 0 1.7 0 0 0 0 0 0 0 0 0 0 0 1.5 0 0.11
0 0 0 0 0 0 0 0 0 0 0 0 0 0 0 25 0 0 0 1250 0.5 0.1 0.3 0.5 0.1 0.3 1.5 0.5 0.3 1.7 0 0 1.7 0 0 0 0 0 0 0 0 0 0 0 1.5 0 0.11
0 0 0 0 0 0 0 0 0 0 0 0 0 0 0 25 0 0 0 1250 0.5 0.1 0.3 0.5 0.1 0.3 1.5 0.5 0.3 1.7 0 0 1.7 0 0 0 0 0 0 0 0 0 0 0 1.5 0 0.11
0 0 0 0 0 0 0 0 0 0 0 0 0 0 0 25 0 0 0 1250 0.5 0.1 0.3 0.5 0.1 0.3 1.5 0.5 0.3 1.7 0 0 1.7 0 0 0 0 0 0 0 0 0 0 0 1.5 0 0.11
0 0 0 0 0 0 0 0 0 0 0 0 0 0 0 25 0 0 0 1250 0.5 0.1 0.3 0.5 0.1 0.3 1.5 0.5 0.3 1.7 0 0 1.7 0 0 0 0 0 0 0 0 0 0 0 1.5 0 0.11
0 0 0 0 0 0 0 0 0 0 0 0 0 0 0 25 0 0 0 1250 0.5 0.1 0.3 0.5 0.1 0.3 1.5 0.5 0.3 1.7 0 0 1.7 0 0 0 0 0 0 0 0 0 0 0 1.5 0 0.11
0 0 0 0 0 0 0 0 0 0 0 0 0 0 0 25 0 0 0 1250 0.5 0.1 0.3 0.5 0.1 0.3 1.5 0.5 0.3 1.7 0 0 1.7 0 0 0 0 0 0 0 0 0 0 0 1.5 0 0.11
0 0 0 0 0 0 0 0 0 0 0 0 0 0 0 25 0 0 0 1250 0.5 0.1 0.3 0.5 0.1 0.3 1.5 0.5 0.3 1.7 0 0 1.7 0 0 0 0 0 0 0 0 0 0 0 1.5 0 0.11
0 0 0 0 0 0 0 0 0 0 0 0 0 0 0 25 0 0 0 1250 0.5 0.1 0.3 0.5 0.1 0.3 1.5 0.5 0.3 1.7 0 0 1.7 0 0 0 0 0 0 0 0 0 0 0 1.5 0 0.11
0 0 0 0 0 0 0 0 0 0 0 0 0 0 0 25 0 0 0 1250 0.5 0.1 0.3 0.5 0.1 0.3 1.5 0.5 0.3 1.7 0 0 1.7 0 0 0 0 0 0 0 0 0 0 0 1.5 0 0.11
0 0 0 0 0 0 0 0 0 0 0 0 0 0 0 25 0 0 0 1250 0.5 0.1 0.3 0.5 0.1 0.3 1.5 0.5 0.3 1.7 0 0 1.7 0 0 0 0 0 0 0 0 0 0 0 1.5 0 0.11
0 0 0 0 0 0 0 0 0 0 0 0 0 0 0 25 0 0 0 1250 0.5 0.1 0.3 0.5 0.1 0.3 1.5 0.5 0.3 1.7 0 0 1.7 0 0 0 0 0 0 0 0 0 0 0 1.5 0 0.11
0 0 0 0 0 0 0 0 0 0 0 0 0 0 0 25 0 0 0 1250 0.5 0.1 0.3 0.5 0.1 0.3 1.5 0.5 0.3 1.7 0 0 1.7 0 0 0 0 0 0 0 0 0 0 0 1.5 0 0.11
0 0 0 0 0 0 0 0 0 0 0 0 0 0 0 25 0 0 0 1250 0.5 0.1 0.3 0.5 0.1 0.3 1.5 0.5 0.3 1.7 0 0 1.7 0 0 0 0 0 0 0 0 0 0 0 1.5 0 0.11
0 0 0 0 0 0 0 0 0 0 0 0 0 0 0 25 0 0 0 1250 0.5 0.1 0.3 0.5 0.1 0.3 1.5 0.5 0.3 1.7 0 0 1.7 0 0 0 0 0 0 0 0 0 0 0 1.5 0 0.11
0 0 0 0 0 0 0 0 0 0 0 0 0 0 0 25 0 0 0 1250 0.5 0.1 0.3 0.5 0.1 0.3 1.5 0.5 0.3 1.7 0 0 1.7 0 0 0 0 0 0 0 0 0 0 0 1.5 0 0.11
0 0 0 0 0 0 0 0 0 0 0 0 0 0 0 25 0 0 0 1250 0.5 0.1 0.3 0.5 0.1 0.3 1.5 0.5 0.3 1.7 0 0 1.7 0 0 0 0 0 0 0 0 0 0 0 1.5 0 0.11
0 0 0 0 0 0 0 0 0 0 0 0 0 0 0 25 0 0 0 1250 0.5 0.1 0.3 0.5 0.1 0.3 1.5 0.5 0.3 1.7 0 0 1.7 0 0 0 0 0 0 0 0 0 0 0 1.5 0 0.11
0 0 0 0 0 0 0 0 0 0 0 0 0 0 0 25 0 0 0 1250 0.5 0.1 0.3 0.5 0.1 0.3 1.5 0.5 0.3 1.7 0 0 1.7 0 0 0 0 0 0 0 0 0 0 0 1.5 0 0.11
0 0 0 0 0 0 0 0 0 0 0 0 0 0 0 25 0 0 0 1250 0.5 0.1 0.3 0.5 0.1 0.3 1.5 0.5 0.3 1.7 0 0 1.7 0 0 0 0 0 0 0 0 0 0 0 1.5 0 0.11
0 0 0 0 0 0 0 0 0 0 0 0 0 0 0 25 0 0 0 1250 0.5 0.1 0.3 0.5 0.1 0.3 1.5 0.5 0.3 1.7 0 0 1.7 0 0 0 0 0 0 0 0 0 0 0 1.5 0 0.11
0 0 0 0 0 0 0 0 0 0 0 0 0 0 0 25 0 0 0 1250 0.5 0.1 0.3 0.5 0.1 0.3 1.5 0.5 0.3 1.7 0 0 1.7 0 0 0 0 0 0 0 0 0 0 0 1.5 0 0.11
0 0 0 0 0 0 0 0 0 0 0 0 0 0 0 25 0 0 0 1250 0.5 0.1 0.3 0.5 0.1 0.3 1.5 0.5 0.3 1.7 0 0 1.7 0 0 0 0 0 0 0 0 0 0 0 1.5 0 0.11
0 0 0 0 0 0 0 0 0 0 0 0 0 0 0 25 0 0 0 1250 0.5 0.1 0.3 0.5 0.1 0.3 1.5 0.5 0.3 1.7 0 0 1.7 0 0 0 0 0 0 0 0 0 0 0 1.5 0 0.11
0 0 0 0 0 0 0 0 0 0 0 0 0 0 0 25 0 0 0 1250 0.5 0.1 0.3 0.5 0.1 0.3 1.5 0.5 0.3 1.7 0 0 1.7 0 0 0 0 0 0 0 0 0 0 0 1.5 0 0.11
0 0 0 0 0 0 0 0 0 0 0 0 0 0 0 25 0 0 0 1250 0.5 0.1 0.3 0.5 0.1 0.3 1.5 0.5 0.3 1.7 0 0 1.7 0 0 0 0 0 0 0 0 0 0 0 1.5 0 0.11
0 0 0 0 0 0 0 0 0 0 0 0 0 0 0 25 0 0 0 1250 0.5 0.1 0.3 0.5 0.1 0.3 1.5 0.5 0.3 1.7 0 0 1.7 0 0 0 0 0 0 0 0 0 0 0 1.5 0 0.11
0 0 0 0 0 0 0 0 0 0 0 0 0 0 0 25 0 0 0 1250 0.5 0.1 0.3 0.5 0.1 0.3 1.5 0.5 0.3 1.7 0 0 1.7 0 0 0 0 0 0 0 0 0 0 0 1.5 0 0.11
0 0 0 0 0 0 0 0 0 0 0 0 0 0 0 25 0 0 0 1250 0.5 0.1 0.3 0.5 0.1 0.3 1.5 0.5 0.3 1.7 0 0 1.7 0 0 0 0 0 0 0 0 0 0 0 1.5 0 0.11
0 0 0 0 0 0 0 0 0 0 0 0 0 0 0 25 0 0 0 1250 0.5 0.1 0.3 0.5 0.1 0.3 1.5 0.5 0.3 1.7 0 0 1.7 0 0 0 0 0 0 0 0 0 0 0 1.5 0 0.11
0 0 0 0 0 0 0 0 0 0 0 0 0 0 0 25 0 0 0 1250 0.5 0.1 0.3 0.5 0.1 0.3 1.5 0.5 0.3 1.7 0 0 1.7 0 0 0 0 0 0 0 0 0 0 0 1.5 0 0.11
0 0 0 0 0 0 0 0 0 0 0 0 0 0 0 25 0 0 0 1250 0.5 0.1 0.3 0.5 0.1 0.3 1.5 0.5 0.3 1.7 0 0 1.7 0 0 0 0 0 0 0 0 0 0 0 1.5 0 0.11
0 0 0 0 0 0 0 0 0 0 0 0 0 0 0 25 0 0 0 1250 0.5 0.1 0.3 0.5 0.1 0.3 1.5 0.5 0.3 1.7 0 0 1.7 0 0 0 0 0 0 0 0 0 0 0 1.5 0 0.11
0 0 0 0 0 0 0 0 0 0 0 0 0 0 0 25 0 0 0 1250 0.5 0.1 0.3 0.5 0.1 0.3 1.5 0.5 0.3 1.7 0 0 1.7 0 0 0 0 0 0 0 0 0 0 0 1.5 0 0.11
0 0 0 0 0 0 0 0 0 0 0 0 0 0 0 25 0 0 0 1250 0.5 0.1 0.3 0.5 0.1 0.3 1.5 0.5 0.3 1.7 0 0 1.7 0 0 0 0 0 0 0 0 0 0 0 1.5 0 0.11
0 0 0 0 0 0 0 0 0 0 0 0 0 0 0 25 0 0 0 1250 0.5 0.1 0.3 0.5 0.1 0.3 1.5 0.5 0.3 1.7 0 0 1.7 0 0 0 0 0 0 0 0 0 0 0 1.5 0 0.11
0 0 0 0 0 0 0 0 0 0 0 0 0 0 0 25 0 0 0 1250 0.5 0.1 0.3 0.5 0.1 0.3 1.5 0.5 0.3 1.7 0 0 1.7 0 0 0 0 0 0 0 0 0 0 0 1.5 0 0.11
0 0 0 0 0 0 0 0 0 0 0 0 0 0 0 25 0 0 0 1250 0.5 0.1 0.3 0.5 0.1 0.3 1.5 0.5 0.3 1.7 0 0 1.7 0 0 0 0 0 0 0 0 0 0 0 1.5 0 0.11
0 0 0 0 0 0 0 0 0 0 0 0 0 0 0 25 0 0 0 1250 0.5 0.1 0.3 0.5 0.1 0.3 1.5 0.5 0.3 1.7 0 0 1.7 0 0 0 0 0 0 0 0 0 0 0 1.5 0 0.11
0 0 0 0 0 0 0 0 0 0 0 0 0 0 0 25 0 0 0 1250 0.5 0.1 0.3 0.5 0.1 0.3 1.5 0.5 0.3 1.7 0 0 1.7 0 0 0 0 0 0 0 0 0 0 0 1.5 0 0.11
0 0 0 0 0 0 0 0 0 0 0 0 0 0 0 25 0 0 0 1250 0.5 0.1 0.3 0.5 0.1 0.3 1.5 0.5 0.3 1.7 0 0 1.7 0 0 0 0 0 0 0 0 0 0 0 1.5 0 0.11
0 0 0 0 0 0 0 0 0 0 0 0 0 0 0 25 0 0 0 1250 0.5 0.1 0.3 0.5 0.1 0.3 1.5 0.5 0.3 1.7 0 0 1.7 0 0 0 0 0 0 0 0 0 0 0 1.5 0 0.11
0 0 0 0 0 0 0 0 0 0 0 0 0 0 0 25 0 0 0 1250 0.5 0.1 0.3 0.5 0.1 0.3 1.5 0.5 0.3 1.7 0 0 1.7 0 0 0 0 0 0 0 0 0 0 0 1.5 0 0.11
0 0 0 0 0 0 0 0 0 0 0 0 0 0 0 25 0 0 0 1250 0.5 0.1 0.3 0.5 0.1 0.3 1.5 0.5 0.3 1.7 0 0 1.7 0 0 0 0 0 0 0 0 0 0 0 1.5 0 0.11
0 0 0 0 0 0 0 0 0 0 0 0 0 0 0 25 0 0 0 1250 0.5 0.1 0.3 0.5 0.1 0.3 1.5 0.5 0.3 1.7 0 0 1.7 0 0 0 0 0 0 0 0 0 0 0 1.5 0 0.11
0 0 0 0 0 0 0 0 0 0 0 0 0 0 0 25 0 0 0 1250 0.5 0.1 0.3 0.5 0.1 0.3 1.5 0.5 0.3 1.7 0 0 1.7 0 0 0 0 0 0 0 0 0 0 0 1.5 0 0.11
0 0 0 0 0 0 0 0 0 0 0 0 0 0 0 25 0 0 0 1250 0.5 0.1 0.3 0.5 0.1 0.3 1.5 0.5 0.3 1.7 0 0 1.7 0 0 0 0 0 0 0 0 0 0 0 1.5 0 0.11
0 0 0 0 0 0 0 0 0 0 0 0 0 0 0 25 0 0 0 1250 0.5 0.1 0.3 0.5 0.1 0.3 1.5 0.5 0.3 1.7 0 0 1.7 0 0 0 0 0 0 0 0 0 0 0 1.5 0 0.11
0 0 0 0 0 0 0 0 0 0 0 0 0 0 0 25 0 0 0 1250 0.5 0.1 0.3 0.5 0.1 0.3 1.5 0.5 0.3 1.7 0 0 1.7 0 0 0 0 0 0 0 0 0 0 0 1.5 0 0.11
0 0 0 0 0 0 0 0 0 0 0 0 0 0 0 25 0 0 0 1250 0.5 0.1 0.3 0.5 0.1 0.3 1.5 0.5 0.3 1.7 0 0 1.7 0 0 0 0 0 0 0 0 0 0 0 1.5 0 0.11
0 0 0 0 0 0 0 0 0 0 0 0 0 0 0 25 0 0 0 1250 0.5 0.1 0.3 0.5 0.1 0.3 1.5 0.5 0.3 1.7 0 0 1.7 0 0 0 0 0 0 0 0 0 0 0 1.5 0 0.11
0 0 0 0 0 0 0 0 0 0 0 0 0 0 0 25 0 0 0 1250 0.5 0.1 0.3 0.5 0.1 0.3 1.5 0.5 0.3 1.7 0 0 1.7 0 0 0 0 0 0 0 0 0 0 0 1.5 0 0.11
0 0 0 0 0 0 0 0 0 0 0 0 0 0 0 25 0 0 0 1250 0.5 0.1 0.3 0.5 0.1 0.3 1.5 0.5 0.3 1.7 0 0 1.7 0 0 0 0 0 0 0 0 0 0 0 1.5 0 0.11
0 0 0 0 0 0 0 0 0 0 0 0 0 0 0 25 0 0 0 1250 0.5 0.1 0.3 0.5 0.1 0.3 1.5 0.5 0.3 1.7 0 0 1.7 0 0 0 0 0 0 0 0 0 0 0 1.5 0 0.11
0 0 0 0 0 0 0 0 0 0 0 0 0 0 0 25 0 0 0 1250 0.5 0.1 0.3 0.5 0.1 0.3 1.5 0.5 0.3 1.7 0 0 1.7 0 0 0 0 0 0 0 0 0 0 0 1.5 0 0.11
0 0 0 0 0 0 0 0 0 0 0 0 0 0 0 25 0 0 0 1250 0.5 0.1 0.3 0.5 0.1 0.3 1.5 0.5 0.3 1.7 0 0 1.7 0 0 0 0 0 0 0 0 0 0 0 1.5 0 0.11
0 0 0 0 0 0 0 0 0 0 0 0 0 0 0 25 0 0 0 1250 0.5 0.1 0.3 0.5 0.1 0.3 1.5 0.5 0.3 1.7 0 0 1.7 0 0 0 0 0 0 0 0 0 0 0 1.5 0 0.11
0 0 0 0 0 0 0 0 0 0 0 0 0 0 0 25 0 0 0 1250 0.5 0.1 0.3 0.5 0.1 0.3 1.5 0.5 0.3 1.7 0 0 1.7 0 0 0 0 0 0 0 0 0 0 0 1.5 0 0.11
0 0 0 0 0 0 0 0 0 0 0 0 0 0 0 25 0 0 0 1250 0.5 0.1 0.3 0.5 0.1 0.3 1.5 0.5 0.3 1.7 0 0 1.7 0 0 0 0 0 0 0 0 0 0 0 1.5 0 0.11
0 0 0 0 0 0 0 0 0 0 0 0 0 0 0 25 0 0 0 1250 0.5 0.1 0.3 0.5 0.1 0.3 1.5 0.5 0.3 1.7 0 0 1.7 0 0 0 0 0 0 0 0 0 0 0 1.5 0 0.11
0 0 0 0 0 0 0 0 0 0 0 0 0 0 0 25 0 0 0 1250 0.5 0.1 0.3 0.5 0.1 0.3 1.5 0.5 0.3 1.7 0 0 1.7 0 0 0 0 0 0 0 0 0 0 0 1.5 0 0.11
0 0 0 0 0 0 0 0 0 0 0 0 0 0 0 25 0 0 0 1250 0.5 0.1 0.3 0.5 0.1 0.3 1.5 0.5 0.3 1.7 0 0 1.7 0 0 0 0 0 0 0 0 0 0 0 1.5 0 0.11
0 0 0 0 0 0 0 0 0 0 0 0 0 0 0 25 0 0 0 1250 0.5 0.1 0.3 0.5 0.1 0.3 1.5 0.5 0.3 1.7 0 0 1.7 0 0 0 0 0 0 0 0 0 0 0 1.5 0 0.11
0 0 0 0 0 0 0 0 0 0 0 0 0 0 0 25 0 0 0 1250 0.5 0.1 0.3 0.5 0.1 0.3 1.5 0.5 0.3 1.7 0 0 1.7 0 0 0 0 0 0 0 0 0 0 0 1.5 0 0.11
0 0 0 0 0 0 0 0 0 0 0 0 0 0 0 25 0 0 0 1250 0.5 0.1 0.3 0.5 0.1 0.3 1.5 0.5 0.3 1.7 0 0 1.7 0 0 0 0 0 0 0 0 0 0 0 1.5 0 0.11
0 0 0 0 0 0 0 0 0 0 0 0 0 0 0 25 0 0 0 1250 0.5 0.1 0.3 0.5 0.1 0.3 1.5 0.5 0.3 1.7 0 0 1.7 0 0 0 0 0 0 0 0 0 0 0 1.5 0 0.11
0 0 0 0 0 0 0 0 0 0 0 0 0 0 0 25 0 0 0 1250 0.5 0.1 0.3 0.5 0.1 0.3 1.5 0.5 0.3 1.7 0 0 1.7 0 0 0 0 0 0 0 0 0 0 0 1.5 0 0.11
0 0 0 0 0 0 0 0 0 0 0 0 0 0 0 25 0 0 0 1250 0.5 0.1 0.3 0.5 0.1 0.3 1.5 0.5 0.3 1.7 0 0 1.7 0 0 0 0 0 0 0 0 0 0 0 1.5 0 0.11
0 0 0 0 0 0 0 0 0 0 0 0 0 0 0 25 0 0 0 1250 0.5 0.1 0.3 0.5 0.1 0.3 1.5 0.5 0.3 1.7 0 0 1.7 0 0 0 0 0 0 0 0 0 0 0 1.5 0 0.11
0 0 0 0 0 0 0 0 0 0 0 0 0 0 0 25 0 0 0 1250 0.5 0.1 0.3 0.5 0.1 0.3 1.5 0.5 0.3 1.7 0 0 1.7 0 0 0 0 0 0 0 0 0 0 0 1.5 0 0.11
0 0 0 0 0 0 0 0 0 0 0 0 0 0 0 25 0 0 0 1250 0.5 0.1 0.3 0.5 0.1 0.3 1.5 0.5 0.3 1.7 0 0 1.7 0 0 0 0 0 0 0 0 0 0 0 1.5 0 0.11
0 0 0 0 0 0 0 0 0 0 0 0 0 0 0 25 0 0 0 1250 0.5 0.1 0.3 0.5 0.1 0.3 1.5 0.5 0.3 1.7 0 0 1.7 0 0 0 0 0 0 0 0 0 0 0 1.5 0 0.11
0 0 0 0 0 0 0 0 0 0 0 0 0 0 0 25 0 0 0 1250 0.5 0.1 0.3 0.5 0.1 0.3 1.5 0.5 0.3 1.7 0 0 1.7 0 0 0 0 0 0 0 0 0 0 0 1.5 0 0.11
0 0 0 0 0 0 0 0 0 0 0 0 0 0 0 25 0 0 0 1250 0.5 0.1 0.3 0.5 0.1 0.3 1.5 0.5 0.3 1.7 0 0 1.7 0 0 0 0 0 0 0 0 0 0 0 1.5 0 0.11
0 0 0 0 0 0 0 0 0 0 0 0 0 0 0 25 0 0 0 1250 0.5 0.1 0.3 0.5 0.1 0.3 1.5 0.5 0.3 1.7 0 0 1.7 0 0 0 0 0 0 0 0 0 0 0 1.5 0 0.11
0 0 0 0 0 0 0 0 0 0 0 0 0 0 0 25 0 0 0 1250 0.5 0.1 0.3 0.5 0.1 0.3 1.5 0.5 0.3 1.7 0 0 1.7 0 0 0 0 0 0 0 0 0 0 0 1.5 0 0.11
0 0 0 0 0 0 0 0 0 0 0 0 0 0 0 25 0 0 0 1250 0.5 0.1 0.3 0.5 0.1 0.3 1.5 0.5 0.3 1.7 0 0 1.7 0 0 0 0 0 0 0 0 0 0 0 1.5 0 0.11
0 0 0 0 0 0 0 0 0 0 0 0 0 0 0 25 0 0 0 1250 0.5 0.1 0.3 0.5 0.1 0.3 1.5 0.5 0.3 1.7 0 0 1.7 0 0 0 0 0 0 0 0 0 0 0 1.5 0 0.11
0 0 0 0 0 0 0 0 0 0 0 0 0 0 0 25 0 0 0 1250 0.5 0.1 0.3 0.5 0.1 0.3 1.5 0.5 0.3 1.7 0 0 1.7 0 0 0 0 0 0 0 0 0 0 0 1.5 0 0.11
0 0 0 0 0 0 0 0 0 0 0 0 0 0 0 25 0 0 0 1250 0.5 0.1 0.3 0.5 0.1 0.3 1.5 0.5 0.3 1.7 0 0 1.7 0 0 0 0 0 0 0 0 0 0 0 1.5 0 0.11
0 0 0 0 0 0 0 0 0 0 0 0 0 0 0 25 0 0 0 1250 0.5 0.1 0.3 0.5 0.1 0.3 1.5 0.5 0.3 1.7 0 0 1.7 0 0 0 0 0 0 0 0 0 0 0 1.5 0 0.11
0 0 0 0 0 0 0 0 0 0 0 0 0 0 0 25 0 0 0 1250 0.5 0.1 0.3 0.5 0.1 0.3 1.5 0.5 0.3 1.7 0 0 1.7 0 0 0 0 0 0 0 0 0 0 0 1.5 0 0.11
0 0 0 0 0 0 0 0 0 0 0 0 0 0 0 25 0 0 0 1250 0.5 0.1 0.3 0.5 0.1 0.3 1.5 0.5 0.3 1.7 0 0 1.7 0 0 0 0 0 0 0 0 0 0 0 1.5 0 0.11
0 0 0 0 0 0 0 0 0 0 0 0 0 0 0 25 0 0 0 1250 0.5 0.1 0.3 0.5 0.1 0.3 1.5 0.5 0.3 1.7 0 0 1.7 0 0 0 0 0 0 0 0 0 0 0 1.5 0 0.11
0 0 0 0 0 0 0 0 0 0 0 0 0 0 0 25 0 0 0 1250 0.5 0.1 0.3 0.5 0.1 0.3 1.5 0.5 0.3 1.7 0 0 1.7 0 0 0 0 0 0 0 0 0 0 0 1.5 0 0.11
0 0 0 0 0 0 0 0 0 0 0 0 0 0 0 25 0 0 0 1250 0.5 0.1 0.3 0.5 0.1 0.3 1.5 0.5 0.3 1.7 0 0 1.7 0 0 0 0 0 0 0 0 0 0 0 1.5 0 0.11
0 0 0 0 0 0 0 0 0 0 0 0 0 0 0 25 0 0 0 1250 0.5 0.1 0.3 0.5 0.1 0.3 1.5 0.5 0.3 1.7 0 0 1.7 0 0 0 0 0 0 0 0 0 0 0 1.5 0 0.11
0 0 0 0 0 0 0 0 0 0 0 0 0 0 0 25 0 0 0 1250 0.5 0.1 0.3 0.5 0.1 0.3 1.5 0.5 0.3 1.7 0 0 1.7 0 0 0 0 0 0 0 0 0 0 0 1.5 0 0.11
0 0 0 0 0 0 0 0 0 0 0 0 0 0 0 25 0 0 0 1250 0.5 0.1 0.3 0.5 0.1 0.3 1.5 0.5 0.3 1.7 0 0 1.7 0 0 0 0 0 0 0 0 0 0 0 1.5 0 0.11
0 0 0 0 0 0 0 0 0 0 0 0 0 0 0 25 0 0 0 1250 0.5 0.1 0.3 0.5 0.1 0.3 1.5 0.5 0.3 1.7 0 0 1.7 0 0 0 0 0 0 0 0 0 0 0 1.5 0 0.11
0 0 0 0 0 0 0 0 0 0 0 0 0 0 0 25 0 0 0 1250 0.5 0.1 0.3 0.5 0.1 0.3 1.5 0.5 0.3 1.7 0 0 1.7 0 0 0 0 0 0 0 0 0 0 0 1.5 0 0.11
0 0 0 0 0 0 0 0 0 0 0 0 0 0 0 25 0 0 0 1250 0.5 0.1 0.3 0.5 0.1 0.3 1.5 0.5 0.3 1.7 0 0 1.7 0 0 0 0 0 0 0 0 0 0 0 1.5 0 0.11
0 0 0 0 0 0 0 0 0 0 0 0 0 0 0 25 0 0 0 1250 0.5 0.1 0.3 0.5 0.1 0.3 1.5 0.5 0.3 1.7 0 0 1.7 0 0 0 0 0 0 0 0 0 0 0 1.5 0 0.11
0 0 0 0 0 0 0 0 0 0 0 0 0 0 0 25 0 0 0 1250 0.5 0.1 0.3 0.5 0.1 0.3 1.5 0.5 0.3 1.7 0 0 1.7 0 0 0 0 0 0 0 0 0 0 0 1.5 0 0.11
0 0 0 0 0 0 0 0 0 0 0 0 0 0 0 25 0 0 0 1250 0.5 0.1 0.3 0.5 0.1 0.3 1.5 0.5 0.3 1.7 0 0 1.7 0 0 0 0 0 0 0 0 0 0 0 1.5 0 0.11
0 0 0 0 0 0 0 0 0 0 0 0 0 0 0 25 0 0 0 1250 0.5 0.1 0.3 0.5 0.1 0.3 1.5 0.5 0.3 1.7 0 0 1.7 0 0 0 0 0 0 0 0 0 0 0 1.5 0 0.11
0 0 0 0 0 0 0 0 0 0 0 0 0 0 0 25 0 0 0 1250 0.5 0.1 0.3 0.5 0.1 0.3 1.5 0.5 0.3 1.7 0 0 1.7 0 0 0 0 0 0 0 0 0 0 0 1.5 0 0.11
0 0 0 0 0 0 0 0 0 0 0 0 0 0 0 25 0 0 0 1250 0.5 0.1 0.3 0.5 0.1 0.3 1.5 0.5 0.3 1.7 0 0 1.7 0 0 0 0 0 0 0 0 0 0 0 1.5 0 0.11
0 0 0 0 0 0 0 0 0 0 0 0 0 0 0 25 0 0 0 1250 0.5 0.1 0.3 0.5 0.1 0.3 1.5 0.5 0.3 1.7 0 0 1.7 0 0 0 0 0 0 0 0 0 0 0 1.5 0 0.11
0 0 0 0 0 0 0 0 0 0 0 0 0 0 0 25 0 0 0 1250 0.5 0.1 0.3 0.5 0.1 0.3 1.5 0.5 0.3 1.7 0 0 1.7 0 0 0 0 0 0 0 0 0 0 0 1.5 0 0.11
0 0 0 0 0 0 0 0 0 0 0 0 0 0 0 25 0 0 0 1250 0.5 0.1 0.3 0.5 0.1 0.3 1.5 0.5 0.3 1.7 0 0 1.7 0 0 0 0 0 0 0 0 0 0 0 1.5 0 0.11
0 0 0 0 0 0 0 0 0 0 0 0 0 0 0 25 0 0 0 1250 0.5 0.1 0.3 0.5 0.1 0.3 1.5 0.5 0.3 1.7 0 0 1.7 0 0 0 0 0 0 0 0 0 0 0 1.5 0 0.11
0 0 0 0 0 0 0 0 0 0 0 0 0 0 0 25 0 0 0 1250 0.5 0.1 0.3 0.5 0.1 0.3 1.5 0.5 0.3 1.7 0 0 1.7 0 0 0 0 0 0 0 0 0 0 0 1.5 0 0.11
0 0 0 0 0 0 0 0 0 0 0 0 0 0 0 25 0 0 0 1250 0.5 0.1 0.3 0.5 0.1 0.3 1.5 0.5 0.3 1.7 0 0 1.7 0 0 0 0 0 0 0 0 0 0 0 1.5 0 0.11
0 0 0 0 0 0 0 0 0 0 0 0 0 0 0 25 0 0 0 1250 0.5 0.1 0.3 0.5 0.1 0.3 1.5 0.5 0.3 1.7 0 0 1.7 0 0 0 0 0 0 0 0 0 0 0 1.5 0 0.11
0 0 0 0 0 0 0 0 0 0 0 0 0 0 0 25 0 0 0 1250 0.5 0.1 0.3 0.5 0.1 0.3 1.5 0.5 0.3 1.7 0 0 1.7 0 0 0 0 0 0 0 0 0 0 0 1.5 0 0.11
6.218 1.69 0.21 3.77 1.12 1.25 1.19 0 0 17 2 0 0 0 0 22 -2.1 -2.87 -7.74 1221 0.5 0.1 0.3 0.5 0.1 0.3 1.5 0.5 0.3 1.7 0 0 1.7 0 0 0 0 0 0 0 0 0 0 0 1.5 0 0.11
6.343 1.68 0.23 3.93 -1.37 -1.75 0.75 0 0 19 2 0 0 0 0 22 3.2 3.2 -8.62 1221 0.5 0.1 0.3 0.5 0.1 0.3 1.5 0.5 0.3 1.7 0 0 1.7 0 0 0 0 0 0 0 0 0 0 0 1.5 0 0.11
6.444 1.67 0.23 4.12 2.25 0.88 1.06 0 0 19 2 0 0 0 0 22 -4.69 -0.64 -8.09 1221 0.5 0.1 0.3 0.5 0.1 0.3 1.5 0.5 0.3 1.7 0 0 1.7 0 0 0 0 0 0 0 0 0 0 0 1.5 0 0.11
6.543 1.69 0.23 4.27 0 0.37 1.62 0 0 19 2 0 0 0 0 22 1.3 0.44 -9.52 1221 0.5 0.1 0.3 0.5 0.1 0.3 1.5 0.5 0.3 1.7 0 0 1.7 0 0 0 0 0 0 0 0 0 0 0 1.5 0 0.11
6.643 1.69 0.23 4.49 0.75 1.12 1.87 0 0 20 2 0 0 0 0 22 0.68 -1.26 -9.63 1221 0.5 0.1 0.3 0.5 0.1 0.3 1.5 0.5 0.3 1.7 0 0 1.7 0 0 0 0 0 0 0 0 0 0 0 1.5 0 0.11
6.743 1.68 0.24 4.65 -0.37 0.25 1.12 0 0 19 2 0 0 0 0 22 0.61 0.21 -9.39 1221 0.5 0.1 0.3 0.5 0.1 0.3 1.5 0.5 0.3 1.7 0 0 1.7 0 0 0 0 0 0 0 0 0 0 0 1.5 0 0.11
6.844 1.67 0.24 4.87 -0.13 0.56 0.06 0 0 20 2 0 0 0 0 22 0.51 -0.97 -9.94 1221 0.5 0.1 0.3 0.5 0.1 0.3 1.5 0.5 0.3 1.7 0 0 1.7 0 0 0 0 0 0 0 0 0 0 0 1.5 0 0.11
6.944 1.67 0.25 4.99 -0.06 0.62 0 0 0 19 2 0 0 0 0 22 0.33 -0.05 -8.19 1221 0.5 0.1 0.3 0.5 0.1 0.3 1.5 0.5 0.3 1.7 0 0 1.7 0 0 0 0 0 0 0 0 0 0 0 1.5 0 0.11
7.043 1.67 0.24 5.2 -0.06 -0.25 3.12 0 0 19 2 0 0 0 0 22 0.36 0.23 -12.65 1221 0.5 0.1 0.3 0.5 0.1 0.3 1.5 0.5 0.3 1.7 0 0 1.7 0 0 0 0 0 0 0 0 0 0 0 1.5 0 0.11
7.144 1.67 0.23 5.35 -0.31 -1.44 1.06 0 0 19 2 0 0 0 0 22 2.31 2.98 -11.11 1221 0.5 0.1 0.3 0.5 0.1 0.3 1.5 0.5 0.3 1.7 0 0 1.7 0 0 0 0 0 0 0 0 0 0 0 1.5 0 0.11
7.244 1.67 0.24 5.49 0.81 -0.13 0.13 0 0 20 2 0 0 0 0 22 -1.81 0.85 -11.02 1221 0.5 0.1 0.3 0.5 0.1 0.3 1.5 0.5 0.3 1.7 0 0 1.7 0 0 0 0 0 0 0 0 0 0 0 1.5 0 0.11
7.343 1.67 0.24 5.67 -0.31 0.06 1.06 0 0 19 2 0 0 0 0 22 1.5 0.08 -11.87 1221 0.5 0.1 0.3 0.5 0.1 0.3 1.5 0.5 0.3 1.7 0 0 1.7 0 0 0 0 0 0 0 0 0 0 0 1.5 0 0.11
7.443 1.67 0.24 5.86 0.06 0 1 0 0 19 2 0 0 0 0 22 0.08 -0.41 -12.29 1221 0.5 0.1 0.3 0.5 0.1 0.3 1.5 0.5 0.3 1.7 0 0 1.7 0 0 0 0 0 0 0 0 0 0 0 1.5 0 0.11
7.544 1.67 0.24 6.03 -0.06 0.06 0.88 0 0 19 2 0 0 0 0 22 0.4 -0.06 -12.52 1221 0.5 0.1 0.3 0.5 0.1 0.3 1.5 0.5 0.3 1.7 0 0 1.7 0 0 0 0 0 0 0 0 0 0 0 1.5 0 0.11
7.643 1.67 0.23 6.19 0 0.25 0.94 0 0 19 2 0 0 0 0 22 0.22 -0.47 -13.04 1221 0.5 0.1 0.3 0.5 0.1 0.3 1.5 0.5 0.3 1.7 0 0 1.7 0 0 0 0 0 0 0 0 0 0 0 1.5 0 0.11
7.743 1.67 0.23 6.34 -0.06 0.06 0.88 0 0 19 2 0 0 0 0 22 0.51 -0.12 -13.41 1221 0.5 0.1 0.3 0.5 0.1 0.3 1.5 0.5 0.3 1.7 0 0 1.7 0 0 0 0 0 0 0 0 0 0 0 1.5 0 0.11
7.844 1.68 0.23 6.51 0 0.06 1.19 0 0 20 2 0 0 0 0 22 0.28 -0.22 -14.09 1221 0.5 0.1 0.3 0.5 0.1 0.3 1.5 0.5 0.3 1.7 0 0 1.7 0 0 0 0 0 0 0 0 0 0 0 1.5 0 0.11
7.944 1.68 0.23 6.57 1.37 0.5 1.06 0 0 20 2 0 0 0 0 22 -2.66 -0.65 -14.28 1221 0.5 0.1 0.3 0.5 0.1 0.3 1.5 0.5 0.3 1.7 0 0 1.7 0 0 0 0 0 0 0 0 0 0 0 1.5 0 0.11
8.044 1.67 0.22 6.49 -0.37 -0.62 2 0 0 20 2 0 0 0 0 22 2.39 1.74 -16.47 1221 0.5 0.1 0.3 0.5 0.1 0.3 1.5 0.5 0.3 1.7 0 0 1.7 0 0 0 0 0 0 0 0 0 0 0 1.5 0 0.11
8.144 1.68 0.22 6.04 1.37 0.56 0 0 0 20 2 0 0 0 0 22 -2.56 -1.41 -13.13 1221 0.5 0.1 0.3 0.5 0.1 0.3 1.5 0.5 0.3 1.7 0 0 1.7 0 0 0 0 0 0 0 0 0 0 0 1.5 0 0.11
8.243 1.68 0.21 5.86 -0.25 1.19 -0.25 0 0 20 2 0 0 0 0 22 1.6 -1.78 -14.79 1221 0.5 0.1 0.3 0.5 0.1 0.3 1.5 0.5 0.3 1.7 0 0 1.7 0 0 0 0 0 0 0 0 0 0 0 1.5 0 0.11
8.344 1.68 0.22 5.68 -0.25 0.19 1.37 0 0 20 2 0 0 0 0 22 2.91 0.14 -16.14 1221 0.5 0.1 0.3 0.5 0.1 0.3 1.5 0.5 0.3 1.7 0 0 1.7 0 0 0 0 0 0 0 0 0 0 0 1.5 0 0.11
8.444 1.68 0.23 5.66 -1 0.25 1.5 0 0 20 2 0 0 0 0 22 0.61 -0.81 -14.94 1221 0.5 0.1 0.3 0.5 0.1 0.3 1.5 0.5 0.3 1.7 0 0 1.7 0 0 0 0 0 0 0 0 0 0 0 1.5 0 0.11
8.543 1.68 0.22 5.5 -1.87 -1.87 1 0 0 23 2 0 0 0 0 24 2.38 1.76 -16.88 1242 0.5 0.1 0.3 0.5 0.1 0.3 1.5 0.5 0.3 1.7 0 0 1.7 0 0 0 0 0 0 0 0 0 0 0 1.5 0 0.11
8.644 1.61 0.21 5.25 2.25 0.37 0.81 0 0 20 2 0 0 0 0 27 -5.67 -0.52 -15.91 1271 0.5 0.1 0.3 0.5 0.1 0.3 1.5 0.5 0.3 1.7 0 0 1.7 0 0 0 0 0 0 0 0 0 0 0 1.5 0 0.11
8.743 1.57 0.2 5.16 2.44 1.31 0 0 0 20 1 0 0 0 0 32 -8.68 -4.19 -14.65 1325 0.5 0.1 0.3 0.5 0.1 0.3 1.5 0.5 0.3 1.7 0 0 1.7 0 0 0 0 0 0 0 0 0 0 0 1.5 0 0.11
8.844 1.49 0.19 5.3 4.12 0.5 -0.37 0 0 21 1 0 0 0 0 35 -0.74 5.32 -16.57 1352 0.5 0.1 0.3 0.5 0.1 0.3 1.5 0.5 0.3 1.7 0 0 1.7 0 0 0 0 0 0 0 0 0 0 0 1.5 0 0.11
8.944 1.48 0.16 5.49 -1.31 -4.19 4 0 0 20 1 0 0 0 0 39 0.28 -0.15 -19.77 1394 0.5 0.1 0.3 0.5 0.1 0.3 1.5 0.5 0.3 1.7 0 0 1.7 0 0 0 0 0 0 0 0 0 0 0 1.5 0 0.11
9.044 1.59 0.19 5.56 -1.44 -0.62 3.37 0 0 20 1 0 0 0 0 40 16.88 5.5 -19.61 1401 0.5 0.1 0.3 0.5 0.1 0.3 1.5 0.5 0.3 1.7 0 0 1.7 0 0 0 0 0 0 0 0 0 0 0 1.5 0 0.11
9.144 1.8 0.38 5.52 0 2.44 3.81 0 0 21 1 0 0 0 0 40 -4.21 -1.88 -13.69 1407 0.5 0.1 0.3 0.5 0.1 0.3 1.5 0.5 0.3 1.7 0 0 1.7 0 0 0 0 0 0 0 0 0 0 0 1.5 0 0.11
9.244 2 1.16 5.38 15.94 16.5 -11 0 0 21 1 0 0 0 0 43 -41.76 -20.12 -10.3 1437 0.5 0.1 0.3 0.5 0.1 0.3 1.5 0.5 0.3 1.7 0 0 1.7 0 0 0 0 0 0 0 0 0 0 0 1.5 0 0.11
9.344 2.34 1.54 5.16 3.25 17.56 -9.19 0 0 23 1 0 0 0 0 44 -43.53 -28.12 -15.89 1444 0.5 0.1 0.3 0.5 0.1 0.3 1.5 0.5 0.3 1.7 0 0 1.7 0 0 0 0 0 0 0 0 0 0 0 1.5 0 0.11
9.444 1.33 1.01 5.08 11.31 -6.62 -8.44 0 0 23 1 0 0 0 0 45 -30.55 -14.87 -15.21 1450 0.5 0.1 0.3 0.5 0.1 0.3 1.5 0.5 0.3 1.7 0 0 1.7 0 0 0 0 0 0 0 0 0 0 0 1.5 0 0.11
9.544 0.03 0.82 5.24 -13.56 1 6.37 0 0 21 1 0 0 0 0 43 -37.75 -15.48 -15.28 1434 0.5 0.1 0.3 0.5 0.1 0.3 1.5 0.5 0.3 1.7 0 0 1.7 0 0 0 0 0 0 0 0 0 0 0 1.5 0 0.11
9.644 -0.51 2.18 5.53 -19.75 17.19 11.31 0 0 24 1 0 0 0 0 42 16.32 -5.63 -28.72 1420 0.5 0.1 0.3 0.5 0.1 0.3 1.5 0.5 0.3 1.7 0 0 1.7 0 0 0 0 0 0 0 0 0 0 0 1.5 0 0.11
9.744 -2.12 3.72 5.88 -19.56 15.88 -1.37 0 0 31 1 0 0 0 0 40 53.44 -0.9 -26.72 1405 0.5 0.1 0.3 0.5 0.1 0.3 1.5 0.5 0.3 1.7 0 0 1.7 0 0 0 0 0 0 0 0 0 0 0 1.5 0 0.11
9.844 -2.86 3.81 5.88 29.5 8 -13.44 0 0 40 1 0 0 0 0 40 -20.71 9.13 -14.24 1406 0.5 0.1 0.3 0.5 0.1 0.3 1.5 0.5 0.3 1.7 0 0 1.7 0 0 0 0 0 0 0 0 0 0 0 1.5 0 0.11
9.944 -0.43 3 5.73 8.88 -13.25 8 0 0 50 2 0 0 0 0 40 -15.96 -1.78 -18.05 1400 0.5 0.1 0.3 0.5 0.1 0.3 1.5 0.5 0.3 1.7 0 0 1.7 0 0 0 0 0 0 0 0 0 0 0 1.5 0 0.11
10.044 1.8 2.63 5.7 -4.69 -20.87 8.19 0 0 60 2 0 0 0 0 39 40.86 22.54 -25.02 1391 0.5 0.1 0.3 0.5 0.1 0.3 1.5 0.5 0.3 1.7 0 0 1.7 0 0 0 0 0 0 0 0 0 0 0 1.5 0 0.11
10.144 -0.14 3.22 5.65 19.87 -14.75 -4.25 0 0 69 2 0 0 0 0 39 -8.27 28.88 -21.7 1392 0.5 0.1 0.3 0.5 0.1 0.3 1.5 0.5 0.3 1.7 0 0 1.7 0 0 0 0 0 0 0 0 0 0 0 1.5 0 0.11
10.244 -1.48 4.27 5.46 -9.81 15.81 2.44 0 0 70 2 0 0 0 0 39 -3.83 -21.79 -14.58 1390 0.5 0.1 0.3 0.5 0.1 0.3 1.5 0.5 0.3 1.7 0 0 1.7 0 0 0 0 0 0 0 0 0 0 0 1.5 0 0.11
10.344 -0.38 6.26 5.11 2.56 18.94 -2.12 0 0 65 2 0 0 0 0 37 -14.3 -13.54 -16.79 1379 0.5 0.1 0.3 0.5 0.1 0.3 1.5 0.5 0.3 1.7 0 0 1.7 0 0 0 0 0 0 0 0 0 0 0 1.5 0 0.11
10.444 1.56 6.41 4.94 41.25 -5.31 -3.19 0 0 59 2 0 0 0 0 37 -9.48 5.32 -15.84 1379 0.5 0.1 0.3 0.5 0.1 0.3 1.5 0.5 0.3 1.7 0 0 1.7 0 0 0 0 0 0 0 0 0 0 0 1.5 0 0.11
10.544 2.05 3.71 4.63 -25.44 -29.62 0 0 0 53 2 0 0 0 0 39 -7.08 10.54 -14.08 1394 0.5 0.1 0.3 0.5 0.1 0.3 1.5 0.5 0.3 1.7 0 0 1.7 0 0 0 0 0 0 0 0 0 0 0 1.5 0 0.11
10.644 1.36 1.52 4.1 8.94 7.19 -17.69 0 0 48 2 0 0 0 0 39 -3.44 -17.59 -9.7 1394 0.5 0.1 0.3 0.5 0.1 0.3 1.5 0.5 0.3 1.7 0 0 1.7 0 0 0 0 0 0 0 0 0 0 0 1.5 0 0.11
10.744 0.12 2.94 3.6 1.69 34.13 -11.5 0 0 40 2 0 0 0 0 40 10.85 -17.64 -14.88 1405 0.5 0.1 0.3 0.5 0.1 0.3 1.5 0.5 0.3 1.7 0 0 1.7 0 0 0 0 0 0 0 0 0 0 0 1.5 0 0.11
10.844 -0.87 5.58 3.28 -12.63 14.19 1.81 0 0 33 2 0 0 0 0 40 8.2 -12.86 -13.3 1407 0.5 0.1 0.3 0.5 0.1 0.3 1.5 0.5 0.3 1.7 0 0 1.7 0 0 0 0 0 0 0 0 0 0 0 1.5 0 0.11
10.944 0.42 6.46 2.89 28.31 3.44 -13.06 0 0 27 2 0 0 0 0 43 -22.86 -11.36 -6.92 1434 0.5 0.1 0.3 0.5 0.1 0.3 1.5 0.5 0.3 1.7 0 0 1.7 0 0 0 0 0 0 0 0 0 0 0 1.5 0 0.11
11.044 3.01 5.94 1.99 -3.62 -8.88 -3.06 0 0 21 2 0 0 0 0 43 -24.6 -12.91 -3.51 1434 0.5 0.1 0.3 0.5 0.1 0.3 1.5 0.5 0.3 1.7 0 0 1.7 0 0 0 0 0 0 0 0 0 0 0 1.5 0 0.11
11.144 3.8 5.42 0.83 20.25 27.81 -12.25 0 0 19 2 0 0 0 0 43 -4.35 -4.56 -0.92 1434 0.5 0.1 0.3 0.5 0.1 0.3 1.5 0.5 0.3 1.7 0 0 1.7 0 0 0 0 0 0 0 0 0 0 0 1.5 0 0.11
11.244 1.71 6.01 -0.07 -34.19 29.19 -18.44 0 0 21 2 0 0 0 0 41 26.78 -52.44 2.62 1419 0.5 0.1 0.3 0.5 0.1 0.3 1.5 0.5 0.3 1.7 0 0 1.7 0 0 0 0 0 0 0 0 0 0 0 1.5 0 0.11
11.344 -0.65 7.83 -1.03 -33.5 -3.87 9 0 0 19 2 0 0 0 0 40 6.01 -10.27 -5.76 1406 0.5 0.1 0.3 0.5 0.1 0.3 1.5 0.5 0.3 1.7 0 0 1.7 0 0 0 0 0 0 0 0 0 0 0 1.5 0 0.11
11.444 -1.64 6.68 -1.92 24.87 -18.75 -6.5 0 0 20 1 0 0 0 0 40 -15.24 1.45 -4.44 1405 0.5 0.1 0.3 0.5 0.1 0.3 1.5 0.5 0.3 1.7 0 0 1.7 0 0 0 0 0 0 0 0 0 0 0 1.5 0 0.11
11.544 -0.52 3.75 -2.65 1.5 -28.62 -1.31 0 0 20 1 0 0 0 0 40 -5.54 4.18 -1.87 1405 0.5 0.1 0.3 0.5 0.1 0.3 1.5 0.5 0.3 1.7 0 0 1.7 0 0 0 0 0 0 0 0 0 0 0 1.5 0 0.11
11.644 0.87 3.04 -3.39 40.31 8.31 -13.31 0 0 21 1 0 0 0 0 39 -17.05 -12.99 -4.51 1391 0.5 0.1 0.3 0.5 0.1 0.3 1.5 0.5 0.3 1.7 0 0 1.7 0 0 0 0 0 0 0 0 0 0 0 1.5 0 0.11
11.744 1.14 4.87 -4.22 -25.06 23.31 -4 0 0 24 1 0 0 0 0 39 61.89 -20.79 -10.8 1392 0.5 0.1 0.3 0.5 0.1 0.3 1.5 0.5 0.3 1.7 0 0 1.7 0 0 0 0 0 0 0 0 0 0 0 1.5 0 0.11
11.844 -0.44 6.31 -4.72 -17.06 16.25 -9.5 0 0 26 1 0 0 0 0 39 -10.22 -21.44 -11.94 1393 0.5 0.1 0.3 0.5 0.1 0.3 1.5 0.5 0.3 1.7 0 0 1.7 0 0 0 0 0 0 0 0 0 0 0 1.5 0 0.11
11.944 -0.88 5.73 -5.05 23.81 -3.5 -7.87 0 0 28 1 0 0 0 0 39 -33.94 -16.96 -9.2 1394 0.5 0.1 0.3 0.5 0.1 0.3 1.5 0.5 0.3 1.7 0 0 1.7 0 0 0 0 0 0 0 0 0 0 0 1.5 0 0.11
12.044 1.23 4.66 -5.61 40.5 2 -12.13 0 0 30 1 0 0 0 0 39 -15.14 -3.8 -6.16 1393 0.5 0.1 0.3 0.5 0.1 0.3 1.5 0.5 0.3 1.7 0 0 1.7 0 0 0 0 0 0 0 0 0 0 0 1.5 0 0.11
12.144 2.13 3.65 -6.25 -49.38 -18.69 0.81 0 0 31 1 0 0 0 0 39 26.69 5.25 -10.07 1392 0.5 0.1 0.3 0.5 0.1 0.3 1.5 0.5 0.3 1.7 0 0 1.7 0 0 0 0 0 0 0 0 0 0 0 1.5 0 0.11
12.244 0.11 3.42 -6.8 -26.56 -4.75 -6.75 0 0 31 1 0 0 0 0 39 -8.97 -5.45 -6.76 1391 0.5 0.1 0.3 0.5 0.1 0.3 1.5 0.5 0.3 1.7 0 0 1.7 0 0 0 0 0 0 0 0 0 0 0 1.5 0 0.11
12.344 -1.2 4.64 -7.34 -6.75 12.38 -12.13 0 0 32 1 0 0 0 0 39 -14.03 -14.35 -5.06 1392 0.5 0.1 0.3 0.5 0.1 0.3 1.5 0.5 0.3 1.7 0 0 1.7 0 0 0 0 0 0 0 0 0 0 0 1.5 0 0.11
12.444 -0.44 5.61 -7.87 37 -0.69 -14.25 0 0 32 1 0 0 0 0 39 -14.3 -5.73 -2.98 1392 0.5 0.1 0.3 0.5 0.1 0.3 1.5 0.5 0.3 1.7 0 0 1.7 0 0 0 0 0 0 0 0 0 0 0 1.5 0 0.11
12.544 1.56 4.69 -8.45 2.37 -23.94 5.75 0 0 32 1 0 0 0 0 39 6.69 11.08 -13.42 1392 0.5 0.1 0.3 0.5 0.1 0.3 1.5 0.5 0.3 1.7 0 0 1.7 0 0 0 0 0 0 0 0 0 0 0 1.5 0 0.11
12.644 1.82 3.13 -9.01 -19.94 -21.87 7.19 0 0 32 1 0 0 0 0 39 7.6 0.43 -7.94 1392 0.5 0.1 0.3 0.5 0.1 0.3 1.5 0.5 0.3 1.7 0 0 1.7 0 0 0 0 0 0 0 0 0 0 0 1.5 0 0.11
12.744 0.14 2.99 -9.44 -13.56 1 -3.5 0 0 32 1 0 0 0 0 39 -13.7 -15.71 -2.49 1392 0.5 0.1 0.3 0.5 0.1 0.3 1.5 0.5 0.3 1.7 0 0 1.7 0 0 0 0 0 0 0 0 0 0 0 1.5 0 0.11
12.844 -1.08 3.56 -9.88 21.62 7.87 -13.13 0 0 32 1 0 0 0 0 39 -23.31 -8.61 -5.47 1392 0.5 0.1 0.3 0.5 0.1 0.3 1.5 0.5 0.3 1.7 0 0 1.7 0 0 0 0 0 0 0 0 0 0 0 1.5 0 0.11
12.944 -1.19 2.7 -10.07 7.19 -17.31 2.5 0 0 33 1 0 0 0 0 39 14.21 7.85 -14.36 1392 0.5 0.1 0.3 0.5 0.1 0.3 1.5 0.5 0.3 1.7 0 0 1.7 0 0 0 0 0 0 0 0 0 0 0 1.5 0 0.11
13.044 -2.63 1.54 -10.09 -31 -13.06 9.81 0 0 33 1 0 0 0 0 39 10.23 -7.21 -10.34 1392 0.5 0.1 0.3 0.5 0.1 0.3 1.5 0.5 0.3 1.7 0 0 1.7 0 0 0 0 0 0 0 0 0 0 0 1.5 0 0.11
13.144 -3.78 1.85 -10.34 -15.31 6.19 -2.31 0 0 32 1 -3 0 0 0 39 -14.55 -15.03 -7.96 1392 0.5 0.1 0.3 0.5 0.1 0.3 1.5 0.5 0.3 1.7 0 0 1.7 0 0 0 0 0 0 0 0 0 0 0 1.5 0 0.11
13.244 -2.68 2.31 -10.56 41.94 4.25 -5.37 0 0 33 2 -6 0 0 0 39 -8.57 -8.2 -12.58 1392 0.5 0.1 0.3 0.5 0.1 0.3 1.5 0.5 0.3 1.7 0 0 1.7 0 0 0 0 0 0 0 0 0 0 0 1.5 0 0.11
13.344 -0.86 1.61 -10.61 -8 -22.19 3.44 0 0 33 2 -12 0 0 0 39 18.58 -1.25 -17.31 1393 0.5 0.1 0.3 0.5 0.1 0.3 1.5 0.5 0.3 1.7 0 0 1.7 0 0 0 0 0 0 0 0 0 0 0 1.5 0 0.11
13.444 -0.73 -0.4 -10.69 15.69 -8.88 -6.81 0 0 32 2 -15 0 0 0 39 -23.05 -9.24 -13.64 1393 0.5 0.1 0.3 0.5 0.1 0.3 1.5 0.5 0.3 1.7 0 0 1.7 0 0 0 0 0 0 0 0 0 0 0 1.5 0 0.11
13.544 -0.66 -2.05 -11.03 -1.25 -28 -0.06 0 0 33 2 -15 0 0 0 39 7.08 -1.75 -8.55 1391 0.5 0.1 0.3 0.5 0.1 0.3 1.5 0.5 0.3 1.7 0 0 1.7 0 0 0 0 0 0 0 0 0 0 0 1.5 0 0.11
13.644 -0.26 -3.59 -11.38 -17.69 -28.5 -2.62 0 0 33 2 -15 0 0 0 39 6.15 -3.36 -10.95 1393 0.5 0.1 0.3 0.5 0.1 0.3 1.5 0.5 0.3 1.7 0 0 1.7 0 0 0 0 0 0 0 0 0 0 0 1.5 0 0.11
13.744 0.21 -4.42 -11.82 -12 -7.12 -2.37 0 0 32 2 -16 0 0 0 39 3.46 -11.21 -7.86 1394 0.5 0.1 0.3 0.5 0.1 0.3 1.5 0.5 0.3 1.7 0 0 1.7 0 0 0 0 0 0 0 0 0 0 0 1.5 0 0.11
13.844 1.19 -4.6 -12.26 3.69 -14.06 -3.87 0 0 33 2 -18 0 0 0 39 -4.11 -7.71 -11.61 1394 0.5 0.1 0.3 0.5 0.1 0.3 1.5 0.5 0.3 1.7 0 0 1.7 0 0 0 0 0 0 0 0 0 0 0 1.5 0 0.11
13.944 1.81 -5.86 -12.82 -18.12 -30.25 3.62 0 0 32 2 -19 0 0 0 39 30.39 -2.62 -10.07 1393 0.5 0.1 0.3 0.5 0.1 0.3 1.5 0.5 0.3 1.7 0 0 1.7 0 0 0 0 0 0 0 0 0 0 0 1.5 0 0.11
14.044 -0.01 -8.07 -13.34 -20.75 -25.25 -11.44 0 0 32 2 -19 0 0 0 39 6.93 -0.83 -4.74 1392 0.5 0.1 0.3 0.5 0.1 0.3 1.5 0.5 0.3 1.7 0 0 1.7 0 0 0 0 0 0 0 0 0 0 0 1.5 0 0.11
14.144 -1.37 -9.98 -13.9 8.13 -20.31 -10.75 0 0 33 2 -20 0 0 0 39 -18.13 -9.62 -5.3 1393 0.5 0.1 0.3 0.5 0.1 0.3 1.5 0.5 0.3 1.7 0 0 1.7 0 0 0 0 0 0 0 0 0 0 0 1.5 0 0.11
14.244 -0.05 -11.99 -14.35 13.31 -12.13 -4.44 0 0 33 2 -22 0 0 0 39 -25.42 -11.67 -4.86 1392 0.5 0.1 0.3 0.5 0.1 0.3 1.5 0.5 0.3 1.7 0 0 1.7 0 0 0 0 0 0 0 0 0 0 0 1.5 0 0.11
14.344 1.49 -14.26 -14.83 35.56 -6.31 -9.75 0 0 33 2 -23 0 0 0 39 -12.83 -13.5 -3.1 1394 0.5 0.1 0.3 0.5 0.1 0.3 1.5 0.5 0.3 1.7 0 0 1.7 0 0 0 0 0 0 0 0 0 0 0 1.5 0 0.11
14.444 1.93 -16.3 -15.35 -18.06 -34.81 -5.81 0 0 34 2 -24 0 0 0 39 -12.21 7.52 0.56 1394 0.5 0.1 0.3 0.5 0.1 0.3 1.5 0.5 0.3 1.7 0 0 1.7 0 0 0 0 0 0 0 0 0 0 0 1.5 0 0.11
14.544 2.03 -17.76 -15.91 6.5 -13.5 -9.5 0 0 33 1 -23 0 0 0 39 -16.34 4.38 -10.22 1392 0.5 0.1 0.3 0.5 0.1 0.3 1.5 0.5 0.3 1.7 0 0 1.7 0 0 0 0 0 0 0 0 0 0 0 1.5 0 0.11
14.644 1.86 -18.17 -16.33 14.38 -2.94 -7.44 0 0 36 2 -14 0 0 0 39 -1.52 3.49 -5.81 1393 0.5 0.1 0.3 0.5 0.1 0.3 1.5 0.5 0.3 1.7 0 0 1.7 0 0 0 0 0 0 0 0 0 0 0 1.5 0 0.11
14.744 2.18 -18.24 -16.67 16.06 6.12 -6.25 0 0 36 1 -6 0 0 0 39 2.83 6.67 -6.41 1393 0.5 0.1 0.3 0.5 0.1 0.3 1.5 0.5 0.3 1.7 0 0 1.7 0 0 0 0 0 0 0 0 0 0 0 1.5 0 0.11
14.844 1.44 -17.58 -16.87 10.06 30.69 -6.69 0 0 34 2 0 0 0 0 39 11.47 -8.17 -10.76 1392 0.5 0.1 0.3 0.5 0.1 0.3 1.5 0.5 0.3 1.7 0 0 1.7 0 0 0 0 0 0 0 0 0 0 0 1.5 0 0.11
14.944 -0.13 -15.41 -16.94 6.75 42.44 -4.56 0 0 33 1 0 0 0 0 39 10.85 -9.46 -11.52 1393 0.5 0.1 0.3 0.5 0.1 0.3 1.5 0.5 0.3 1.7 0 0 1.7 0 0 0 0 0 0 0 0 0 0 0 1.5 0 0.11
15.044 -1.25 -13.37 -16.86 1.5 18.06 3.44 0 0 31 1 1 0 0 0 39 2.89 3.67 -13.89 1392 0.5 0.1 0.3 0.5 0.1 0.3 1.5 0.5 0.3 1.7 0 0 1.7 0 0 0 0 0 0 0 0 0 0 0 1.5 0 0.11
15.144 -1.2 -12.55 -16.87 -10.06 2.62 2.25 0 0 33 1 0 0 0 0 39 -3.83 7.07 -8.32 1392 0.5 0.1 0.3 0.5 0.1 0.3 1.5 0.5 0.3 1.7 0 0 1.7 0 0 0 0 0 0 0 0 0 0 0 1.5 0 0.11
15.244 -0.24 -11.83 -17 -19.31 6.37 3.44 0 0 32 1 0 0 0 0 39 -4.03 4.15 -13.17 1391 0.5 0.1 0.3 0.5 0.1 0.3 1.5 0.5 0.3 1.7 0 0 1.7 0 0 0 0 0 0 0 0 0 0 0 1.5 0 0.11
15.344 0.54 -10.07 -17.16 -14.44 18.81 0.25 0 0 32 2 0 0 0 0 39 -5.9 -1.86 -9.58 1392 0.5 0.1 0.3 0.5 0.1 0.3 1.5 0.5 0.3 1.7 0 0 1.7 0 0 0 0 0 0 0 0 0 0 0 1.5 0 0.11
15.444 1.47 -7.75 -17.4 -7.44 14.88 -3.56 0 0 30 2 0 0 0 0 39 -7.8 -3.7 -11.98 1392 0.5 0.1 0.3 0.5 0.1 0.3 1.5 0.5 0.3 1.7 0 0 1.7 0 0 0 0 0 0 0 0 0 0 0 1.5 0 0.11
15.544 2.16 -6.32 -17.68 18.56 9.75 -6.69 0 0 30 2 0 0 0 0 39 -26.84 -10.15 -9.53 1392 0.5 0.1 0.3 0.5 0.1 0.3 1.5 0.5 0.3 1.7 0 0 1.7 0 0 0 0 0 0 0 0 0 0 0 1.5 0 0.11
15.644 2.45 -6.46 -17.98 6.75 -8.69 0.5 0 0 30 2 0 0 0 0 39 16.98 19.31 -13.96 1392 0.5 0.1 0.3 0.5 0.1 0.3 1.5 0.5 0.3 1.7 0 0 1.7 0 0 0 0 0 0 0 0 0 0 0 1.5 0 0.11
15.744 2.37 -6.5 -18.18 -20.81 -5.62 14.44 0 0 31 2 0 0 0 0 39 1.6 2.36 -10 1392 0.5 0.1 0.3 0.5 0.1 0.3 1.5 0.5 0.3 1.7 0 0 1.7 0 0 0 0 0 0 0 0 0 0 0 1.5 0 0.11
15.844 1.49 -4.97 -18.34 -20.37 13.13 3.44 0 0 29 2 0 0 0 0 39 5.21 -9.33 -14.83 1392 0.5 0.1 0.3 0.5 0.1 0.3 1.5 0.5 0.3 1.7 0 0 1.7 0 0 0 0 0 0 0 0 0 0 0 1.5 0 0.11
15.944 0.66 -2.75 -18.63 13.69 25.44 -6.69 0 0 29 2 0 0 0 0 39 -24.06 -9.96 -9.35 1391 0.5 0.1 0.3 0.5 0.1 0.3 1.5 0.5 0.3 1.7 0 0 1.7 0 0 0 0 0 0 0 0 0 0 0 1.5 0 0.11
16.044 0.83 -1.6 -19 -6.87 3 2.06 0 0 28 4 0 0 0 0 39 28.72 -5.17 -8.57 1392 0.5 0.1 0.3 0.5 0.1 0.3 1.5 0.5 0.3 1.7 0 0 1.7 0 0 0 0 0 0 0 0 0 0 0 1.5 0 0.11
16.144 2.26 -1.64 -19.3 -5.56 -9.06 0.06 0 0 27 13 0 0 0 0 39 -2.65 1.6 -6.3 1392 0.5 0.1 0.3 0.5 0.1 0.3 1.5 0.5 0.3 1.7 0 0 1.7 0 0 0 0 0 0 0 0 0 0 0 1.5 0 0.11
16.244 4.92 -1.88 -19.65 31.75 5.56 -9.31 0 0 28 19 0 0 0 0 39 -17.08 -9.05 -5.96 1392 0.5 0.1 0.3 0.5 0.1 0.3 1.5 0.5 0.3 1.7 0 0 1.7 0 0 0 0 0 0 0 0 0 0 0 1.5 0 0.11
16.344 7.97 -0.94 -19.96 62.69 26.87 -7.62 0 0 26 25 0 0 0 0 39 -7.68 -17.04 -11.67 1392 0.5 0.1 0.3 0.5 0.1 0.3 1.5 0.5 0.3 1.7 0 0 1.7 0 0 0 0 0 0 0 0 0 0 0 1.5 0 0.11
16.444 9.42 0.03 -20.18 -2.56 -8.44 9.06 0 0 25 26 0 0 0 0 39 43.98 15.18 -13.82 1393 0.5 0.1 0.3 0.5 0.1 0.3 1.5 0.5 0.3 1.7 0 0 1.7 0 0 0 0 0 0 0 0 0 0 0 1.5 0 0.11
16.544 9.92 -0.07 -20.71 -18.94 -5.81 -1.87 0 0 23 27 0 0 0 0 39 8.82 -3.78 -5.4 1392 0.5 0.1 0.3 0.5 0.1 0.3 1.5 0.5 0.3 1.7 0 0 1.7 0 0 0 0 0 0 0 0 0 0 0 1.5 0 0.11
16.644 13.62 0.67 -21.46 38.31 4.06 -12.06 0 0 21 29 1 0 0 0 39 -22 -6.09 2.98 1392 0.5 0.1 0.3 0.5 0.1 0.3 1.5 0.5 0.3 1.7 0 0 1.7 0 0 0 0 0 0 0 0 0 0 0 1.5 0 0.11
16.744 19.22 1.91 -22.21 39.88 0.06 -9.38 0 0 23 30 0 0 0 0 39 -14.56 -7.54 0.71 1391 0.5 0.1 0.3 0.5 0.1 0.3 1.5 0.5 0.3 1.7 0 0 1.7 0 0 0 0 0 0 0 0 0 0 0 1.5 0 0.11
16.844 21.76 2.18 -23.14 38.69 -2.56 -10.5 0 0 21 27 0 0 0 0 39 -11.47 -6.15 2.61 1392 0.5 0.1 0.3 0.5 0.1 0.3 1.5 0.5 0.3 1.7 0 0 1.7 0 0 0 0 0 0 0 0 0 0 0 1.5 0 0.11
16.944 20.97 1.64 -24.21 1.44 2.06 -9.44 0 0 24 16 0 0 0 0 39 28.71 0.43 3.84 1392 0.5 0.1 0.3 0.5 0.1 0.3 1.5 0.5 0.3 1.7 0 0 1.7 0 0 0 0 0 0 0 0 0 0 0 1.5 0 0.11
17.044 19.15 1.27 -25.29 0.88 14.06 -17.19 0 0 23 9 0 0 0 0 39 0.67 -1.39 2.6 1392 0.5 0.1 0.3 0.5 0.1 0.3 1.5 0.5 0.3 1.7 0 0 1.7 0 0 0 0 0 0 0 0 0 0 0 1.5 0 0.11
17.144 17.75 1.22 -26.25 -22.5 -1.5 -18.94 0 0 23 1 0 0 0 0 39 -5.36 3.96 5.23 1392 0.5 0.1 0.3 0.5 0.1 0.3 1.5 0.5 0.3 1.7 0 0 1.7 0 0 0 0 0 0 0 0 0 0 0 1.5 0 0.11
17.244 15.69 0.73 -27.48 -54.38 -12.88 -12.13 0 0 22 1 0 0 0 0 39 19.94 5.73 11.42 1392 0.5 0.1 0.3 0.5 0.1 0.3 1.5 0.5 0.3 1.7 0 0 1.7 0 0 0 0 0 0 0 0 0 0 0 1.5 0 0.11
17.344 12.11 -0.58 -28.86 -56.56 -14.69 -9.31 0 0 22 2 0 0 0 0 39 19.36 15.68 12.07 1392 0.5 0.1 0.3 0.5 0.1 0.3 1.5 0.5 0.3 1.7 0 0 1.7 0 0 0 0 0 0 0 0 0 0 0 1.5 0 0.11
17.444 9.45 -1.12 -29.86 4.94 8.44 -4.44 0 0 24 2 0 0 0 0 39 -14.7 -12.26 -0.55 1392 0.5 0.1 0.3 0.5 0.1 0.3 1.5 0.5 0.3 1.7 0 0 1.7 0 0 0 0 0 0 0 0 0 0 0 1.5 0 0.11
17.544 9.94 0.88 -30.48 14.25 13 -0.31 0 0 23 2 0 0 0 0 39 -15.8 -7.75 1.27 1394 0.5 0.1 0.3 0.5 0.1 0.3 1.5 0.5 0.3 1.7 0 0 1.7 0 0 0 0 0 0 0 0 0 0 0 1.5 0 0.11
17.644 10.76 2.45 -31.2 -11.63 -5.69 5.25 0 0 23 1 0 0 0 0 39 0.21 -5.77 0.34 1394 0.5 0.1 0.3 0.5 0.1 0.3 1.5 0.5 0.3 1.7 0 0 1.7 0 0 0 0 0 0 0 0 0 0 0 1.5 0 0.11
17.744 8.67 2.67 -32.09 -23.44 4.25 -17 0 0 22 1 0 0 0 0 39 -3.91 -18.43 10.88 1391 0.5 0.1 0.3 0.5 0.1 0.3 1.5 0.5 0.3 1.7 0 0 1.7 0 0 0 0 0 0 0 0 0 0 0 1.5 0 0.11
17.844 6.14 2.14 -33.08 -11 -5.25 -11.13 0 0 20 -1 0 0 0 0 39 -1.37 -3.47 6.69 1393 0.5 0.1 0.3 0.5 0.1 0.3 1.5 0.5 0.3 1.7 0 0 1.7 0 0 0 0 0 0 0 0 0 0 0 1.5 0 0.11
17.944 6.11 2.49 -33.67 2 -8.56 -1.62 0 0 21 -1 0 0 0 0 39 -14.7 -6.4 -0.42 1393 0.5 0.1 0.3 0.5 0.1 0.3 1.5 0.5 0.3 1.7 0 0 1.7 0 0 0 0 0 0 0 0 0 0 0 1.5 0 0.11
18.044 6.05 2.99 -34.16 -22.37 -5.69 6 0 0 21 -1 0 0 0 0 39 5.8 -5.95 -1.87 1392 0.5 0.1 0.3 0.5 0.1 0.3 1.5 0.5 0.3 1.7 0 0 1.7 0 0 0 0 0 0 0 0 0 0 0 1.5 0 0.11
18.144 4.02 3.45 -34.65 -24.25 9.75 -16.5 0 0 20 -1 0 0 0 0 39 -0.22 -10.55 1.1 1392 0.5 0.1 0.3 0.5 0.1 0.3 1.5 0.5 0.3 1.7 0 0 1.7 0 0 0 0 0 0 0 0 0 0 0 1.5 0 0.11
18.244 2.67 3.03 -35.05 8.44 -2.69 -10.13 0 0 20 -2 0 0 0 0 39 -1.01 5.05 -1.76 1392 0.5 0.1 0.3 0.5 0.1 0.3 1.5 0.5 0.3 1.7 0 0 1.7 0 0 0 0 0 0 0 0 0 0 0 1.5 0 0.11
18.344 1.89 1.64 -35.28 12.06 -16.87 -6.31 0 0 22 -9 0 0 0 0 39 -2.1 2.78 -5 1392 0.5 0.1 0.3 0.5 0.1 0.3 1.5 0.5 0.3 1.7 0 0 1.7 0 0 0 0 0 0 0 0 0 0 0 1.5 0 0.11
18.444 -0.16 1.47 -35.26 -25.31 15.94 -10.19 0 0 20 -11 0 0 0 0 39 17.3 -23.18 -11.46 1393 0.5 0.1 0.3 0.5 0.1 0.3 1.5 0.5 0.3 1.7 0 0 1.7 0 0 0 0 0 0 0 0 0 0 0 1.5 0 0.11
18.544 -3.32 2.2 -35.11 -19.81 16.87 -3.75 0 0 21 -11 0 0 0 0 39 16.83 -6.83 -7.43 1392 0.5 0.1 0.3 0.5 0.1 0.3 1.5 0.5 0.3 1.7 0 0 1.7 0 0 0 0 0 0 0 0 0 0 0 1.5 0 0.11
18.645 -5.86 1.59 -34.89 -9.88 -19.5 1.44 0 0 20 -7 0 0 0 0 39 29.9 17.27 -14.81 1391 0.5 0.1 0.3 0.5 0.1 0.3 1.5 0.5 0.3 1.7 0 0 1.7 0 0 0 0 0 0 0 0 0 0 0 1.5 0 0.11
18.744 -7.45 -0.65 -34.48 -26.37 -23.25 13.69 0 0 22 0 0 0 0 0 39 5.82 4.31 -16.02 1392 0.5 0.1 0.3 0.5 0.1 0.3 1.5 0.5 0.3 1.7 0 0 1.7 0 0 0 0 0 0 0 0 0 0 0 1.5 0 0.11
18.844 -7.55 -0.33 -34.28 13.13 18.87 9.56 0 0 23 1 0 0 0 0 39 2.73 -15.29 -8.5 1392 0.5 0.1 0.3 0.5 0.1 0.3 1.5 0.5 0.3 1.7 0 0 1.7 0 0 0 0 0 0 0 0 0 0 0 1.5 0 0.11
18.944 -6.38 1.76 -34.67 24.87 28.12 1.81 0 0 20 2 0 0 0 0 39 2.71 -11.11 -13.25 1392 0.5 0.1 0.3 0.5 0.1 0.3 1.5 0.5 0.3 1.7 0 0 1.7 0 0 0 0 0 0 0 0 0 0 0 1.5 0 0.11
19.045 -4.57 2.2 -34.37 11.81 -4.75 7.81 0 0 20 2 0 0 0 0 39 -9.98 3.61 -20.47 1392 0.5 0.1 0.3 0.5 0.1 0.3 1.5 0.5 0.3 1.7 0 0 1.7 0 0 0 0 0 0 0 0 0 0 0 1.5 0 0.11
19.144 -2.65 0.65 -33.75 37 -11.44 5 0 0 21 2 0 0 0 0 39 0.34 5.71 -18.72 1392 0.5 0.1 0.3 0.5 0.1 0.3 1.5 0.5 0.3 1.7 0 0 1.7 0 0 0 0 0 0 0 0 0 0 0 1.5 0 0.11
19.245 -1.15 -0.37 -33.3 -11.06 6.31 8.88 0 0 21 2 0 0 0 0 39 -6.8 -9.8 -14.52 1392 0.5 0.1 0.3 0.5 0.1 0.3 1.5 0.5 0.3 1.7 0 0 1.7 0 0 0 0 0 0 0 0 0 0 0 1.5 0 0.11
19.344 1.14 0.98 -32.95 28.44 26.37 -5.69 0 0 21 2 0 0 0 0 39 -26.71 -22.85 -13.56 1393 0.5 0.1 0.3 0.5 0.1 0.3 1.5 0.5 0.3 1.7 0 0 1.7 0 0 0 0 0 0 0 0 0 0 0 1.5 0 0.11
19.444 4.08 2.98 -32.55 23.87 7.37 8.56 0 0 23 2 0 0 0 0 39 4.88 -2.32 -23.12 1394 0.5 0.1 0.3 0.5 0.1 0.3 1.5 0.5 0.3 1.7 0 0 1.7 0 0 0 0 0 0 0 0 0 0 0 1.5 0 0.11
19.544 3.6 2.66 -32.29 0.37 6.81 -3 0 0 21 2 0 0 0 0 39 -27.48 -5.84 -16.3 1393 0.5 0.1 0.3 0.5 0.1 0.3 1.5 0.5 0.3 1.7 0 0 1.7 0 0 0 0 0 0 0 0 0 0 0 1.5 0 0.11
19.645 -0.37 0.46 -32.21 -67.19 -16.62 2.62 0 0 21 2 0 0 0 0 39 26.53 2.87 -14.77 1393 0.5 0.1 0.3 0.5 0.1 0.3 1.5 0.5 0.3 1.7 0 0 1.7 0 0 0 0 0 0 0 0 0 0 0 1.5 0 0.11
19.745 -2.46 0.23 -32.26 -19 4.44 1.25 0 0 21 2 0 0 0 0 39 -4.35 -13.34 -14.88 1393 0.5 0.1 0.3 0.5 0.1 0.3 1.5 0.5 0.3 1.7 0 0 1.7 0 0 0 0 0 0 0 0 0 0 0 1.5 0 0.11
19.845 -0.46 1.96 -32.12 13.88 13.81 -3.31 0 0 21 2 0 0 0 0 39 -22.05 -13.98 -12.84 1393 0.5 0.1 0.3 0.5 0.1 0.3 1.5 0.5 0.3 1.7 0 0 1.7 0 0 0 0 0 0 0 0 0 0 0 1.5 0 0.11
19.945 3.03 2.94 -32.04 52.13 2.94 -0.31 0 0 20 2 0 0 0 0 39 -41.85 -7.19 -12.02 1393 0.5 0.1 0.3 0.5 0.1 0.3 1.5 0.5 0.3 1.7 0 0 1.7 0 0 0 0 0 0 0 0 0 0 0 1.5 0 0.11
20.045 5.47 1.85 -32.04 -20.12 -30.81 8.75 0 0 20 2 0 0 0 0 39 12.51 10.16 -11.97 1393 0.5 0.1 0.3 0.5 0.1 0.3 1.5 0.5 0.3 1.7 0 0 1.7 0 0 0 0 0 0 0 0 0 0 0 1.5 0 0.11
20.144 4.26 1.2 -32.11 -0.37 7.06 -5.5 0 0 21 2 0 0 0 0 39 10.64 -8.97 -12.06 1393 0.5 0.1 0.3 0.5 0.1 0.3 1.5 0.5 0.3 1.7 0 0 1.7 0 0 0 0 0 0 0 0 0 0 0 1.5 0 0.11
20.245 1.48 2.41 -32.31 0.62 16 -3.87 0 0 21 2 0 0 0 0 39 17.61 -6.45 -15.93 1394 0.5 0.1 0.3 0.5 0.1 0.3 1.5 0.5 0.3 1.7 0 0 1.7 0 0 0 0 0 0 0 0 0 0 0 1.5 0 0.11
20.345 0.75 3.09 -32.45 -13.56 -5.12 4.69 0 0 21 2 0 0 0 0 39 17.53 6.28 -18.64 1394 0.5 0.1 0.3 0.5 0.1 0.3 1.5 0.5 0.3 1.7 0 0 1.7 0 0 0 0 0 0 0 0 0 0 0 1.5 0 0.11
20.444 1.36 2.12 -32.54 -8.38 -16.94 2.31 0 0 21 2 0 0 0 0 40 -9.74 3.83 -12.71 1405 0.5 0.1 0.3 0.5 0.1 0.3 1.5 0.5 0.3 1.7 0 0 1.7 0 0 0 0 0 0 0 0 0 0 0 1.5 0 0.11
20.544 2.19 1.24 -32.73 8.44 -2.62 -5 0 0 20 2 0 0 0 0 40 -6.46 -5.82 -11.43 1404 0.5 0.1 0.3 0.5 0.1 0.3 1.5 0.5 0.3 1.7 0 0 1.7 0 0 0 0 0 0 0 0 0 0 0 1.5 0 0.11
20.645 2.7 0.86 -33.01 -9.94 -10.88 12.44 0 0 21 2 0 0 0 0 40 6.2 3.45 -18.16 1404 0.5 0.1 0.3 0.5 0.1 0.3 1.5 0.5 0.3 1.7 0 0 1.7 0 0 0 0 0 0 0 0 0 0 0 1.5 0 0.11
20.745 2.92 0.92 -33.48 42.63 14 -11.5 0 0 21 2 0 0 0 0 40 -41.04 -15.85 -7.33 1405 0.5 0.1 0.3 0.5 0.1 0.3 1.5 0.5 0.3 1.7 0 0 1.7 0 0 0 0 0 0 0 0 0 0 0 1.5 0 0.11
20.845 3.68 1.88 -33.94 -5.56 3.12 1.56 0 0 20 2 0 0 0 0 40 -13.44 -17.38 -10.56 1405 0.5 0.1 0.3 0.5 0.1 0.3 1.5 0.5 0.3 1.7 0 0 1.7 0 0 0 0 0 0 0 0 0 0 0 1.5 0 0.11
20.945 3.79 2.75 -34.17 -37.94 -15.06 5.81 0 0 21 2 0 0 0 0 40 31.42 2.02 -13.83 1405 0.5 0.1 0.3 0.5 0.1 0.3 1.5 0.5 0.3 1.7 0 0 1.7 0 0 0 0 0 0 0 0 0 0 0 1.5 0 0.11
21.045 2.54 1.52 -34.9 -19.5 -28.44 -2.19 0 0 21 2 0 0 0 0 40 12.01 8.06 -9.35 1405 0.5 0.1 0.3 0.5 0.1 0.3 1.5 0.5 0.3 1.7 0 0 1.7 0 0 0 0 0 0 0 0 0 0 0 1.5 0 0.11
21.145 2.85 -0.07 -35.68 -6.56 -24.06 7.62 0 0 20 2 0 0 0 0 40 -8.97 2.16 -8.53 1405 0.5 0.1 0.3 0.5 0.1 0.3 1.5 0.5 0.3 1.7 0 0 1.7 0 0 0 0 0 0 0 0 0 0 0 1.5 0 0.11
21.245 3.78 0.09 -36.3 28.31 34.81 -16.5 0 0 20 2 0 0 0 0 40 -15.22 -39.37 -4.76 1405 0.5 0.1 0.3 0.5 0.1 0.3 1.5 0.5 0.3 1.7 0 0 1.7 0 0 0 0 0 0 0 0 0 0 0 1.5 0 0.11
21.344 3.12 1.4 -36.88 -34.5 3.75 -1.94 0 0 21 2 0 0 0 0 40 7.64 1.95 -7.78 1405 0.5 0.1 0.3 0.5 0.1 0.3 1.5 0.5 0.3 1.7 0 0 1.7 0 0 0 0 0 0 0 0 0 0 0 1.5 0 0.11
21.445 2.05 1.52 -37.31 14.44 3.87 -14.25 0 0 21 2 0 0 0 0 40 3.15 0.43 -6.43 1405 0.5 0.1 0.3 0.5 0.1 0.3 1.5 0.5 0.3 1.7 0 0 1.7 0 0 0 0 0 0 0 0 0 0 0 1.5 0 0.11
21.545 1.64 0.57 -37.73 -8.69 -6.56 0.62 0 0 21 2 0 0 0 0 40 -5.42 -0.69 -9.04 1405 0.5 0.1 0.3 0.5 0.1 0.3 1.5 0.5 0.3 1.7 0 0 1.7 0 0 0 0 0 0 0 0 0 0 0 1.5 0 0.11
21.645 2.68 0.79 -38.21 7.12 -2.81 -4.44 0 0 21 2 0 0 0 0 40 -26.36 -4.13 -7.39 1405 0.5 0.1 0.3 0.5 0.1 0.3 1.5 0.5 0.3 1.7 0 0 1.7 0 0 0 0 0 0 0 0 0 0 0 1.5 0 0.11
21.745 4.12 1.34 -38.85 -9.19 -19.5 3.81 0 0 21 2 0 0 0 0 40 19.41 10.91 -9.54 1405 0.5 0.1 0.3 0.5 0.1 0.3 1.5 0.5 0.3 1.7 0 0 1.7 0 0 0 0 0 0 0 0 0 0 0 1.5 0 0.11
21.845 3.92 0.74 -39.57 10.69 -15.25 -3.94 0 0 23 2 0 0 0 0 40 11.17 13.42 -4.55 1405 0.5 0.1 0.3 0.5 0.1 0.3 1.5 0.5 0.3 1.7 0 0 1.7 0 0 0 0 0 0 0 0 0 0 0 1.5 0 0.11
21.945 3.64 -0.36 -40.36 23.81 2.69 -13.56 0 0 25 2 0 0 0 0 40 -17.54 -6.57 -0.41 1405 0.5 0.1 0.3 0.5 0.1 0.3 1.5 0.5 0.3 1.7 0 0 1.7 0 0 0 0 0 0 0 0 0 0 0 1.5 0 0.11
22.045 5.28 0.7 -41.17 17.25 14.13 -1.19 0 0 26 2 0 0 0 0 40 18.26 -13.88 -6.18 1405 0.5 0.1 0.3 0.5 0.1 0.3 1.5 0.5 0.3 1.7 0 0 1.7 0 0 0 0 0 0 0 0 0 0 0 1.5 0 0.11
22.145 5.84 2.22 -41.76 23.56 36.25 -18.37 0 0 28 2 0 0 0 0 39 -24.56 -28.1 -7.95 1390 0.5 0.1 0.3 0.5 0.1 0.3 1.5 0.5 0.3 1.7 0 0 1.7 0 0 0 0 0 0 0 0 0 0 0 1.5 0 0.11
22.245 5.15 1.83 -42.37 -40.31 -14.69 -8.25 0 0 31 2 0 0 0 0 39 8.87 5.15 -3.26 1392 0.5 0.1 0.3 0.5 0.1 0.3 1.5 0.5 0.3 1.7 0 0 1.7 0 0 0 0 0 0 0 0 0 0 0 1.5 0 0.11
22.345 4.09 -0.64 -43.49 -0.69 -26.37 -17 0 0 32 2 0 0 0 0 39 4.42 11.78 1.85 1392 0.5 0.1 0.3 0.5 0.1 0.3 1.5 0.5 0.3 1.7 0 0 1.7 0 0 0 0 0 0 0 0 0 0 0 1.5 0 0.11
22.445 4.33 -2.67 -45 22.56 -0.13 -17.44 0 0 35 2 0 0 0 0 39 -24.02 -16.5 -0.41 1392 0.5 0.1 0.3 0.5 0.1 0.3 1.5 0.5 0.3 1.7 0 0 1.7 0 0 0 0 0 0 0 0 0 0 0 1.5 0 0.11
22.545 4.36 -2.08 -45.77 -26.37 15.25 -16.37 0 0 35 2 0 0 0 0 39 14.11 -9.55 0.19 1392 0.5 0.1 0.3 0.5 0.1 0.3 1.5 0.5 0.3 1.7 0 0 1.7 0 0 0 0 0 0 0 0 0 0 0 1.5 0 0.11
22.645 1.97 -0.4 -46.37 -20.87 16.19 -13.5 0 0 35 2 0 0 0 0 39 -17.83 -10.06 -2.74 1392 0.5 0.1 0.3 0.5 0.1 0.3 1.5 0.5 0.3 1.7 0 0 1.7 0 0 0 0 0 0 0 0 0 0 0 1.5 0 0.11
22.745 -0.14 0.32 -47.12 -3 8.94 -19 0 0 35 2 0 0 0 0 39 4.8 2.67 0.21 1392 0.5 0.1 0.3 0.5 0.1 0.3 1.5 0.5 0.3 1.7 0 0 1.7 0 0 0 0 0 0 0 0 0 0 0 1.5 0 0.11
22.845 0 -0.65 -47.83 28.44 -12.44 -11.75 0 0 34 2 0 0 0 0 39 -32.14 0.17 0.8 1392 0.5 0.1 0.3 0.5 0.1 0.3 1.5 0.5 0.3 1.7 0 0 1.7 0 0 0 0 0 0 0 0 0 0 0 1.5 0 0.11
22.945 1.12 -1.45 -48.35 32.94 10.75 -14.56 0 0 33 2 0 0 0 0 39 -9.19 -16.63 -2.05 1392 0.5 0.1 0.3 0.5 0.1 0.3 1.5 0.5 0.3 1.7 0 0 1.7 0 0 0 0 0 0 0 0 0 0 0 1.5 0 0.11
23.045 -0.37 -0.51 -48.82 -17.62 29.81 -12.63 0 0 32 2 0 0 0 0 39 11.77 -15.86 -7.8 1392 0.5 0.1 0.3 0.5 0.1 0.3 1.5 0.5 0.3 1.7 0 0 1.7 0 0 0 0 0 0 0 0 0 0 0 1.5 0 0.11
23.145 -4.78 -0.14 -49.16 -21.44 3.69 -4.5 0 0 30 2 0 0 0 0 39 35.7 11.49 -15.46 1392 0.5 0.1 0.3 0.5 0.1 0.3 1.5 0.5 0.3 1.7 0 0 1.7 0 0 0 0 0 0 0 0 0 0 0 1.5 0 0.11
23.245 -6.9 -1.02 -49 17.81 -9.25 -0.94 0 0 30 2 0 0 0 0 39 -4.58 1.46 -13.35 1393 0.5 0.1 0.3 0.5 0.1 0.3 1.5 0.5 0.3 1.7 0 0 1.7 0 0 0 0 0 0 0 0 0 0 0 1.5 0 0.11
23.345 -5.15 -1.93 -48.98 28.31 -4.5 -8.19 0 0 31 2 0 0 0 0 39 -24.45 -1.48 -9.3 1393 0.5 0.1 0.3 0.5 0.1 0.3 1.5 0.5 0.3 1.7 0 0 1.7 0 0 0 0 0 0 0 0 0 0 0 1.5 0 0.11
23.445 -2.97 -1.83 -49.22 29.31 24.44 -10.5 0 0 31 2 0 0 0 0 39 -6.47 -13.74 -4.04 1393 0.5 0.1 0.3 0.5 0.1 0.3 1.5 0.5 0.3 1.7 0 0 1.7 0 0 0 0 0 0 0 0 0 0 0 1.5 0 0.11
23.545 -2.88 -0.47 -49.47 -24.81 8.19 1.19 0 0 31 2 0 0 0 0 39 38.64 7.33 -12.07 1393 0.5 0.1 0.3 0.5 0.1 0.3 1.5 0.5 0.3 1.7 0 0 1.7 0 0 0 0 0 0 0 0 0 0 0 1.5 0 0.11
23.645 -3.39 0.14 -49.63 -18.12 -1 2.19 0 0 29 2 0 0 0 0 39 6.19 -2.08 -8.94 1393 0.5 0.1 0.3 0.5 0.1 0.3 1.5 0.5 0.3 1.7 0 0 1.7 0 0 0 0 0 0 0 0 0 0 0 1.5 0 0.11
23.745 -1.83 -0.13 -49.82 16.31 0.62 12.44 0 0 29 2 0 0 0 0 39 -15.87 -6.38 -8.42 1392 0.5 0.1 0.3 0.5 0.1 0.3 1.5 0.5 0.3 1.7 0 0 1.7 0 0 0 0 0 0 0 0 0 0 0 1.5 0 0.11
23.845 1.43 0.04 -50.01 10.44 2.56 2.25 0 0 28 2 0 0 0 0 39 -17.3 -6.89 -7.28 1394 0.5 0.1 0.3 0.5 0.1 0.3 1.5 0.5 0.3 1.7 0 0 1.7 0 0 0 0 0 0 0 0 0 0 0 1.5 0 0.11
23.945 3.05 0.67 -50.31 16.94 28 -7.25 0 0 27 2 0 0 0 0 39 -24.53 -21.57 -7.43 1394 0.5 0.1 0.3 0.5 0.1 0.3 1.5 0.5 0.3 1.7 0 0 1.7 0 0 0 0 0 0 0 0 0 0 0 1.5 0 0.11
24.045 0.77 0.99 -50.72 -57.38 2.37 -5.19 0 0 24 2 0 0 0 0 39 23.28 -4.64 -4.07 1393 0.5 0.1 0.3 0.5 0.1 0.3 1.5 0.5 0.3 1.7 0 0 1.7 0 0 0 0 0 0 0 0 0 0 0 1.5 0 0.11
24.145 -2.18 0.47 -51.1 -38.13 -5.81 -0.62 0 0 25 2 0 0 0 0 39 16.5 2.3 -7.93 1393 0.5 0.1 0.3 0.5 0.1 0.3 1.5 0.5 0.3 1.7 0 0 1.7 0 0 0 0 0 0 0 0 0 0 0 1.5 0 0.11
24.245 -2.14 -0.2 -51.55 4.75 -5.44 3.62 0 0 24 2 0 0 0 0 39 -7.56 0.59 -5.9 1393 0.5 0.1 0.3 0.5 0.1 0.3 1.5 0.5 0.3 1.7 0 0 1.7 0 0 0 0 0 0 0 0 0 0 0 1.5 0 0.11
24.345 0.52 -0.73 -51.94 12.06 -0.44 -5.87 0 0 23 2 0 0 0 0 39 6.42 -2.59 -4.62 1393 0.5 0.1 0.3 0.5 0.1 0.3 1.5 0.5 0.3 1.7 0 0 1.7 0 0 0 0 0 0 0 0 0 0 0 1.5 0 0.11
24.445 2.38 -0.23 -52.43 6.62 18.12 -11.44 0 0 22 2 0 0 0 0 39 -13.82 -20.82 -2.21 1393 0.5 0.1 0.3 0.5 0.1 0.3 1.5 0.5 0.3 1.7 0 0 1.7 0 0 0 0 0 0 0 0 0 0 0 1.5 0 0.11
24.545 2.9 1.23 -52.99 16.37 31.25 -15.56 0 0 21 2 0 0 0 0 39 -4.74 -10.82 -0.67 1394 0.5 0.1 0.3 0.5 0.1 0.3 1.5 0.5 0.3 1.7 0 0 1.7 0 0 0 0 0 0 0 0 0 0 0 1.5 0 0.11
24.645 2.08 1.8 -53.56 7.12 2.06 -4.19 0 0 21 2 0 0 0 0 39 4.66 -1.18 -3.84 1393 0.5 0.1 0.3 0.5 0.1 0.3 1.5 0.5 0.3 1.7 0 0 1.7 0 0 0 0 0 0 0 0 0 0 0 1.5 0 0.11
24.745 0.19 0.49 -53.95 -27.69 -25.44 4 0 0 20 2 0 0 0 0 39 14.19 6.1 -6.08 1393 0.5 0.1 0.3 0.5 0.1 0.3 1.5 0.5 0.3 1.7 0 0 1.7 0 0 0 0 0 0 0 0 0 0 0 1.5 0 0.11
24.845 -1.09 -0.38 -54.37 -11.94 -2.31 4.37 0 0 20 2 0 0 0 0 39 3.54 -5.21 -7.67 1393 0.5 0.1 0.3 0.5 0.1 0.3 1.5 0.5 0.3 1.7 0 0 1.7 0 0 0 0 0 0 0 0 0 0 0 1.5 0 0.11
24.945 0.08 0.88 -54.79 18.44 24.94 -11.13 0 0 19 2 0 0 0 0 39 -14.73 -18.49 -3.3 1393 0.5 0.1 0.3 0.5 0.1 0.3 1.5 0.5 0.3 1.7 0 0 1.7 0 0 0 0 0 0 0 0 0 0 0 1.5 0 0.11
25.045 2.44 1.63 -55.01 23.69 -6.06 0.56 0 0 20 2 0 0 0 0 39 7.85 5.41 -9.9 1393 0.5 0.1 0.3 0.5 0.1 0.3 1.5 0.5 0.3 1.7 0 0 1.7 0 0 0 0 0 0 0 0 0 0 0 1.5 0 0.11
25.145 3.76 0.43 -55.31 -8.44 -14.25 3.81 0 0 21 2 0 0 0 0 39 11.06 -7.63 -2.68 1393 0.5 0.1 0.3 0.5 0.1 0.3 1.5 0.5 0.3 1.7 0 0 1.7 0 0 0 0 0 0 0 0 0 0 0 1.5 0 0.11
25.245 2.83 0 -55.8 -35.5 -7.37 -10.19 0 0 20 2 0 0 0 0 39 13.43 -1.63 -0.26 1393 0.5 0.1 0.3 0.5 0.1 0.3 1.5 0.5 0.3 1.7 0 0 1.7 0 0 0 0 0 0 0 0 0 0 0 1.5 0 0.11
25.345 1.83 0.25 -56.45 5.5 9.94 -11.94 0 0 20 2 0 0 0 0 39 -6.74 -23.51 -0.88 1393 0.5 0.1 0.3 0.5 0.1 0.3 1.5 0.5 0.3 1.7 0 0 1.7 0 0 0 0 0 0 0 0 0 0 0 1.5 0 0.11
25.445 3 0.4 -57.15 25.12 -9.25 -12.31 0 0 20 2 0 0 0 0 39 -7.8 -0.21 3.1 1393 0.5 0.1 0.3 0.5 0.1 0.3 1.5 0.5 0.3 1.7 0 0 1.7 0 0 0 0 0 0 0 0 0 0 0 1.5 0 0.11
25.545 3.78 -0.34 -58.03 3.81 -8.44 -11.63 0 0 20 2 0 0 0 0 39 18.48 5.09 1.21 1393 0.5 0.1 0.3 0.5 0.1 0.3 1.5 0.5 0.3 1.7 0 0 1.7 0 0 0 0 0 0 0 0 0 0 0 1.5 0 0.11
25.645 2.6 -1.1 -58.95 -14.56 5.06 -13.25 0 0 21 2 0 0 0 0 39 39.53 -4.12 2.62 1393 0.5 0.1 0.3 0.5 0.1 0.3 1.5 0.5 0.3 1.7 0 0 1.7 0 0 0 0 0 0 0 0 0 0 0 1.5 0 0.11
25.745 0.31 -1.11 -59.78 -22.75 13.13 -7 0 0 21 2 0 0 0 0 39 12.6 -2.72 -1.57 1392 0.5 0.1 0.3 0.5 0.1 0.3 1.5 0.5 0.3 1.7 0 0 1.7 0 0 0 0 0 0 0 0 0 0 0 1.5 0 0.11
25.845 0.29 -0.42 -60.39 -2.44 0.37 -0.25 0 0 20 2 0 0 0 0 39 -1.19 -7.25 -2.85 1391 0.5 0.1 0.3 0.5 0.1 0.3 1.5 0.5 0.3 1.7 0 0 1.7 0 0 0 0 0 0 0 0 0 0 0 1.5 0 0.11
25.945 1.49 -0.27 -61.06 -7.75 -3.87 -7.19 0 0 21 1 0 0 0 0 39 -5.93 -0.58 3.37 1391 0.5 0.1 0.3 0.5 0.1 0.3 1.5 0.5 0.3 1.7 0 0 1.7 0 0 0 0 0 0 0 0 0 0 0 1.5 0 0.11
26.045 2.7 -0.56 -61.81 17.62 2.37 -8.06 0 0 20 2 0 0 0 0 39 -11.15 -4.87 2.4 1391 0.5 0.1 0.3 0.5 0.1 0.3 1.5 0.5 0.3 1.7 0 0 1.7 0 0 0 0 0 0 0 0 0 0 0 1.5 0 0.11
26.145 3.24 -0.83 -62.44 -24.25 0.94 -0.56 0 0 20 2 0 0 0 0 39 3.36 -1.78 -1.58 1391 0.5 0.1 0.3 0.5 0.1 0.3 1.5 0.5 0.3 1.7 0 0 1.7 0 0 0 0 0 0 0 0 0 0 0 1.5 0 0.11
26.245 1.96 -1.23 -62.85 -21.81 -0.88 2.56 0 0 20 1 0 0 0 0 37 -3.62 9.2 -4.81 1378 0.5 0.1 0.3 0.5 0.1 0.3 1.5 0.5 0.3 1.7 0 0 1.7 0 0 0 0 0 0 0 0 0 0 0 1.5 0 0.11
26.345 0.96 -1.19 -63.22 19.19 14.13 -10.31 0 0 19 2 0 0 0 0 37 -15.54 -7.72 -0.06 1378 0.5 0.1 0.3 0.5 0.1 0.3 1.5 0.5 0.3 1.7 0 0 1.7 0 0 0 0 0 0 0 0 0 0 0 1.5 0 0.11
26.445 2.45 -0.58 -63.45 15.69 2.56 -5.62 0 0 21 2 0 0 0 0 36 -14.45 -5.31 -1.27 1362 0.5 0.1 0.3 0.5 0.1 0.3 1.5 0.5 0.3 1.7 0 0 1.7 0 0 0 0 0 0 0 0 0 0 0 1.5 0 0.11
26.545 3.33 -0.46 -63.68 -15.38 -12.69 7.87 0 0 20 2 0 0 0 0 33 0.86 4.28 -3.27 1336 0.5 0.1 0.3 0.5 0.1 0.3 1.5 0.5 0.3 1.7 0 0 1.7 0 0 0 0 0 0 0 0 0 0 0 1.5 0 0.11
26.645 2.46 -1.27 -64.01 1.56 -4 -5.69 0 0 21 2 0 0 0 0 30 -16.92 1.8 -2.94 1308 0.5 0.1 0.3 0.5 0.1 0.3 1.5 0.5 0.3 1.7 0 0 1.7 0 0 0 0 0 0 0 0 0 0 0 1.5 0 0.11
26.745 0.01 -0.43 -62.9 -21.44 -13.13 2.5 0 0 176 2 0 0 0 0 25 7.36 4.19 -2.58 1251 0.5 0.1 0.3 0.5 0.1 0.3 1.5 0.5 0.3 1.7 0 0 1.7 0 0 0 0 0 0 0 0 0 0 0 1.5 0 0.11
26.845 0.47 -0.26 -62.27 40.19 13.75 2.31 0 0 25 2 0 0 0 0 22 -32.03 -12.24 -12.4 1221 0.5 0.1 0.3 0.5 0.1 0.3 1.5 0.5 0.3 1.7 0 0 1.7 0 0 0 0 0 0 0 0 0 0 0 1.5 0 0.11
26.945 0.81 -0.27 -61.92 -9.25 2.19 0.75 0 0 28 2 0 0 0 0 22 2.87 -4.56 -9.8 1221 0.5 0.1 0.3 0.5 0.1 0.3 1.5 0.5 0.3 1.7 0 0 1.7 0 0 0 0 0 0 0 0 0 0 0 1.5 0 0.11
27.045 1.07 -0.32 -61.5 -1.75 -3.31 2.94 0 0 30 2 0 0 0 0 22 6.76 7 -8.76 1221 0.5 0.1 0.3 0.5 0.1 0.3 1.5 0.5 0.3 1.7 0 0 1.7 0 0 0 0 0 0 0 0 0 0 0 1.5 0 0.11
27.145 1.11 -0.35 -61.04 1.75 3.44 1.56 0 0 28 2 0 0 0 0 22 2.7 -9.17 -10.41 1221 0.5 0.1 0.3 0.5 0.1 0.3 1.5 0.5 0.3 1.7 0 0 1.7 0 0 0 0 0 0 0 0 0 0 0 1.5 0 0.11
27.245 1.08 -0.41 -60.64 6.06 -2.5 2.75 0 0 28 2 0 0 0 0 22 -3.9 1.45 -13.21 1221 0.5 0.1 0.3 0.5 0.1 0.3 1.5 0.5 0.3 1.7 0 0 1.7 0 0 0 0 0 0 0 0 0 0 0 1.5 0 0.11
27.345 1.1 -0.43 -60.3 2.69 1.75 -0.81 0 0 28 2 0 0 0 0 22 -5.59 -2.71 -9.87 1221 0.5 0.1 0.3 0.5 0.1 0.3 1.5 0.5 0.3 1.7 0 0 1.7 0 0 0 0 0 0 0 0 0 0 0 1.5 0 0.11
27.445 1.16 -0.43 -60.35 1.87 0.62 1.69 0 0 29 2 0 0 0 0 22 -0.31 -2.55 -14.6 1221 0.5 0.1 0.3 0.5 0.1 0.3 1.5 0.5 0.3 1.7 0 0 1.7 0 0 0 0 0 0 0 0 0 0 0 1.5 0 0.11
27.545 1.22 -0.44 -60.58 1.37 0.69 0.56 0 0 29 2 0 0 0 0 22 -1.28 -3.07 -10.48 1221 0.5 0.1 0.3 0.5 0.1 0.3 1.5 0.5 0.3 1.7 0 0 1.7 0 0 0 0 0 0 0 0 0 0 0 1.5 0 0.11
27.645 1.23 -0.44 -60.69 2.31 -0.31 1.75 0 0 30 2 0 0 0 0 22 -3.3 -4.02 -11.77 1221 0.5 0.1 0.3 0.5 0.1 0.3 1.5 0.5 0.3 1.7 0 0 1.7 0 0 0 0 0 0 0 0 0 0 0 1.5 0 0.11
27.745 1.26 -0.44 -60.97 -0.88 -0.37 0.25 0 0 31 2 0 0 0 0 22 4.51 -1.12 -13.71 1221 0.5 0.1 0.3 0.5 0.1 0.3 1.5 0.5 0.3 1.7 0 0 1.7 0 0 0 0 0 0 0 0 0 0 0 1.5 0 0.11
27.845 1.25 -0.45 -61.15 0.75 0.06 0 0 0 31 2 0 0 0 0 22 -1.13 -2.49 -11.88 1221 0.5 0.1 0.3 0.5 0.1 0.3 1.5 0.5 0.3 1.7 0 0 1.7 0 0 0 0 0 0 0 0 0 0 0 1.5 0 0.11
27.945 1.27 -0.46 -61.3 1.25 -0.44 0.44 0 0 30 2 0 0 0 0 22 -1.18 -1.69 -13.04 1221 0.5 0.1 0.3 0.5 0.1 0.3 1.5 0.5 0.3 1.7 0 0 1.7 0 0 0 0 0 0 0 0 0 0 0 1.5 0 0.11
28.045 1.3 -0.46 -61.58 0 -0.25 0.06 0 0 30 2 0 0 0 0 22 0.73 -2.26 -12.52 1221 0.5 0.1 0.3 0.5 0.1 0.3 1.5 0.5 0.3 1.7 0 0 1.7 0 0 0 0 0 0 0 0 0 0 0 1.5 0 0.11
28.145 1.32 -0.46 -61.74 0.25 0.06 1.56 0 0 29 2 0 0 0 0 22 1.55 -2.47 -14.03 1221 0.5 0.1 0.3 0.5 0.1 0.3 1.5 0.5 0.3 1.7 0 0 1.7 0 0 0 0 0 0 0 0 0 0 0 1.5 0 0.11
28.245 1.33 -0.47 -61.96 -1.44 -0.62 1.25 0 0 28 2 0 0 0 0 22 2.4 -1.99 -14.51 1221 0.5 0.1 0.3 0.5 0.1 0.3 1.5 0.5 0.3 1.7 0 0 1.7 0 0 0 0 0 0 0 0 0 0 0 1.5 0 0.11
28.345 1.36 -0.46 -62.14 0.94 0.75 0.31 0 0 31 2 0 0 0 0 22 -2.75 -3.73 -13.52 1222 0.5 0.1 0.3 0.5 0.1 0.3 1.5 0.5 0.3 1.7 0 0 1.7 0 0 0 0 0 0 0 0 0 0 0 1.5 0 0.11
28.445 1.38 -0.46 -62.4 0.37 -0.06 1.69 0 0 30 2 0 0 0 0 22 -0.71 -2.01 -16.12 1221 0.5 0.1 0.3 0.5 0.1 0.3 1.5 0.5 0.3 1.7 0 0 1.7 0 0 0 0 0 0 0 0 0 0 0 1.5 0 0.11
28.545 1.38 -0.47 -62.48 0 0.69 1.62 0 0 31 2 0 0 0 0 22 0.97 -3.64 -17.16 1221 0.5 0.1 0.3 0.5 0.1 0.3 1.5 0.5 0.3 1.7 0 0 1.7 0 0 0 0 0 0 0 0 0 0 0 1.5 0 0.11
28.645 1.4 -0.47 -62.7 -0.13 0.37 0.69 0 0 31 2 0 0 0 0 22 1.13 -2.71 -14.55 1221 0.5 0.1 0.3 0.5 0.1 0.3 1.5 0.5 0.3 1.7 0 0 1.7 0 0 0 0 0 0 0 0 0 0 0 1.5 0 0.11
28.745 1.41 -0.48 -62.81 0 0.06 1.19 0 0 32 2 0 0 0 0 22 0.67 -2.32 -17.2 1221 0.5 0.1 0.3 0.5 0.1 0.3 1.5 0.5 0.3 1.7 0 0 1.7 0 0 0 0 0 0 0 0 0 0 0 1.5 0 0.11
28.845 1.42 -0.49 -63.05 0.06 0.31 0.81 0 0 31 2 0 0 0 0 22 0.66 -2.81 -17.11 1221 0.5 0.1 0.3 0.5 0.1 0.3 1.5 0.5 0.3 1.7 0 0 1.7 0 0 0 0 0 0 0 0 0 0 0 1.5 0 0.11
28.945 1.42 -0.49 -63.15 0.13 0.13 1.06 0 0 31 2 0 0 0 0 22 0.52 -2.67 -17.77 1221 0.5 0.1 0.3 0.5 0.1 0.3 1.5 0.5 0.3 1.7 0 0 1.7 0 0 0 0 0 0 0 0 0 0 0 1.5 0 0.11
29.045 1.43 -0.49 -63.37 0.13 0.31 0.94 0 0 30 2 0 0 0 0 22 0.51 -2.85 -17.83 1221 0.5 0.1 0.3 0.5 0.1 0.3 1.5 0.5 0.3 1.7 0 0 1.7 0 0 0 0 0 0 0 0 0 0 0 1.5 0 0.11
29.145 1.43 -0.51 -63.53 0.13 0.19 1.12 0 0 30 2 0 0 0 0 22 0.52 -2.72 -18.7 1221 0.5 0.1 0.3 0.5 0.1 0.3 1.5 0.5 0.3 1.7 0 0 1.7 0 0 0 0 0 0 0 0 0 0 0 1.5 0 0.11
29.245 1.44 -0.51 -63.81 0 0.31 1 0 0 32 2 0 0 0 0 22 0.65 -2.91 -17.05 1221 0.5 0.1 0.3 0.5 0.1 0.3 1.5 0.5 0.3 1.7 0 0 1.7 0 0 0 0 0 0 0 0 0 0 0 1.5 0 0.11
29.345 1.45 -0.52 -63.92 0 0.19 1 0 0 31 2 0 0 0 0 22 0.67 -2.66 -19.02 1221 0.5 0.1 0.3 0.5 0.1 0.3 1.5 0.5 0.3 1.7 0 0 1.7 0 0 0 0 0 0 0 0 0 0 0 1.5 0 0.11
29.445 1.45 -0.52 -64 0 0.19 1 0 0 32 2 0 0 0 0 22 0.66 -2.61 -19.29 1221 0.5 0.1 0.3 0.5 0.1 0.3 1.5 0.5 0.3 1.7 0 0 1.7 0 0 0 0 0 0 0 0 0 0 0 1.5 0 0.11
29.545 1.46 -0.52 -64.18 0 0.13 0.88 0 0 32 2 0 0 0 0 22 0.65 -2.53 -18.08 1221 0.5 0.1 0.3 0.5 0.1 0.3 1.5 0.5 0.3 1.7 0 0 1.7 0 0 0 0 0 0 0 0 0 0 0 1.5 0 0.11
29.645 1.46 -0.52 -64.3 -0.06 0.13 1 0 0 31 2 0 0 0 0 22 0.76 -2.46 -18.26 1221 0.5 0.1 0.3 0.5 0.1 0.3 1.5 0.5 0.3 1.7 0 0 1.7 0 0 0 0 0 0 0 0 0 0 0 1.5 0 0.11
29.745 1.46 -0.53 -64.49 0 0.13 1 0 0 33 2 0 0 0 0 22 0.66 -2.58 -20.39 1221 0.5 0.1 0.3 0.5 0.1 0.3 1.5 0.5 0.3 1.7 0 0 1.7 0 0 0 0 0 0 0 0 0 0 0 1.5 0 0.11
29.845 1.47 -0.53 -64.61 -0.06 0.13 1.12 0 0 32 2 0 0 0 0 22 0.73 -2.58 -21.13 1221 0.5 0.1 0.3 0.5 0.1 0.3 1.5 0.5 0.3 1.7 0 0 1.7 0 0 0 0 0 0 0 0 0 0 0 1.5 0 0.11
